[
  {
    "title": "- крещение руси - киев",
    "date": "988 год",
    "description": "* ** 988 год ** - Крещение Руси - Киев",
    "location": {
      "name": "Киев",
      "lat": 50.45,
      "lng": 30.52
    },
    "category": "Дипломатические события"
  },
  {
    "title": "Год ** - избрание илариона митрополитом киевским",
    "date": "1051 год",
    "description": "* ** 1051 год ** - Избрание Илариона митрополитом Киевским - Киев",
    "location": {
      "name": "Киев",
      "lat": 50.45,
      "lng": 30.52
    },
    "category": "Социальные реформы"
  },
  {
    "title": "Год ** - флорентийская уния - флоренция",
    "date": "1439 год",
    "description": "* ** 1439 год ** - Флорентийская уния - Флоренция",
    "location": {
      "name": "Флоренция",
      "lat": 50.3244625827613,
      "lng": 40.74763570987004
    },
    "category": "Изменения границ"
  },
  {
    "title": "Год ** - автокефалия русской церкви -",
    "date": "1448 год",
    "description": "* ** 1448 год ** - Автокефалия Русской церкви - Москва",
    "location": {
      "name": "Москва",
      "lat": 55.75,
      "lng": 37.62
    },
    "category": "Войны и сражения"
  },
  {
    "title": "Год ** - стоглавый собор - москва",
    "date": "1551 год",
    "description": "* ** 1551 год ** - Стоглавый собор - Москва",
    "location": {
      "name": "Москва",
      "lat": 55.75,
      "lng": 37.62
    },
    "category": "Культура и религия"
  },
  {
    "title": "Год ** - учреждение московского патриархата -",
    "date": "1589 год",
    "description": "* ** 1589 год ** - Учреждение Московского патриархата - Москва",
    "location": {
      "name": "Москва",
      "lat": 55.75,
      "lng": 37.62
    },
    "category": "Культура и религия"
  },
  {
    "title": "Год ** - \"уложение\" царя алексея михайловича",
    "date": "1649 год",
    "description": "* ** 1649 год ** - \"Уложение\" царя Алексея Михайловича - Москва",
    "location": {
      "name": "Москва",
      "lat": 55.75,
      "lng": 37.62
    },
    "category": "Социальные реформы"
  },
  {
    "title": "Год ** - избрание никона патриархом московским",
    "date": "1652 год",
    "description": "* ** 1652 год ** - Избрание Никона патриархом Московским и всея Руси - Москва",
    "location": {
      "name": "Москва",
      "lat": 55.75,
      "lng": 37.62
    },
    "category": "Культура и религия"
  },
  {
    "title": "Год ** - начало церковной реформы никона",
    "date": "1653 год",
    "description": "* ** 1653 год ** - Начало церковной реформы Никона - Москва",
    "location": {
      "name": "Москва",
      "lat": 55.75,
      "lng": 37.62
    },
    "category": "Культура и религия"
  },
  {
    "title": "Год ** - церковный собор - москва",
    "date": "1654 год",
    "description": "* ** 1654 год ** - Церковный собор - Москва",
    "location": {
      "name": "Москва",
      "lat": 55.75,
      "lng": 37.62
    },
    "category": "Культура и религия"
  },
  {
    "title": "Год ** - анафема на двоеперстие и",
    "date": "1656 год",
    "description": "* ** 1656 год ** - Анафема на двоеперстие и старые обряды - Москва",
    "location": {
      "name": "Москва",
      "lat": 55.75,
      "lng": 37.62
    },
    "category": "Дипломатические события"
  },
  {
    "title": "Год ** - протопоп аввакум начинает открытую",
    "date": "1656 год",
    "description": "* ** 1656 год ** - Протопоп Аввакум начинает открытую борьбу против реформ - Москва (затем Сибирь)",
    "location": {
      "name": "Москва",
      "lat": 55.75,
      "lng": 37.62
    },
    "category": "Социальные реформы"
  },
  {
    "title": "Год ** - никон оставляет патриаршество -",
    "date": "1658 год",
    "description": "* ** 1658 год ** - Никон оставляет патриаршество - Москва",
    "location": {
      "name": "Москва",
      "lat": 55.75,
      "lng": 37.62
    },
    "category": "Социальные реформы"
  },
  {
    "title": "Годы** - большой московский собор - москва",
    "date": "1666-1667",
    "description": "* ** 1666-1667 годы** - Большой Московский собор - Москва",
    "location": {
      "name": "Москва",
      "lat": 55.75,
      "lng": 37.62
    },
    "category": "Культура и религия"
  },
  {
    "title": "Год ** - начало активных преследований старообрядцев",
    "date": "1667 год",
    "description": "* ** 1667 год ** - Начало активных преследований старообрядцев - Московское государство",
    "location": {
      "name": "Московское государство",
      "lat": 46.58300545796391,
      "lng": 35.92634311811608
    },
    "category": "Становление государства"
  },
  {
    "title": "- соловецкое восстание - соловецкий монастырь",
    "date": "1676 год",
    "description": "* ** 1676 год ** - Соловецкое восстание - Соловецкий монастырь",
    "location": {
      "name": "Соловецкий монастырь",
      "lat": 62.655980364894376,
      "lng": 29.441020634570773
    },
    "category": "Культура и религия"
  },
  {
    "title": "Год ** - казнь протопопа аввакума и",
    "date": "1682 год",
    "description": "* ** 1682 год ** - Казнь протопопа Аввакума и его сподвижников - Пустозерск",
    "location": {
      "name": "Пустозерск",
      "lat": 45.22856939012668,
      "lng": 36.91869586903498
    },
    "category": "Территориальные приобретения"
  },
  {
    "title": "Год ** - стрелецкий бунт - москва",
    "date": "1698 год",
    "description": "* ** 1698 год ** - Стрелецкий бунт - Москва",
    "location": {
      "name": "Москва",
      "lat": 55.75,
      "lng": 37.62
    },
    "category": "Революции и перевороты"
  },
  {
    "title": "- указ петра i о подушной переписи старообрядцев - российская империя",
    "date": "1716 год",
    "description": "* ** 1716 год ** - Указ Петра I о подушной переписи старообрядцев - Российская империя",
    "location": {
      "name": "Российская империя",
      "lat": 46.339261354873486,
      "lng": 46.667603028394694
    },
    "category": "Восстания и бунты"
  },
  {
    "title": "Год ** - учреждение синода - санкт-петербург",
    "date": "1722 год",
    "description": "* ** 1722 год ** - Учреждение Синода - Санкт-Петербург",
    "location": {
      "name": "Санкт-Петербург",
      "lat": 59.94,
      "lng": 30.31
    },
    "category": "Становление государства"
  },
  {
    "title": "- манифест екатерины ii о свободе вероисповедания - российская империя",
    "date": "1762 год",
    "description": "* ** 1762 год ** - Манифест Екатерины II о свободе вероисповедания - Российская империя",
    "location": {
      "name": "Санкт-Петербург",
      "lat": 59.94,
      "lng": 30.31
    },
    "category": "Социальные реформы"
  },
  {
    "title": "Год ** - жалованная грамота дворянству -",
    "date": "1785 год",
    "description": "* ** 1785 год ** - Жалованная грамота дворянству - Российская империя",
    "location": {
      "name": "Санкт-Петербург",
      "lat": 59.94,
      "lng": 30.31
    },
    "category": "Становление государства"
  },
  {
    "title": "- указ",
    "date": "1905 год",
    "description": "* ** 1905 год ** - Указ \"Об укреплении начал веротерпимости\" - Российская империя",
    "location": {
      "name": "Санкт-Петербург",
      "lat": 59.94,
      "lng": 30.31
    },
    "category": "Войны и сражения"
  },
  {
    "title": "Год ** - восстановление патриаршества - москва",
    "date": "1917 год",
    "description": "* ** 1917 год ** - Восстановление патриаршества - Москва",
    "location": {
      "name": "Москва",
      "lat": 55.75,
      "lng": 37.62
    },
    "category": "Революции и перевороты"
  },
  {
    "title": "Год ** - **большой московский собор** -",
    "date": "1656 год",
    "description": "* ** 1656 год ** - **Большой Московский собор** - Москва, Русское царство",
    "location": {
      "name": "Москва",
      "lat": 55.75,
      "lng": 37.62
    },
    "category": "Культура и религия"
  },
  {
    "title": "Годы** - **великий московский собор (с участием",
    "date": "1666-1667",
    "description": "* ** 1666-1667 годы** - **Великий Московский собор (с участием восточных патриархов)** - Москва, Русское царство",
    "location": {
      "name": "Москва",
      "lat": 55.75,
      "lng": 37.62
    },
    "category": "Культура и религия"
  },
  {
    "title": "Год ** - **соловецкое восстание** - соловецкий",
    "date": "1667 год",
    "description": "* ** 1667 год ** - **Соловецкое восстание** - Соловецкий монастырь, Русское царство",
    "location": {
      "name": "Соловецкий монастырь",
      "lat": 48.823591555184,
      "lng": 40.622591372239015
    },
    "category": "Культура и религия"
  },
  {
    "title": "Год ** - **собор о раскольниках** -",
    "date": "1681 год",
    "description": "* ** 1681 год ** - **Собор о раскольниках** - Москва, Русское царство",
    "location": {
      "name": "Москва",
      "lat": 55.75,
      "lng": 37.62
    },
    "category": "Культура и религия"
  },
  {
    "title": "Год ** - **участие старообрядцев в стрелецком",
    "date": "1682 год",
    "description": "* ** 1682 год ** - **Участие старообрядцев в стрелецком восстании** - Москва, Русское царство",
    "location": {
      "name": "Москва",
      "lat": 55.75,
      "lng": 37.62
    },
    "category": "Революции и перевороты"
  },
  {
    "title": "Год ** - **\"12 статей\" софьи алексеевны**",
    "date": "1685 год",
    "description": "* ** 1685 год ** - **\"12 статей\" Софьи Алексеевны** - Москва, Русское царство",
    "location": {
      "name": "Москва",
      "lat": 55.75,
      "lng": 37.62
    },
    "category": "Культура и религия"
  },
  {
    "title": "Новый указ петра i о бородах",
    "date": "1698 год",
    "description": "* ** 1698 год ** - **Новый указ Петра I о бородах** - Русское царство",
    "location": {
      "name": "Москва",
      "lat": 55.75,
      "lng": 37.62
    },
    "category": "Революции и перевороты"
  },
  {
    "title": "Год ** - **разорение керженских скитов** -",
    "date": "1716 год",
    "description": "* ** 1716 год ** - **Разорение Керженских скитов** - Керженец, Нижегородская губерния, Российская империя",
    "location": {
      "name": "Керженец, Нижегородская губерния",
      "lat": 46.710937756588415,
      "lng": 40.89890790351214
    },
    "category": "Революции и перевороты"
  },
  {
    "title": "Год ** - **создание синода и упразднение",
    "date": "1722 год",
    "description": "* ** 1722 год ** - **Создание Синода и упразднение патриаршества** - Санкт-Петербург, Российская империя",
    "location": {
      "name": "Санкт-Петербург",
      "lat": 59.94,
      "lng": 30.31
    },
    "category": "Военные кампании"
  },
  {
    "title": "Год ** - **дело артемия волынского** -",
    "date": "1737 год",
    "description": "* ** 1737 год ** - **Дело Артемия Волынского** - Санкт-Петербург, Российская империя",
    "location": {
      "name": "Санкт-Петербург",
      "lat": 59.94,
      "lng": 30.31
    },
    "category": "Социальные реформы"
  },
  {
    "title": "Год ** - **манифест екатерины ii о",
    "date": "1762 год",
    "description": "* ** 1762 год ** - **Манифест Екатерины II о свободе вероисповедания** - Российская империя",
    "location": {
      "name": "Санкт-Петербург",
      "lat": 59.94,
      "lng": 30.31
    },
    "category": "Становление государства"
  },
  {
    "title": "Год ** - **жалованная грамота дворянству** -",
    "date": "1785 год",
    "description": "* ** 1785 год ** - **Жалованная грамота дворянству** - Российская империя",
    "location": {
      "name": "Санкт-Петербург",
      "lat": 59.94,
      "lng": 30.31
    },
    "category": "Революции и перевороты"
  },
  {
    "title": "Год ** - **белокриницкая иерархия** - белая",
    "date": "1848 год",
    "description": "* ** 1848 год ** - **Белокриницкая иерархия** - Белая Криница (ныне Украина), Австрийская империя",
    "location": {
      "name": "Белая Криница",
      "lat": 54.424456870526875,
      "lng": 35.66259769868722
    },
    "category": "Изменения границ"
  },
  {
    "title": "Год ** - **указ \"об укреплении начал",
    "date": "1905 год",
    "description": "* ** 1905 год ** - **Указ \"Об укреплении начал веротерпимости\"** - Российская империя",
    "location": {
      "name": "Санкт-Петербург",
      "lat": 59.94,
      "lng": 30.31
    },
    "category": "Научные достижения"
  },
  {
    "title": "Год ** - **поместный собор русской православной",
    "date": "1918 год",
    "description": "* ** 1918 год ** - **Поместный собор Русской православной церкви и восстановление патриаршества** - Москва, Советская Россия",
    "location": {
      "name": "Москва",
      "lat": 55.75,
      "lng": 37.62
    },
    "category": "Культура и религия"
  },
  {
    "title": "Год ** - **снятие анафем с дониконовских",
    "date": "1971 год",
    "description": "* ** 1971 год ** - **Снятие анафем с дониконовских обрядов Русской православной церковью** - Москва, СССР",
    "location": {
      "name": "Москва",
      "lat": 55.75,
      "lng": 37.62
    },
    "category": "Культура и религия"
  }
]