[
  {
    "title": "Год ** - **стоглавый собор** - москва",
    "date": "1551 год",
    "description": "* ** 1551 год ** - **Стоглавый собор** - Москва",
    "location": {
      "name": "Москва",
      "lat": 55.75,
      "lng": 37.62
    },
    "category": "Культура и религия"
  },
  {
    "title": "Год ** - **начало деятельности \"кружка ревнителей",
    "date": "1646 год",
    "description": "* ** 1646 год ** - **Начало деятельности \"Кружка ревнителей благочестия\"** - Москва",
    "location": {
      "name": "Москва",
      "lat": 55.75,
      "lng": 37.62
    },
    "category": "Военные кампании"
  },
  {
    "title": "Год ** - **начало церковной реформы патриарха",
    "date": "1653 год",
    "description": "* ** 1653 год ** - **Начало церковной реформы патриарха Никона** - Москва",
    "location": {
      "name": "Москва",
      "lat": 55.75,
      "lng": 37.62
    },
    "category": "Культура и религия"
  },
  {
    "title": "Год ** - **церковный собор, одобривший реформы",
    "date": "1654 год",
    "description": "* ** 1654 год ** - **Церковный собор, одобривший реформы Никона** - Москва",
    "location": {
      "name": "Москва",
      "lat": 55.75,
      "lng": 37.62
    },
    "category": "Культура и религия"
  },
  {
    "title": "Год ** - **анафема на двоеперстие и",
    "date": "1656 год",
    "description": "* ** 1656 год ** - **Анафема на двоеперстие и старые обряды** - Москва",
    "location": {
      "name": "Москва",
      "lat": 55.75,
      "lng": 37.62
    },
    "category": "Политические реформы"
  },
  {
    "title": "Год ** - **первые казни старообрядцев** -",
    "date": "1656 год",
    "description": "* ** 1656 год ** - **Первые казни старообрядцев** - Разные регионы России",
    "location": {
      "name": "Разные регионы России",
      "lat": 52.99570181485816,
      "lng": 29.801810688099394
    },
    "category": "Изменения границ"
  },
  {
    "title": "Год ** - **отречение никона от патриаршества**",
    "date": "1658 год",
    "description": "* ** 1658 год ** - **Отречение Никона от патриаршества** - Москва",
    "location": {
      "name": "Москва",
      "lat": 55.75,
      "lng": 37.62
    },
    "category": "Восстания и бунты"
  },
  {
    "title": "Годы** - **большой московский собор** - москва",
    "date": "1666-1667",
    "description": "* ** 1666-1667 годы** - **Большой Московский собор** - Москва",
    "location": {
      "name": "Москва",
      "lat": 55.75,
      "lng": 37.62
    },
    "category": "Культура и религия"
  },
  {
    "title": "Год ** - **начало соловецкого восстания** -",
    "date": "1667 год",
    "description": "* ** 1667 год ** - **Начало Соловецкого восстания** - Соловецкий монастырь",
    "location": {
      "name": "Соловецкий монастырь",
      "lat": 54.12129632559664,
      "lng": 28.022899858230303
    },
    "category": "Культура и религия"
  },
  {
    "title": "Монахи соловецкого монастыря отказались принять новые обряды",
    "date": "в 1676",
    "description": "Монахи Соловецкого монастыря отказались принять новые обряды и подняли восстание, которое было подавлено только в 1676 году",
    "location": {
      "name": "Соловецкий монастырь",
      "lat": 49.495045708269714,
      "lng": 51.32886831785885
    },
    "category": "Культура и религия"
  },
  {
    "title": "Год ** - **казнь степана разина** -",
    "date": "1671 год",
    "description": "* ** 1671 год ** - **Казнь Степана Разина** - Москва",
    "location": {
      "name": "Москва",
      "lat": 55.75,
      "lng": 37.62
    },
    "category": "Изменения границ"
  },
  {
    "title": "Год ** - **падение соловецкого монастыря** -",
    "date": "1676 год",
    "description": "* ** 1676 год ** - **Падение Соловецкого монастыря** - Соловецкий монастырь",
    "location": {
      "name": "Соловецкий монастырь",
      "lat": 50.114485992234385,
      "lng": 48.82357114324999
    },
    "category": "Культура и религия"
  },
  {
    "title": "Год ** - **казнь протопопа аввакума и",
    "date": "1682 год",
    "description": "* ** 1682 год ** - **Казнь протопопа Аввакума и его сподвижников** - Пустозерск",
    "location": {
      "name": "Пустозерск",
      "lat": 47.52785468508481,
      "lng": 34.26272369101974
    },
    "category": "Военные кампании"
  },
  {
    "title": "Год ** - **стрелецкий бунт** - москва",
    "date": "1682 год",
    "description": "* ** 1682 год ** - **Стрелецкий бунт** - Москва",
    "location": {
      "name": "Москва",
      "lat": 55.75,
      "lng": 37.62
    },
    "category": "Революции и перевороты"
  },
  {
    "title": "Год ** - **\"12 статей\" софьи алексеевны**",
    "date": "1685 год",
    "description": "* ** 1685 год ** - **\"12 статей\" Софьи Алексеевны** - Москва",
    "location": {
      "name": "Москва",
      "lat": 55.75,
      "lng": 37.62
    },
    "category": "Основание городов"
  },
  {
    "title": "Год ** - **подавление стрелецкого бунта петром",
    "date": "1698 год",
    "description": "* ** 1698 год ** - **Подавление стрелецкого бунта Петром I** - Москва",
    "location": {
      "name": "Москва",
      "lat": 55.75,
      "lng": 37.62
    },
    "category": "Революции и перевороты"
  },
  {
    "title": "Год ** - **указ петра i о",
    "date": "1716 год",
    "description": "* ** 1716 год ** - **Указ Петра I о введении двойного налога для старообрядцев** - Россия",
    "location": {
      "name": "Россия",
      "lat": 55.75,
      "lng": 37.62
    },
    "category": "Политические реформы"
  },
  {
    "title": "Год ** - **создание \"раскольнической конторы\"** -",
    "date": "1722 год",
    "description": "* ** 1722 год ** - **Создание \"Раскольнической конторы\"** - Санкт-Петербург",
    "location": {
      "name": "Санкт-Петербург",
      "lat": 59.94,
      "lng": 30.31
    },
    "category": "Научные достижения"
  },
  {
    "title": "Год ** - **казнь феодоры морозовой и",
    "date": "1737 год",
    "description": "* ** 1737 год ** - **Казнь Феодоры Морозовой и княгини Урусовой** - Боровск",
    "location": {
      "name": "Боровск",
      "lat": 57.148925725595454,
      "lng": 44.19150756693532
    },
    "category": "Экономические события"
  },
  {
    "title": "Год ** - **манифест екатерины ii о",
    "date": "1762 год",
    "description": "* ** 1762 год ** - **Манифест Екатерины II о свободе вероисповедания** - Россия",
    "location": {
      "name": "Санкт-Петербург",
      "lat": 59.94,
      "lng": 30.31
    },
    "category": "Дипломатические события"
  },
  {
    "title": "Год ** - **жалованная грамота городам** -",
    "date": "1785 год",
    "description": "* ** 1785 год ** - **Жалованная грамота городам** - Россия",
    "location": {
      "name": "Санкт-Петербург",
      "lat": 59.94,
      "lng": 30.31
    },
    "category": "Экономические события"
  },
  {
    "title": "Год ** - **закон о даровании старообрядцам",
    "date": "1883 год",
    "description": "* ** 1883 год ** - **Закон о даровании старообрядцам прав** - Россия",
    "location": {
      "name": "Санкт-Петербург",
      "lat": 59.94,
      "lng": 30.31
    },
    "category": "Социальные реформы"
  },
  {
    "title": "Год ** - **указ \"об укреплении начал",
    "date": "1905 год",
    "description": "* ** 1905 год ** - **Указ \"Об укреплении начал веротерпимости\"** - Россия",
    "location": {
      "name": "Санкт-Петербург",
      "lat": 59.94,
      "lng": 30.31
    },
    "category": "Революции и перевороты"
  },
  {
    "title": "Год ** - **поместный собор русской православной",
    "date": "1917 год",
    "description": "* ** 1917 год ** - **Поместный собор Русской православной церкви** - Москва",
    "location": {
      "name": "Москва",
      "lat": 55.75,
      "lng": 37.62
    },
    "category": "Культура и религия"
  },
  {
    "title": "Большой московский собор** - москва",
    "date": "1667",
    "description": "* ** 1667 ** - **Большой Московский Собор** - Москва",
    "location": {
      "name": "Москва",
      "lat": 55.75,
      "lng": 37.62
    },
    "category": "Культура и религия"
  },
  {
    "title": "Соловецкое сидение** - соловецкий монастырь",
    "date": "1667-1676",
    "description": "* ** 1667-1676 ** - **Соловецкое сидение** - Соловецкий монастырь",
    "location": {
      "name": "Соловецкий монастырь",
      "lat": 55.912843972538475,
      "lng": 40.32948643942751
    },
    "category": "Культура и религия"
  },
  {
    "title": "Дело никиты пустосвята** - москва",
    "date": "1681-1682",
    "description": "* ** 1681-1682 ** - **Дело Никиты Пустосвята** - Москва",
    "location": {
      "name": "Москва",
      "lat": 55.75,
      "lng": 37.62
    },
    "category": "Социальные реформы"
  },
  {
    "title": "Стрелецкий бунт и хованщина** - москва",
    "date": "1682",
    "description": "* ** 1682 ** - **Стрелецкий бунт и Хованщина** - Москва",
    "location": {
      "name": "Москва",
      "lat": 55.75,
      "lng": 37.62
    },
    "category": "Революции и перевороты"
  },
  {
    "title": "Статей\" софьи алексеевны** - москва",
    "date": "1685-1689",
    "description": "* ** 1685-1689 ** - **\"12 статей\" Софьи Алексеевны** - Москва",
    "location": {
      "name": "Москва",
      "lat": 55.75,
      "lng": 37.62
    },
    "category": "Основание городов"
  },
  {
    "title": "Казнь старообрядцев после стрелецкого бунта** - москва",
    "date": "1698",
    "description": "* ** 1698 ** - **Казнь старообрядцев после стрелецкого бунта** - Москва",
    "location": {
      "name": "Москва",
      "lat": 55.75,
      "lng": 37.62
    },
    "category": "Революции и перевороты"
  },
  {
    "title": "Указ петра i о введении двойного налогообложения",
    "date": "1716",
    "description": "* ** 1716 ** - **Указ Петра I о введении двойного налогообложения для старообрядцев** - Российская империя",
    "location": {
      "name": "Российская империя",
      "lat": 57.3927121572395,
      "lng": 39.374159914779376
    },
    "category": "Войны и сражения"
  },
  {
    "title": "Учреждение монастырского приказа** - российская империя",
    "date": "1722",
    "description": "* ** 1722 ** - **Учреждение Монастырского приказа** - Российская империя",
    "location": {
      "name": "Санкт-Петербург",
      "lat": 59.94,
      "lng": 30.31
    },
    "category": "Культура и религия"
  },
  {
    "title": "Казнь старца иова** - керженец",
    "date": "1723",
    "description": "* ** 1723 ** - **Казнь старца Иова** - Керженец",
    "location": {
      "name": "Керженец",
      "lat": 64.88254604835157,
      "lng": 35.2125995682155
    },
    "category": "Становление государства"
  },
  {
    "title": "Башкирское восстание** - башкирия",
    "date": "1737-1742",
    "description": "* ** 1737-1742 ** - **Башкирское восстание** - Башкирия",
    "location": {
      "name": "Башкирия",
      "lat": 48.13832650148005,
      "lng": 32.42776709398968
    },
    "category": "Революции и перевороты"
  },
  {
    "title": "Манифест екатерины ii о свободе вероисповедания** -",
    "date": "1762",
    "description": "* ** 1762 ** - **Манифест Екатерины II о свободе вероисповедания** - Российская империя",
    "location": {
      "name": "Санкт-Петербург",
      "lat": 59.94,
      "lng": 30.31
    },
    "category": "Экономические события"
  },
  {
    "title": "Секуляризация церковных земель** - российская империя",
    "date": "1764",
    "description": "* ** 1764 ** - **Секуляризация церковных земель** - Российская империя",
    "location": {
      "name": "Санкт-Петербург",
      "lat": 59.94,
      "lng": 30.31
    },
    "category": "Культура и религия"
  },
  {
    "title": "Жалованная грамота дворянству** - российская империя",
    "date": "1785",
    "description": "* ** 1785 ** - **Жалованная грамота дворянству** - Российская империя",
    "location": {
      "name": "Санкт-Петербург",
      "lat": 59.94,
      "lng": 30.31
    },
    "category": "Экономические события"
  },
  {
    "title": "Указ павла i о разрешении строительства старообрядческих",
    "date": "1797",
    "description": "* ** 1797 ** - **Указ Павла I о разрешении строительства старообрядческих церквей** - Российская империя",
    "location": {
      "name": "Санкт-Петербург",
      "lat": 59.94,
      "lng": 30.31
    },
    "category": "Основание городов"
  },
  {
    "title": "Учреждение единоверческих приходов** - российская империя",
    "date": "1800",
    "description": "* ** 1800 ** - **Учреждение единоверческих приходов** - Российская империя",
    "location": {
      "name": "Москва",
      "lat": 55.75,
      "lng": 37.62
    },
    "category": "Территориальные приобретения"
  },
  {
    "title": "Холерные бунты\"** - различные регионы российской империи",
    "date": "1855",
    "description": "* ** 1855 ** - **\"Холерные бунты\"** - Различные регионы Российской империи",
    "location": {
      "name": "Различные регионы Российской империи",
      "lat": 64.17511881233146,
      "lng": 33.581340102747404
    },
    "category": "Революции и перевороты"
  },
  {
    "title": "Указ николая ii \"об укреплении начал веротерпимости\"**",
    "date": "1905",
    "description": "* ** 1905 ** - **Указ Николая II \"Об укреплении начал веротерпимости\"** - Российская империя",
    "location": {
      "name": "Санкт-Петербург",
      "lat": 59.94,
      "lng": 30.31
    },
    "category": "Культура и религия"
  },
  {
    "title": "Снятие анафем с дониконовских обрядов русской православной",
    "date": "1971",
    "description": "* ** 1971 ** - **Снятие анафем с дониконовских обрядов Русской Православной Церковью** - Москва",
    "location": {
      "name": "Москва",
      "lat": 55.75,
      "lng": 37.62
    },
    "category": "Культура и религия"
  }
]