[
  {
    "title": "Февраля** - **восшествие на престол александра ii**",
    "date": "1855",
    "description": "* ** 1855 , 19 февраля** - **Восшествие на престол Александра II** - Санкт-Петербург",
    "location": {
      "name": "Санкт-Петербург",
      "lat": 59.94,
      "lng": 30.31
    },
    "category": "Культура и религия"
  },
  {
    "title": "Создание секретного комитета по крестьянскому делу** -",
    "date": "1857",
    "description": "* ** 1857 ** - **Создание Секретного комитета по крестьянскому делу** - Санкт-Петербург",
    "location": {
      "name": "Санкт-Петербург",
      "lat": 59.94,
      "lng": 30.31
    },
    "category": "Экономические события"
  },
  {
    "title": "Учреждение редакционных комиссий** - санкт-петербург",
    "date": "1859",
    "description": "* ** 1859 ** - **Учреждение Редакционных комиссий** - Санкт-Петербург",
    "location": {
      "name": "Санкт-Петербург",
      "lat": 59.94,
      "lng": 30.31
    },
    "category": "Изменения границ"
  },
  {
    "title": "Февраля** - **манифест об отмене крепостного права**",
    "date": "1861",
    "description": "* ** 1861 , 19 февраля** - **Манифест об отмене крепостного права** - Санкт-Петербург",
    "location": {
      "name": "Санкт-Петербург",
      "lat": 59.94,
      "lng": 30.31
    },
    "category": "Экономические события"
  },
  {
    "title": "Начало обсуждения проектов городской реформы** - санкт-петербург",
    "date": "1862",
    "description": "* ** 1862 ** - **Начало обсуждения проектов городской реформы** - Санкт-Петербург",
    "location": {
      "name": "Санкт-Петербург",
      "lat": 59.94,
      "lng": 30.31
    },
    "category": "Социальные реформы"
  },
  {
    "title": "Января** - **земская реформа** - российская империя",
    "date": "1864",
    "description": "* ** 1864 , 1 января** - **Земская реформа** - Российская империя",
    "location": {
      "name": "Санкт-Петербург",
      "lat": 59.94,
      "lng": 30.31
    },
    "category": "Социальные реформы"
  },
  {
    "title": "Создание комиссии для разработки проекта городового положения**",
    "date": "1866",
    "description": "* ** 1866 ** - **Создание комиссии для разработки проекта Городового положения** - Санкт-Петербург",
    "location": {
      "name": "Санкт-Петербург",
      "lat": 59.94,
      "lng": 30.31
    },
    "category": "Войны и сражения"
  },
  {
    "title": "Создана специальная комиссия для разработки проекта нового",
    "date": "1785",
    "description": "Создана специальная комиссия для разработки проекта нового Городового положения, которое должно было заменить устаревшее положение 1785 года",
    "location": {
      "name": "Санкт-Петербург",
      "lat": 59.94,
      "lng": 30.31
    },
    "category": "Культура и религия"
  },
  {
    "title": "Июня** - **утверждение городового положения** - санкт-петербург",
    "date": "1870",
    "description": "* ** 1870 , 16 июня** - **Утверждение Городового положения** - Санкт-Петербург",
    "location": {
      "name": "Санкт-Петербург",
      "lat": 59.94,
      "lng": 30.31
    },
    "category": "Революции и перевороты"
  },
  {
    "title": "Осень** - **первые выборы в городские думы**",
    "date": "1870",
    "description": "* ** 1870 , осень** - **Первые выборы в городские думы** - Различные города Российской империи",
    "location": {
      "name": "Различные города Российской империи",
      "lat": 46.30746778053722,
      "lng": 45.796993586459905
    },
    "category": "Основание городов"
  },
  {
    "title": "Начало работы новых городских дум и управ**",
    "date": "1871",
    "description": "* ** 1871 ** - **Начало работы новых городских дум и управ** - Различные города Российской империи",
    "location": {
      "name": "Различные города Российской империи",
      "lat": 53.88628335233686,
      "lng": 32.89473812339125
    },
    "category": "Войны и сражения"
  },
  {
    "title": "Выборы в санкт-петербургскую городскую думу** - санкт-петербург",
    "date": "1871",
    "description": "* ** 1871 ** - **Выборы в Санкт-Петербургскую городскую думу** - Санкт-Петербург",
    "location": {
      "name": "Санкт-Петербург",
      "lat": 59.94,
      "lng": 30.31
    },
    "category": "Революции и перевороты"
  },
  {
    "title": "Выборы в московскую городскую думу** - москва",
    "date": "1871",
    "description": "* ** 1871 ** - **Выборы в Московскую городскую думу** - Москва",
    "location": {
      "name": "Москва",
      "lat": 55.75,
      "lng": 37.62
    },
    "category": "Социальные реформы"
  },
  {
    "title": "Введение городового положения в крупных городах** -",
    "date": "1871-1872",
    "description": "* ** 1871-1872 ** - **Введение Городового положения в крупных городах** - Крупные города Российской империи",
    "location": {
      "name": "Крупные города Российской империи",
      "lat": 52.009177886409574,
      "lng": 47.941641244767595
    },
    "category": "Научные достижения"
  },
  {
    "title": "Утверждение штатов городских учреждений** - санкт-петербург",
    "date": "1872",
    "description": "* ** 1872 ** - **Утверждение штатов городских учреждений** - Санкт-Петербург",
    "location": {
      "name": "Санкт-Петербург",
      "lat": 59.94,
      "lng": 30.31
    },
    "category": "Научные достижения"
  },
  {
    "title": "Начало формирования городских бюджетов на основе новых принципов",
    "date": "1872",
    "description": "* ** 1872 ** - **Начало формирования городских бюджетов на основе новых принципов** - Различные города Российской империи",
    "location": {
      "name": "Различные города Российской империи",
      "lat": 46.37955170199687,
      "lng": 48.177441470267
    },
    "category": "Дипломатические события"
  },
  {
    "title": "Создание городских статистических комитетов** - различные города",
    "date": "1873",
    "description": "* ** 1873 ** - **Создание городских статистических комитетов** - Различные города Российской империи",
    "location": {
      "name": "Различные города",
      "lat": 56.644265941127614,
      "lng": 28.02398548298825
    },
    "category": "Основание городов"
  },
  {
    "title": "Введение должности городского головы в большинстве городов**",
    "date": "1874",
    "description": "* ** 1874 ** - **Введение должности городского головы в большинстве городов** - Различные города Российской империи",
    "location": {
      "name": "Различные города Российской империи",
      "lat": 45.4030783014609,
      "lng": 47.89126319856084
    },
    "category": "Культура и религия"
  },
  {
    "title": "Открытие первых городских училищ и больниц, финансируемых",
    "date": "1875",
    "description": "* ** 1875 ** - **Открытие первых городских училищ и больниц, финансируемых городскими думами** - Различные города Российской империи",
    "location": {
      "name": "Различные города Российской империи",
      "lat": 54.914600649128644,
      "lng": 29.099026810017268
    },
    "category": "Научные достижения"
  },
  {
    "title": "Первые попытки создания общероссийского союза городских самоуправлений**",
    "date": "1876",
    "description": "* ** 1876 ** - **Первые попытки создания общероссийского союза городских самоуправлений** - Москва",
    "location": {
      "name": "Москва",
      "lat": 55.75,
      "lng": 37.62
    },
    "category": "Дипломатические события"
  },
  {
    "title": "Русско-турецкая война и участие городов в обеспечении армии",
    "date": "1877-1878",
    "description": "* ** 1877-1878 ** - **Русско-турецкая война и участие городов в обеспечении армии** - Различные города Российской империи",
    "location": {
      "name": "Российская империя",
      "lat": 63.767686606872275,
      "lng": 46.452577190157726
    },
    "category": "Войны и сражения"
  },
  {
    "title": "Обсуждение вопроса о расширении избирательных прав в",
    "date": "1879",
    "description": "* ** 1879 ** - **Обсуждение вопроса о расширении избирательных прав в городских думах** - Санкт-Петербург",
    "location": {
      "name": "Санкт-Петербург",
      "lat": 59.94,
      "lng": 30.31
    },
    "category": "Основание городов"
  },
  {
    "title": "Создание комиссии лорис-меликова и обсуждение вопроса о",
    "date": "1880",
    "description": "* ** 1880 ** - **Создание комиссии Лорис-Меликова и обсуждение вопроса о привлечении представителей земств и городов к законотворчеству** - Санкт-Петербург",
    "location": {
      "name": "Санкт-Петербург",
      "lat": 59.94,
      "lng": 30.31
    },
    "category": "Социальные реформы"
  },
  {
    "title": "Марта** - **убийство александра ii** - санкт-петербург",
    "date": "1881",
    "description": "* ** 1881 , 1 марта** - **Убийство Александра II** - Санкт-Петербург",
    "location": {
      "name": "Санкт-Петербург",
      "lat": 59.94,
      "lng": 30.31
    },
    "category": "Социальные реформы"
  },
  {
    "title": "Июня** - **новое городовое положение** - российская",
    "date": "1892",
    "description": "* ** 1892 , 11 июня** - **Новое Городовое положение** - Российская империя",
    "location": {
      "name": "Санкт-Петербург",
      "lat": 59.94,
      "lng": 30.31
    },
    "category": "Территориальные приобретения"
  },
  {
    "title": "Сокращение числа избирателей в городских думах** -",
    "date": "1892",
    "description": "* ** 1892 ** - **Сокращение числа избирателей в городских думах** - Различные города Российской империи",
    "location": {
      "name": "Различные города Российской империи",
      "lat": 60.09840998053407,
      "lng": 41.18575366605844
    },
    "category": "Становление государства"
  },
  {
    "title": "Усиление контроля правительства над городским самоуправлением** -",
    "date": "1892-1917",
    "description": "* ** 1892-1917 ** - **Усиление контроля правительства над городским самоуправлением** - Различные города Российской империи",
    "location": {
      "name": "Различные города Российской империи",
      "lat": 45.36774442568691,
      "lng": 38.25783302379581
    },
    "category": "Территориальные приобретения"
  },
  {
    "title": "Революция 1905-1907 годов и активизация городского самоуправления**",
    "date": "1905-1907",
    "description": "* ** 1905-1907 ** - **Революция 1905-1907 годов и активизация городского самоуправления** - Различные города Российской империи",
    "location": {
      "name": "Различные города Российской империи",
      "lat": 58.18541978146436,
      "lng": 34.793439742373145
    },
    "category": "Революции и перевороты"
  },
  {
    "title": "В период революции 1905-1907 годов городское самоуправление",
    "date": "1905-1907",
    "description": "В период революции 1905-1907 годов городское самоуправление активизируется, участвуя в политической жизни и решении социальных проблем",
    "location": {
      "name": "Санкт-Петербург",
      "lat": 59.94,
      "lng": 30.31
    },
    "category": "Социальные реформы"
  },
  {
    "title": "Создание всероссийского союза городов** - москва",
    "date": "1906",
    "description": "* ** 1906 ** - **Создание Всероссийского союза городов** - Москва",
    "location": {
      "name": "Москва",
      "lat": 55.75,
      "lng": 37.62
    },
    "category": "Дипломатические события"
  },
  {
    "title": "Первая мировая война и участие городов в обеспечении фронта",
    "date": "1914-1917",
    "description": "* ** 1914-1917 ** - **Первая мировая война и участие городов в обеспечении фронта** - Различные города Российской империи",
    "location": {
      "name": "Различные города Российской империи",
      "lat": 54.509159980846434,
      "lng": 47.50056882842418
    },
    "category": "Войны и сражения"
  },
  {
    "title": "Февральская революция** - **российская империя**",
    "date": "1917",
    "description": "* ** 1917 , Февральская революция** - **Российская империя**",
    "location": {
      "name": "Петроград",
      "lat": 59.94,
      "lng": 30.31
    },
    "category": "Революции и перевороты"
  },
  {
    "title": "Октябрьская революция** - **российская империя**",
    "date": "1917",
    "description": "* ** 1917 , Октябрьская революция** - **Российская империя**",
    "location": {
      "name": "Петроград",
      "lat": 59.94,
      "lng": 30.31
    },
    "category": "Революции и перевороты"
  },
  {
    "title": "Ноябрь** - **учреждение временных комиссий по пересмотру",
    "date": "1870",
    "description": "* ** 1870 , ноябрь** - **Учреждение временных комиссий по пересмотру городовых положений** - **Санкт-Петербург, Москва, другие крупные города**",
    "location": {
      "name": "Санкт-Петербург, Москва, другие крупные города",
      "lat": 55.75,
      "lng": 37.62
    },
    "category": "Политические реформы"
  },
  {
    "title": "Январь** - **первые выборы гласных в городскую",
    "date": "1871",
    "description": "* ** 1871 , январь** - **Первые выборы гласных в городскую думу по новому Городовому положению в городах Сибири** - **Томск, Иркутск, другие города Сибири**",
    "location": {
      "name": "Томск, Иркутск, другие города Сибири",
      "lat": 56.848541662482674,
      "lng": 48.25732918723866
    },
    "category": "Основание городов"
  },
  {
    "title": "Создание статистических отделений при городских управах** -",
    "date": "1872",
    "description": "* ** 1872 ** - **Создание Статистических отделений при городских управах** - **Санкт-Петербург, Москва, крупные губернские города**",
    "location": {
      "name": "Санкт-Петербург, Москва, крупные губернские города",
      "lat": 55.75,
      "lng": 37.62
    },
    "category": "Восстания и бунты"
  },
  {
    "title": "Апрель** - **высочайшее повеление о распространении городового",
    "date": "1873",
    "description": "* ** 1873 , апрель** - **Высочайшее повеление о распространении Городового положения на города Области Войска Донского** - **Новочеркасск, Ростов-на-Дону, другие города области**",
    "location": {
      "name": "Область Войска Донского",
      "lat": 57.08176795445846,
      "lng": 40.5765034491221
    },
    "category": "Изменения границ"
  },
  {
    "title": "Начало деятельности городских училищных советов** - **различные",
    "date": "1874",
    "description": "* ** 1874 ** - **Начало деятельности городских училищных советов** - **Различные города Российской империи**",
    "location": {
      "name": "Различные города Российской империи",
      "lat": 52.44132248361312,
      "lng": 31.48630297629328
    },
    "category": "Основание городов"
  },
  {
    "title": "Июнь** - **первый съезд представителей городских общественных",
    "date": "1875",
    "description": "* ** 1875 , июнь** - **Первый съезд представителей городских общественных управлений** - **Москва**",
    "location": {
      "name": "Москва",
      "lat": 55.75,
      "lng": 37.62
    },
    "category": "Экономические события"
  },
  {
    "title": "Обсуждение вопроса о расширении избирательного права в",
    "date": "1876",
    "description": "* ** 1876 ** - **Обсуждение вопроса о расширении избирательного права в городских думах** - **Санкт-Петербург, Министерство внутренних дел**",
    "location": {
      "name": "Санкт-Петербург",
      "lat": 59.94,
      "lng": 30.31
    },
    "category": "Научные достижения"
  },
  {
    "title": "Январь** - **введение должности городского головы в",
    "date": "1877",
    "description": "* ** 1877 , январь** - **Введение должности городского головы в городах Бессарабской области** - **Кишинев, другие города Бессарабии**",
    "location": {
      "name": "Кишинев",
      "lat": 47.01,
      "lng": 28.86
    },
    "category": "Территориальные приобретения"
  },
  {
    "title": "Создание городских санитарных комиссий** - **крупные промышленные",
    "date": "1878",
    "description": "* ** 1878 ** - **Создание городских санитарных комиссий** - **Крупные промышленные города**",
    "location": {
      "name": "Санкт-Петербург",
      "lat": 59.94,
      "lng": 30.31
    },
    "category": "Экономические события"
  },
  {
    "title": "Март** - **высочайшее утверждение \"временных правил о",
    "date": "1879",
    "description": "* ** 1879 , март** - **Высочайшее утверждение \"Временных правил о порядке производства дел в городских думах\"** - **Санкт-Петербург**",
    "location": {
      "name": "Санкт-Петербург",
      "lat": 59.94,
      "lng": 30.31
    },
    "category": "Становление государства"
  },
  {
    "title": "Начало строительства городских водопроводов и канализации во",
    "date": "1880",
    "description": "* ** 1880 ** - **Начало строительства городских водопроводов и канализации во многих городах** - **Различные города Российской империи**",
    "location": {
      "name": "Москва",
      "lat": 55.75,
      "lng": 37.62
    },
    "category": "Территориальные приобретения"
  },
  {
    "title": "Май** - **обсуждение вопроса о реформе городского",
    "date": "1881",
    "description": "* ** 1881 , май** - **Обсуждение вопроса о реформе городского хозяйства в связи с убийством Александра II** - **Санкт-Петербург, Особое совещание при Министерстве внутренних дел**",
    "location": {
      "name": "Санкт-Петербург",
      "lat": 59.94,
      "lng": 30.31
    },
    "category": "Социальные реформы"
  },
  {
    "title": "Усиление контроля губернаторов над деятельностью городских дум**",
    "date": "1882",
    "description": "* ** 1882 ** - **Усиление контроля губернаторов над деятельностью городских дум** - **Различные губернии Российской империи**",
    "location": {
      "name": "Различные губернии Российской империи",
      "lat": 45.489320789970655,
      "lng": 33.34989836563345
    },
    "category": "Дипломатические события"
  },
  {
    "title": "Июнь** - **циркуляр министерства внутренних дел о",
    "date": "1883",
    "description": "* ** 1883 , июнь** - **Циркуляр Министерства внутренних дел о недопустимости обсуждения в городских думах политических вопросов** - **Санкт-Петербург**",
    "location": {
      "name": "Санкт-Петербург",
      "lat": 59.94,
      "lng": 30.31
    },
    "category": "Научные достижения"
  },
  {
    "title": "Пересмотр смет городских доходов и расходов губернскими",
    "date": "1884",
    "description": "* ** 1884 ** - **Пересмотр смет городских доходов и расходов губернскими властями** - **Различные губернии Российской империи**",
    "location": {
      "name": "Различные губернии Российской империи",
      "lat": 53.22949833423488,
      "lng": 29.378141206461454
    },
    "category": "Экономические события"
  },
  {
    "title": "Август** - **высочайшее повеление о создании комиссий",
    "date": "1885",
    "description": "* ** 1885 , август** - **Высочайшее повеление о создании комиссий для пересмотра Городового положения 1870 года** - **Санкт-Петербург**",
    "location": {
      "name": "Санкт-Петербург",
      "lat": 59.94,
      "lng": 30.31
    },
    "category": "Основание городов"
  },
  {
    "title": "Ограничение избирательного права в городских думах для",
    "date": "1886",
    "description": "* ** 1886 ** - **Ограничение избирательного права в городских думах для евреев в черте оседлости** - **Западные губернии Российской империи**",
    "location": {
      "name": "Западные губернии Российской империи",
      "lat": 54.29406397442378,
      "lng": 30.342812895777985
    },
    "category": "Революции и перевороты"
  },
  {
    "title": "Июнь** - **введение должности \"городского старосты\" в",
    "date": "1887",
    "description": "* ** 1887 , июнь** - **Введение должности \"городского старосты\" в малых городах** - **Различные губернии Российской империи**",
    "location": {
      "name": "Различные губернии Российской империи",
      "lat": 52.08775527809833,
      "lng": 31.1061310766027
    },
    "category": "Культура и религия"
  },
  {
    "title": "Принятие нового городового положения, ограничивающего самостоятельность городского",
    "date": "1888",
    "description": "* ** 1888 ** - **Принятие нового Городового положения, ограничивающего самостоятельность городского самоуправления** - **Санкт-Петербург**",
    "location": {
      "name": "Санкт-Петербург",
      "lat": 59.94,
      "lng": 30.31
    },
    "category": "Становление государства"
  }
]