[
  {
    "title": "Е годы** - начало походов русов на",
    "date": "830",
    "description": "* ** 830 -е годы** - Начало походов русов на южное побережье Каспийского моря - Каспийское море, прикаспийские области",
    "location": {
      "name": "Прикаспийские области",
      "lat": 49.999434094027585,
      "lng": 48.568978738728546
    },
    "category": "Основание городов"
  },
  {
    "title": "Год ** - первое упоминание о народе",
    "date": "839 год",
    "description": "* ** 839 год ** - Первое упоминание о народе \"рос\" в Бертинских анналах - Ингельхайм (Франкское государство)",
    "location": {
      "name": "Ингельхайм",
      "lat": 49.199719824531144,
      "lng": 30.90838839952381
    },
    "category": "Становление государства"
  },
  {
    "title": "Е годы** - походы русов на амастриду",
    "date": "840",
    "description": "* ** 840 -е годы** - Походы русов на Амастриду - Амастрида (современная Турция)",
    "location": {
      "name": "Амастрида",
      "lat": 61.59844681796673,
      "lng": 47.851450960400335
    },
    "category": "Изменения границ"
  },
  {
    "title": "Год (18 июня)** - поход русов на",
    "date": "860 год",
    "description": "* ** 860 год (18 июня)** - Поход русов на Константинополь - Константинополь (Византия)",
    "location": {
      "name": "Константинополь",
      "lat": 41.01,
      "lng": 28.97
    },
    "category": "Территориальные приобретения"
  },
  {
    "title": "Год ** - призвание варягов (согласно \"повести",
    "date": "862 год",
    "description": "* ** 862 год ** - Призвание варягов (согласно \"Повести временных лет\") - Новгород, Ладога, Белоозеро",
    "location": {
      "name": "Новгород",
      "lat": 58.52,
      "lng": 31.27
    },
    "category": "Революции и перевороты"
  },
  {
    "title": "Год ** - начало правления рюрика в",
    "date": "862 год",
    "description": "* ** 862 год ** - Начало правления Рюрика в Ладоге (согласно \"Повести временных лет\") - Ладога",
    "location": {
      "name": "Ладога",
      "lat": 45.46792268242055,
      "lng": 50.78375213597131
    },
    "category": "Основание городов"
  },
  {
    "title": "- восстание вадима храброго в новгороде",
    "date": "864 год",
    "description": "* ** 864 год ** - Восстание Вадима Храброго в Новгороде (согласно Иоакимовской летописи) - Новгород",
    "location": {
      "name": "Новгород",
      "lat": 58.52,
      "lng": 31.27
    },
    "category": "Революции и перевороты"
  },
  {
    "title": "Год ** - поход аскольда и дира",
    "date": "866 год",
    "description": "* ** 866 год ** - Поход Аскольда и Дира на Константинополь - Константинополь (Византия)",
    "location": {
      "name": "Константинополь",
      "lat": 41.01,
      "lng": 28.97
    },
    "category": "Основание городов"
  },
  {
    "title": "Год ** - убийство аскольдом и диром",
    "date": "866 год",
    "description": "* ** 866 год ** - Убийство Аскольдом и Диром Рюрикова наместника в Киеве - Киев",
    "location": {
      "name": "Киев",
      "lat": 50.45,
      "lng": 30.52
    },
    "category": "Политические реформы"
  },
  {
    "title": "Упоминающее крещение русов - константинополь",
    "date": "867 год",
    "description": "* ** 867 год ** - Окружное послание патриарха Фотия, упоминающее крещение русов - Константинополь",
    "location": {
      "name": "Константинополь",
      "lat": 41.01,
      "lng": 28.97
    },
    "category": "Культура и религия"
  },
  {
    "title": "Е годы** - усиление власти рюрика в",
    "date": "870",
    "description": "* ** 870 -е годы** - Усиление власти Рюрика в Новгородской земле - Новгородская земля",
    "location": {
      "name": "Новгородская земля",
      "lat": 58.52,
      "lng": 31.27
    },
    "category": "Территориальные приобретения"
  },
  {
    "title": "- смерть рюрика - новгород",
    "date": "879 год",
    "description": "* ** 879 год ** - Смерть Рюрика - Новгород",
    "location": {
      "name": "Новгород",
      "lat": 58.52,
      "lng": 31.27
    },
    "category": "Научные достижения"
  },
  {
    "title": "Год ** - олег становится князем новгородским",
    "date": "880 год",
    "description": "* ** 880 год ** - Олег становится князем Новгородским - Новгород",
    "location": {
      "name": "Новгород",
      "lat": 58.52,
      "lng": 31.27
    },
    "category": "Основание городов"
  },
  {
    "title": "Год ** - поход олега на киев",
    "date": "882 год",
    "description": "* ** 882 год ** - Поход Олега на Киев - Киев",
    "location": {
      "name": "Киев",
      "lat": 50.45,
      "lng": 30.52
    },
    "category": "Войны и сражения"
  },
  {
    "title": "Год ** - перенос столицы из новгорода",
    "date": "882 год",
    "description": "* ** 882 год ** - Перенос столицы из Новгорода в Киев - Киев",
    "location": {
      "name": "Киев",
      "lat": 50.45,
      "lng": 30.52
    },
    "category": "Становление государства"
  },
  {
    "title": "Год ** - подчинение древлян олегом -",
    "date": "883 год",
    "description": "* ** 883 год ** - Подчинение древлян Олегом - Земли древлян",
    "location": {
      "name": "Земли древлян",
      "lat": 45.11275491819441,
      "lng": 34.489225966987966
    },
    "category": "Социальные реформы"
  },
  {
    "title": "Год ** - подчинение северян олегом -",
    "date": "884 год",
    "description": "* ** 884 год ** - Подчинение северян Олегом - Земли северян",
    "location": {
      "name": "Земли северян",
      "lat": 50.488737270782224,
      "lng": 35.173207175846116
    },
    "category": "Дипломатические события"
  },
  {
    "title": "Год ** - подчинение радимичей олегом -",
    "date": "885 год",
    "description": "* ** 885 год ** - Подчинение радимичей Олегом - Земли радимичей",
    "location": {
      "name": "Земли радимичей",
      "lat": 60.61115354974874,
      "lng": 46.48451656151562
    },
    "category": "Революции и перевороты"
  },
  {
    "title": "Е годы** - укрепление власти олега в",
    "date": "890",
    "description": "* ** 890 -е годы** - Укрепление власти Олега в Киеве и расширение территории государства - Киев, Древнерусское государство",
    "location": {
      "name": "Киев",
      "lat": 50.45,
      "lng": 30.52
    },
    "category": "Становление государства"
  },
  {
    "title": "Год ** - проход угров (венгров) через",
    "date": "898 год",
    "description": "* ** 898 год ** - Проход угров (венгров) через Киев - Киев",
    "location": {
      "name": "Киев",
      "lat": 50.45,
      "lng": 30.52
    },
    "category": "Изменения границ"
  },
  {
    "title": "Год ** - **первое упоминание о русах",
    "date": "839 год",
    "description": "* ** 839 год ** - **Первое упоминание о русах в Бертинских анналах** - **Ингельхайм, Франкская империя**",
    "location": {
      "name": "Ингельхайм",
      "lat": 47.32959473826623,
      "lng": 50.36809951177593
    },
    "category": "Основание городов"
  },
  {
    "title": "Е годы** - **набеги русов на амастриду**",
    "date": "840",
    "description": "* ** 840 -е годы** - **Набеги русов на Амастриду** - **Амастрида, Пафлагония, Византийская империя**",
    "location": {
      "name": "Амастрида",
      "lat": 47.73232193033772,
      "lng": 43.90622481551786
    },
    "category": "Войны и сражения"
  },
  {
    "title": "Е годы** - **походы русов на каспийское",
    "date": "850",
    "description": "* ** 850 -е годы** - **Походы русов на Каспийское море** - **Каспийское море, прикаспийские земли**",
    "location": {
      "name": "Каспийское море",
      "lat": 42.0,
      "lng": 50.0
    },
    "category": "Дипломатические события"
  },
  {
    "title": "Год** - **поход аскольда и дира на",
    "date": "860",
    "description": "* ** 860 -862 год** - **Поход Аскольда и Дира на Константинополь** - **Константинополь, Византийская империя**",
    "location": {
      "name": "Константинополь",
      "lat": 41.01,
      "lng": 28.97
    },
    "category": "Основание городов"
  },
  {
    "title": "Год ** - **поход аскольда и дира",
    "date": "862 год",
    "description": "* **860- 862 год ** - **Поход Аскольда и Дира на Константинополь** - **Константинополь, Византийская империя**",
    "location": {
      "name": "Константинополь",
      "lat": 41.01,
      "lng": 28.97
    },
    "category": "Войны и сражения"
  },
  {
    "title": "Е годы** - **миссия кирилла и мефодия",
    "date": "860",
    "description": "* ** 860 -е годы** - **Миссия Кирилла и Мефодия в Хазарию** - **Хазария**",
    "location": {
      "name": "Хазария",
      "lat": 59.37175736827629,
      "lng": 50.96982238447571
    },
    "category": "Становление государства"
  },
  {
    "title": "Год ** - **изгнание варягов из новгорода**",
    "date": "862 год",
    "description": "* ** 862 год ** - **Изгнание варягов из Новгорода** - **Новгород**",
    "location": {
      "name": "Новгород",
      "lat": 58.52,
      "lng": 31.27
    },
    "category": "Войны и сражения"
  },
  {
    "title": "Год ** - **призвание рюрика в новгород**",
    "date": "862 год",
    "description": "* ** 862 год ** - **Призвание Рюрика в Новгород** - **Новгород**",
    "location": {
      "name": "Новгород",
      "lat": 58.52,
      "lng": 31.27
    },
    "category": "Экономические события"
  },
  {
    "title": "Год ** - **подавление восстания вадима храброго**",
    "date": "864 год",
    "description": "* ** 864 год ** - **Подавление восстания Вадима Храброго** - **Новгород**",
    "location": {
      "name": "Новгород",
      "lat": 58.52,
      "lng": 31.27
    },
    "category": "Революции и перевороты"
  },
  {
    "title": "Год ** - **поход русов на азербайджан**",
    "date": "866 год",
    "description": "* ** 866 год ** - **Поход русов на Азербайджан** - **Азербайджан, Каспийское море**",
    "location": {
      "name": "Азербайджан, Каспийское море",
      "lat": 42.0,
      "lng": 50.0
    },
    "category": "Культура и религия"
  },
  {
    "title": "Е годы** - **укрепление власти рюрика в",
    "date": "870",
    "description": "* ** 870 -е годы** - **Укрепление власти Рюрика в Ладоге и Новгороде** - **Ладога, Новгород**",
    "location": {
      "name": "Ладога, Новгород",
      "lat": 58.52,
      "lng": 31.27
    },
    "category": "Политические реформы"
  },
  {
    "title": "Год ** - **смерть рюрика** - **новгород**",
    "date": "879 год",
    "description": "* ** 879 год ** - **Смерть Рюрика** - **Новгород**",
    "location": {
      "name": "Новгород",
      "lat": 58.52,
      "lng": 31.27
    },
    "category": "Военные кампании"
  },
  {
    "title": "Е годы** - **захват смоленска и любеча",
    "date": "880",
    "description": "* ** 880 -е годы** - **Захват Смоленска и Любеча Олегом** - **Смоленск, Любеч**",
    "location": {
      "name": "Смоленск, Любеч",
      "lat": 54.78,
      "lng": 32.05
    },
    "category": "Основание городов"
  },
  {
    "title": "Год ** - **убийство аскольда и дира",
    "date": "882 год",
    "description": "* ** 882 год ** - **Убийство Аскольда и Дира в Киеве** - **Киев**",
    "location": {
      "name": "Киев",
      "lat": 50.45,
      "lng": 30.52
    },
    "category": "Территориальные приобретения"
  },
  {
    "title": "Год ** - **перенос столицы в киев",
    "date": "882 год",
    "description": "* ** 882 год ** - **Перенос столицы в Киев Олегом** - **Киев**",
    "location": {
      "name": "Киев",
      "lat": 50.45,
      "lng": 30.52
    },
    "category": "Становление государства"
  },
  {
    "title": "Годы** - **покорение древлян, северян и радимичей",
    "date": "883",
    "description": "* ** 883 -885 годы** - **Покорение древлян, северян и радимичей Олегом** - **Древлянские земли, Северянские земли, Радимичские земли**",
    "location": {
      "name": "Древлянские земли, Северянские земли, Радимичские земли",
      "lat": 55.845056588505166,
      "lng": 43.020060253756576
    },
    "category": "Дипломатические события"
  },
  {
    "title": "Е годы** - **военные столкновения с уграми",
    "date": "890",
    "description": "* ** 890 -е годы** - **Военные столкновения с уграми (венграми)** - **Причерноморские степи**",
    "location": {
      "name": "Причерноморские степи",
      "lat": 46.83882992649426,
      "lng": 44.47938746305971
    },
    "category": "Войны и сражения"
  },
  {
    "title": "Годы** - **переселение угров (венгров) в паннонию**",
    "date": "895",
    "description": "* ** 895 -898 годы** - **Переселение угров (венгров) в Паннонию** - **Паннония (современная Венгрия)**",
    "location": {
      "name": "Паннония",
      "lat": 49.26277806434643,
      "lng": 30.26101069933261
    },
    "category": "Экономические события"
  }
]