[
  {
    "title": "Февраля 1861 года** - **манифест об отмене",
    "date": "1861",
    "description": "* **19 февраля 1861 года** - **Манифест об отмене крепостного права** - Российская империя",
    "location": {
      "name": "Санкт-Петербург",
      "lat": 59.94,
      "lng": 30.31
    },
    "category": "Войны и сражения"
  },
  {
    "title": "Февраля 1861 год а** - **манифест об",
    "date": "19 февраля 1861 год",
    "description": "* ** 19 февраля 1861 год а** - **Манифест об отмене крепостного права** - Российская империя",
    "location": {
      "name": "Санкт-Петербург",
      "lat": 59.94,
      "lng": 30.31
    },
    "category": "Экономические события"
  },
  {
    "title": "Годы** - **понижение выкупных платежей** - российская",
    "date": "1881-1885",
    "description": "* ** 1881-1885 годы** - **Понижение выкупных платежей** - Российская империя",
    "location": {
      "name": "Российская империя",
      "lat": 52.70160480015416,
      "lng": 48.285036560571555
    },
    "category": "Военные кампании"
  },
  {
    "title": "Правительство снижает выкупные платежи, чтобы облегчить положение",
    "date": "1861",
    "description": "* Правительство снижает выкупные платежи, чтобы облегчить положение крестьян после реформы 1861 года",
    "location": {
      "name": "Вся Российская империя",
      "lat": 60.092570426402304,
      "lng": 40.023515386217596
    },
    "category": "Социальные реформы"
  },
  {
    "title": "Год ** - **учреждение крестьянского поземельного банка**",
    "date": "1882 год",
    "description": "* ** 1882 год ** - **Учреждение Крестьянского поземельного банка** - Российская империя",
    "location": {
      "name": "Санкт-Петербург",
      "lat": 59.94,
      "lng": 30.31
    },
    "category": "Экономические события"
  },
  {
    "title": "Год ** - **закон о неотчуждаемости крестьянских",
    "date": "1893 год",
    "description": "* ** 1893 год ** - **Закон о неотчуждаемости крестьянских наделов** - Российская империя",
    "location": {
      "name": "Российская империя",
      "lat": 57.033629745411005,
      "lng": 29.667195630708456
    },
    "category": "Социальные реформы"
  },
  {
    "title": "Год ** - **создание особого совещания о",
    "date": "1902 год",
    "description": "* ** 1902 год ** - **Создание Особого совещания о нуждах сельскохозяйственной промышленности** - Российская империя",
    "location": {
      "name": "Санкт-Петербург",
      "lat": 59.94,
      "lng": 30.31
    },
    "category": "Экономические события"
  },
  {
    "title": "Год ** - **крестьянские волнения** - центральная",
    "date": "1905 год",
    "description": "* ** 1905 год ** - **Крестьянские волнения** - Центральная Россия, Поволжье, Украина",
    "location": {
      "name": "Центральная Россия",
      "lat": 55.75,
      "lng": 37.62
    },
    "category": "Войны и сражения"
  },
  {
    "title": "Издание указа",
    "date": "1906",
    "description": "* **9 ноября 1906 года** - **Издание Указа \"О дополнении некоторых постановлений действующего закона, касающихся крестьянского землевладения\"** - Российская империя",
    "location": {
      "name": "Санкт-Петербург",
      "lat": 59.94,
      "lng": 30.31
    },
    "category": "Социальные реформы"
  },
  {
    "title": "Год ** - **назначение п",
    "date": "1906 год",
    "description": "* ** 1906 год ** - **Назначение П",
    "category": "Основание городов"
  },
  {
    "title": "Годы** - **деятельность землеустроительных комиссий** - различные",
    "date": "1906-1911",
    "description": "* ** 1906-1911 годы** - **Деятельность землеустроительных комиссий** - Различные губернии Российской империи",
    "location": {
      "name": "Различные губернии Российской империи",
      "lat": 58.050422547264034,
      "lng": 48.014035160115895
    },
    "category": "Территориальные приобретения"
  },
  {
    "title": "Год ** - **указ о военно-полевых судах**",
    "date": "1907 год",
    "description": "* ** 1907 год ** - **Указ о военно-полевых судах** - Российская империя",
    "location": {
      "name": "Российская империя",
      "lat": 54.043637868627954,
      "lng": 45.30212434624804
    },
    "category": "Войны и сражения"
  },
  {
    "title": "Год ** - **закон о переселении крестьян",
    "date": "1907 год",
    "description": "* ** 1907 год ** - **Закон о переселении крестьян в Сибирь и другие регионы** - Российская империя",
    "location": {
      "name": "Сибирь",
      "lat": 60.0,
      "lng": 90.0
    },
    "category": "Социальные реформы"
  },
  {
    "title": "Год ** - **создание переселенческого управления** -",
    "date": "1908 год",
    "description": "* ** 1908 год ** - **Создание Переселенческого управления** - Российская империя",
    "location": {
      "name": "Санкт-Петербург",
      "lat": 59.94,
      "lng": 30.31
    },
    "category": "Войны и сражения"
  },
  {
    "title": "Год ** - **открытие агрономических курсов и",
    "date": "1908 год",
    "description": "* ** 1908 год ** - **Открытие агрономических курсов и школ** - Различные губернии Российской империи",
    "location": {
      "name": "Различные губернии Российской империи",
      "lat": 55.357146043408186,
      "lng": 43.002258743865355
    },
    "category": "Научные достижения"
  },
  {
    "title": "Год ** - **пик выхода крестьян из",
    "date": "1909 год",
    "description": "* ** 1909 год ** - **Пик выхода крестьян из общины** - Европейская часть России",
    "location": {
      "name": "Европейская часть России",
      "lat": 62.02853651309375,
      "lng": 47.31940513166349
    },
    "category": "Становление государства"
  },
  {
    "title": "Год ** - **закон о землеустройстве** -",
    "date": "1910 год",
    "description": "* ** 1910 год ** - **Закон о землеустройстве** - Российская империя",
    "location": {
      "name": "Российская империя",
      "lat": 64.21459682575016,
      "lng": 44.12374727864974
    },
    "category": "Социальные реформы"
  },
  {
    "title": "Год ** - **убийство п",
    "date": "1911 год",
    "description": "* ** 1911 год ** - **Убийство П",
    "location": {
      "name": "Киев",
      "lat": 50.45,
      "lng": 30.52
    },
    "category": "Изменения границ"
  },
  {
    "title": "Годы** - **замедление темпов реформы** - российская",
    "date": "1911-1914",
    "description": "* ** 1911-1914 годы** - **Замедление темпов реформы** - Российская империя",
    "location": {
      "name": "Российская империя",
      "lat": 52.803181167658025,
      "lng": 35.32306979803332
    },
    "category": "Социальные реформы"
  },
  {
    "title": "Начало первой мировой войны",
    "date": "1914 год",
    "description": "* ** 1914 год ** - **Начало Первой мировой войны** - Российская империя",
    "location": {
      "name": "Санкт-Петербург",
      "lat": 59.94,
      "lng": 30.31
    },
    "category": "Дипломатические события"
  },
  {
    "title": "Год ** - **февральская революция** - петроград",
    "date": "1917 год",
    "description": "* ** 1917 год ** - **Февральская революция** - Петроград",
    "location": {
      "name": "Петроград",
      "lat": 59.94,
      "lng": 30.31
    },
    "category": "Революции и перевороты"
  },
  {
    "title": "Год ** - **декрет о земле** -",
    "date": "1917 год",
    "description": "* ** 1917 год ** - **Декрет о земле** - Петроград",
    "location": {
      "name": "Петроград",
      "lat": 59.94,
      "lng": 30.31
    },
    "category": "Становление государства"
  },
  {
    "title": "Годы** - **деятельность кооперативов** - различные губернии",
    "date": "1906-1917",
    "description": "* ** 1906-1917 годы** - **Деятельность кооперативов** - Различные губернии Российской империи",
    "location": {
      "name": "Различные губернии",
      "lat": 50.70467630038065,
      "lng": 36.60319482373471
    },
    "category": "Основание городов"
  },
  {
    "title": "Годы** - **критика реформы со стороны различных",
    "date": "1906-1917",
    "description": "* ** 1906-1917 годы** - **Критика реформы со стороны различных политических сил** - Российская империя",
    "location": {
      "name": "Российская империя",
      "lat": 45.606951005628886,
      "lng": 33.87782986083023
    },
    "category": "Социальные реформы"
  },
  {
    "title": "Годы** - **развитие сельскохозяйственной техники и агрономии**",
    "date": "1906-1917",
    "description": "* ** 1906-1917 годы** - **Развитие сельскохозяйственной техники и агрономии** - Различные губернии Российской империи",
    "location": {
      "name": "Различные губернии Российской империи",
      "lat": 60.468748059430425,
      "lng": 33.17527722329477
    },
    "category": "Научные достижения"
  },
  {
    "title": "Годы** - **изменение социальной структуры деревни** -",
    "date": "1906-1917",
    "description": "* ** 1906-1917 годы** - **Изменение социальной структуры деревни** - Европейская часть России",
    "location": {
      "name": "Европейская часть России",
      "lat": 48.11577069113085,
      "lng": 43.992912958243835
    },
    "category": "Социальные реформы"
  },
  {
    "title": "Годы** - **переселение крестьян в сибирь и",
    "date": "1906-1917",
    "description": "* ** 1906-1917 годы** - **Переселение крестьян в Сибирь и другие регионы** - Сибирь, Казахстан, Дальний Восток",
    "location": {
      "name": "Сибирь",
      "lat": 60.0,
      "lng": 90.0
    },
    "category": "Научные достижения"
  },
  {
    "title": "Годы** - **развитие сети кредитных учреждений** -",
    "date": "1906-1917",
    "description": "* ** 1906-1917 годы** - **Развитие сети кредитных учреждений** - Различные губернии Российской империи",
    "location": {
      "name": "Различные губернии Российской империи",
      "lat": 58.3525207550843,
      "lng": 27.01096090818689
    },
    "category": "Основание городов"
  },
  {
    "title": "Годы** - **влияние реформы на развитие промышленности**",
    "date": "1906-1917",
    "description": "* ** 1906-1917 годы** - **Влияние реформы на развитие промышленности** - Российская империя",
    "location": {
      "name": "Российская империя",
      "lat": 45.43820161246779,
      "lng": 29.946164571340503
    },
    "category": "Социальные реформы"
  }
]