[
  {
    "title": "Февраля 1861 ** - **манифест об освобождении",
    "date": "1861",
    "description": "* **19 февраля 1861 ** - **Манифест об освобождении крестьян** - Российская империя",
    "location": {
      "name": "Санкт-Петербург",
      "lat": 59.94,
      "lng": 30.31
    },
    "category": "Революции и перевороты"
  },
  {
    "title": "Е годы (общий период)**",
    "date": "1860",
    "description": "** 1860 -е годы (общий период)**",
    "location": {
      "name": "Санкт-Петербург",
      "lat": 59.94,
      "lng": 30.31
    },
    "category": "Научные достижения"
  },
  {
    "title": "Формирование народнических кружков",
    "date": "1860",
    "description": "* ** 1860 -е годы** - **Формирование народнических кружков** - Санкт-Петербург, Москва, другие университетские города",
    "location": {
      "name": "Санкт-Петербург",
      "lat": 59.94,
      "lng": 30.31
    },
    "category": "Дипломатические события"
  },
  {
    "title": "Основание кружка \"народной расправы\" с",
    "date": "1869",
    "description": "* ** 1869 ** - **Основание кружка \"Народной расправы\" С",
    "location": {
      "name": "Москва",
      "lat": 55.75,
      "lng": 37.62
    },
    "category": "Территориальные приобретения"
  },
  {
    "title": "Дело нечаева** - москва",
    "date": "1871",
    "description": "* ** 1871 ** - **Дело Нечаева** - Москва",
    "location": {
      "name": "Москва",
      "lat": 55.75,
      "lng": 37.62
    },
    "category": "Территориальные приобретения"
  },
  {
    "title": "Перевод и издание книги л",
    "date": "1872",
    "description": "* ** 1872 ** - **Перевод и издание книги Л",
    "location": {
      "name": "Санкт-Петербург",
      "lat": 59.94,
      "lng": 30.31
    },
    "category": "Дипломатические события"
  },
  {
    "title": "Весна-осень 1873 ** - **\"первое хождение в",
    "date": "1873",
    "description": "* **Весна-осень 1873 ** - **\"Первое хождение в народ\" (\"Чайковцы\")** - Центральные и Поволжские губернии",
    "location": {
      "name": "Центральные и Поволжские губернии",
      "lat": 61.00961394520955,
      "lng": 40.54956799645321
    },
    "category": "Революции и перевороты"
  },
  {
    "title": "Весна-осень 1874 ** - **\"безумное лето\" (\"второе",
    "date": "1874",
    "description": "* **Весна-осень 1874 ** - **\"Безумное лето\" (\"Второе хождение в народ\")** - Европейская часть России, особенно Поволжье, Центральные губернии, Украина",
    "location": {
      "name": "Европейская часть России",
      "lat": 61.03669904627574,
      "lng": 51.68282554871578
    },
    "category": "Становление государства"
  },
  {
    "title": "Лето-осень 1874 ** - **массовые аресты народников**",
    "date": "1874",
    "description": "* **Лето-осень 1874 ** - **Массовые аресты народников** - Различные губернии Российской империи",
    "location": {
      "name": "Различные губернии Российской империи",
      "lat": 53.86955034189344,
      "lng": 32.616544304479476
    },
    "category": "Дипломатические события"
  },
  {
    "title": "Основание \"всероссийской социально-революционной организации\"** - москва",
    "date": "1875",
    "description": "* ** 1875 ** - **Основание \"Всероссийской социально-революционной организации\"** - Москва",
    "location": {
      "name": "Москва",
      "lat": 55.75,
      "lng": 37.62
    },
    "category": "Социальные реформы"
  },
  {
    "title": "Декабря 1876 ** - **казанская демонстрация** -",
    "date": "1876",
    "description": "* **6 декабря 1876 ** - **Казанская демонстрация** - Санкт-Петербург, Казанская площадь",
    "location": {
      "name": "Санкт-Петербург",
      "lat": 59.94,
      "lng": 30.31
    },
    "category": "Научные достижения"
  },
  {
    "title": "Основание организации \"земля и воля\"** - санкт-петербург",
    "date": "1876",
    "description": "* ** 1876 ** - **Основание организации \"Земля и воля\"** - Санкт-Петербург",
    "location": {
      "name": "Санкт-Петербург",
      "lat": 59.94,
      "lng": 30.31
    },
    "category": "Политические реформы"
  },
  {
    "title": "Процесс 50-ти\"** - санкт-петербург",
    "date": "1877-1878",
    "description": "* ** 1877-1878 ** - **\"Процесс 50-ти\"** - Санкт-Петербург",
    "location": {
      "name": "Санкт-Петербург",
      "lat": 59.94,
      "lng": 30.31
    },
    "category": "Политические реформы"
  },
  {
    "title": "Процесс 193-х\"** - санкт-петербург",
    "date": "1877-1878",
    "description": "* ** 1877-1878 ** - **\"Процесс 193-х\"** - Санкт-Петербург",
    "location": {
      "name": "Санкт-Петербург",
      "lat": 59.94,
      "lng": 30.31
    },
    "category": "Восстания и бунты"
  },
  {
    "title": "Января 1878 ** - **покушение веры засулич",
    "date": "1878",
    "description": "* **24 января 1878 ** - **Покушение Веры Засулич на петербургского градоначальника Ф",
    "location": {
      "name": "Санкт-Петербург",
      "lat": 59.94,
      "lng": 30.31
    },
    "category": "Дипломатические события"
  },
  {
    "title": "Март 1878 ** - **оправдательный приговор вере",
    "date": "1878",
    "description": "* **Март 1878 ** - **Оправдательный приговор Вере Засулич** - Санкт-Петербург",
    "location": {
      "name": "Санкт-Петербург",
      "lat": 59.94,
      "lng": 30.31
    },
    "category": "Основание городов"
  },
  {
    "title": "Убийство шефа жандармов н",
    "date": "1878",
    "description": "* ** 1878 ** - **Убийство шефа жандармов Н",
    "location": {
      "name": "Санкт-Петербург",
      "lat": 59.94,
      "lng": 30.31
    },
    "category": "Военные кампании"
  },
  {
    "title": "Раскол \"земли и воли\" на \"народную волю\"",
    "date": "1879",
    "description": "* ** 1879 ** - **Раскол \"Земли и воли\" на \"Народную волю\" и \"Черный передел\"** - Воронеж, Липецк (съезды)",
    "location": {
      "name": "Воронеж, Липецк",
      "lat": 58.04477347029864,
      "lng": 32.53590733423846
    },
    "category": "Дипломатические события"
  },
  {
    "title": "Основание \"народной воли\"** - санкт-петербург",
    "date": "1879",
    "description": "* ** 1879 ** - **Основание \"Народной воли\"** - Санкт-Петербург",
    "location": {
      "name": "Санкт-Петербург",
      "lat": 59.94,
      "lng": 30.31
    },
    "category": "Основание городов"
  },
  {
    "title": "Основание \"черного передела\"** - санкт-петербург",
    "date": "1879",
    "description": "* ** 1879 ** - **Основание \"Черного передела\"** - Санкт-Петербург",
    "location": {
      "name": "Санкт-Петербург",
      "lat": 59.94,
      "lng": 30.31
    },
    "category": "Изменения границ"
  },
  {
    "title": "Охота \"народной воли\" на александра ii** -",
    "date": "1879-1881",
    "description": "* ** 1879-1881 ** - **Охота \"Народной воли\" на Александра II** - Различные города Российской империи",
    "location": {
      "name": "Санкт-Петербург",
      "lat": 59.94,
      "lng": 30.31
    },
    "category": "Восстания и бунты"
  },
  {
    "title": "Февраль 1880 ** - **взрыв в зимнем",
    "date": "1880",
    "description": "* **Февраль 1880 ** - **Взрыв в Зимнем дворце** - Санкт-Петербург, Зимний дворец",
    "location": {
      "name": "Санкт-Петербург, Зимний дворец",
      "lat": 59.94,
      "lng": 30.31
    },
    "category": "Экономические события"
  },
  {
    "title": "Марта 1881 ** - **убийство александра ii**",
    "date": "1881",
    "description": "* **1 марта 1881 ** - **Убийство Александра II** - Санкт-Петербург, набережная Екатерининского канала",
    "location": {
      "name": "Санкт-Петербург",
      "lat": 59.94,
      "lng": 30.31
    },
    "category": "Научные достижения"
  },
  {
    "title": "Создание \"союза молодежи\"** - санкт-петербург",
    "date": "1882",
    "description": "* ** 1882 ** - **Создание \"Союза молодежи\"** - Санкт-Петербург",
    "location": {
      "name": "Санкт-Петербург",
      "lat": 59.94,
      "lng": 30.31
    },
    "category": "Дипломатические события"
  },
  {
    "title": "Основание группы \"освобождение труда\" г",
    "date": "1883",
    "description": "* ** 1883 ** - **Основание группы \"Освобождение труда\" Г",
    "location": {
      "name": "Женева",
      "lat": 54.00800647536536,
      "lng": 29.082004146850657
    },
    "category": "Дипломатические события"
  },
  {
    "title": "Е - 1890-е годы** - **кризис народничества**",
    "date": "1880",
    "description": "* ** 1880 -е - 1890-е годы** - **Кризис народничества** - Российская империя",
    "location": {
      "name": "Санкт-Петербург",
      "lat": 59.94,
      "lng": 30.31
    },
    "category": "Экономические события"
  },
  {
    "title": "Е - 1890 -е годы** - **кризис",
    "date": "1890",
    "description": "* **1880-е - 1890 -е годы** - **Кризис народничества** - Российская империя",
    "location": {
      "name": "Российская империя",
      "lat": 54.65746441718717,
      "lng": 47.59924858427266
    },
    "category": "Экономические события"
  },
  {
    "title": "Е годы** - **\"малые дела\"** - различные",
    "date": "1890",
    "description": "* ** 1890 -е годы** - **\"Малые дела\"** - Различные губернии Российской империи",
    "location": {
      "name": "Различные губернии Российской империи",
      "lat": 52.628689473694436,
      "lng": 33.05681498315504
    },
    "category": "Изменения границ"
  },
  {
    "title": "Образование партии социалистов-революционеров (эсеров)** - российская империя",
    "date": "1901",
    "description": "* ** 1901 ** - **Образование партии социалистов-революционеров (эсеров)** - Российская империя (в основном, за границей)",
    "location": {
      "name": "За границей",
      "lat": 63.923043449405654,
      "lng": 43.72713005126913
    },
    "category": "Становление государства"
  },
  {
    "title": "Весна-лето** - **аресты пропагандистов в поволжье** -",
    "date": "1874",
    "description": "* ** 1874 , весна-лето** - **Аресты пропагандистов в Поволжье** - **Саратовская, Самарская, Симбирская губернии**",
    "location": {
      "name": "Саратовская, Самарская, Симбирская губернии",
      "lat": 63.932371352975565,
      "lng": 39.666980359218606
    },
    "category": "Территориальные приобретения"
  },
  {
    "title": "Лето** - **\"дело о пропаганде в империи\"**",
    "date": "1874",
    "description": "* ** 1874 , лето** - **\"Дело о пропаганде в Империи\"** - **Санкт-Петербург**",
    "location": {
      "name": "Санкт-Петербург",
      "lat": 59.94,
      "lng": 30.31
    },
    "category": "Культура и религия"
  },
  {
    "title": "Январь** - **основание \"всероссийской социально-революционной организации\"** -",
    "date": "1875",
    "description": "* ** 1875 , январь** - **Основание \"Всероссийской социально-революционной организации\"** - **Москва**",
    "location": {
      "name": "Москва",
      "lat": 55.75,
      "lng": 37.62
    },
    "category": "Социальные реформы"
  },
  {
    "title": "Декабря** - **казанская демонстрация** - **казань**",
    "date": "1876",
    "description": "* ** 1876 , 6 декабря** - **Казанская демонстрация** - **Казань**",
    "location": {
      "name": "Казань",
      "lat": 55.79,
      "lng": 49.12
    },
    "category": "Становление государства"
  },
  {
    "title": "Процесс 193-х\"** - **санкт-петербург**",
    "date": "1877-1878",
    "description": "* ** 1877-1878 ** - **\"Процесс 193-х\"** - **Санкт-Петербург**",
    "location": {
      "name": "Санкт-Петербург",
      "lat": 59.94,
      "lng": 30.31
    },
    "category": "Экономические события"
  },
  {
    "title": "Осень** - **чигиринский заговор** - **киевская губерния",
    "date": "1877",
    "description": "* ** 1877 , осень** - **Чигиринский заговор** - **Киевская губерния, Чигиринский уезд**",
    "location": {
      "name": "Чигиринский уезд",
      "lat": 62.785464058566625,
      "lng": 37.8801255738155
    },
    "category": "Дипломатические события"
  },
  {
    "title": "Января** - **покушение веры засулич на ф",
    "date": "1878",
    "description": "* ** 1878 , 24 января** - **Покушение Веры Засулич на Ф",
    "location": {
      "name": "Санкт-Петербург",
      "lat": 59.94,
      "lng": 30.31
    },
    "category": "Социальные реформы"
  },
  {
    "title": "Марта** - **оправдательный приговор вере засулич** -",
    "date": "1878",
    "description": "* ** 1878 , 31 марта** - **Оправдательный приговор Вере Засулич** - **Санкт-Петербург**",
    "location": {
      "name": "Санкт-Петербург",
      "lat": 59.94,
      "lng": 30.31
    },
    "category": "Становление государства"
  },
  {
    "title": "Лето** - **создание организации \"земля и воля\"**",
    "date": "1878",
    "description": "* ** 1878 , лето** - **Создание организации \"Земля и воля\"** - **Санкт-Петербург**",
    "location": {
      "name": "Санкт-Петербург",
      "lat": 59.94,
      "lng": 30.31
    },
    "category": "Войны и сражения"
  },
  {
    "title": "Февраль** - **убийство д",
    "date": "1879",
    "description": "* ** 1879 , февраль** - **Убийство Д",
    "location": {
      "name": "Санкт-Петербург",
      "lat": 59.94,
      "lng": 30.31
    },
    "category": "Экономические события"
  },
  {
    "title": "Лето** - **раскол \"земли и воли\"** -",
    "date": "1879",
    "description": "* ** 1879 , лето** - **Раскол \"Земли и воли\"** - **Воронеж, Липецк**",
    "location": {
      "name": "Воронеж, Липецк",
      "lat": 46.787904659731126,
      "lng": 30.66012016224408
    },
    "category": "Культура и религия"
  },
  {
    "title": "Август** - **основание \"народной воли\"** - **липецк**",
    "date": "1879",
    "description": "* ** 1879 , август** - **Основание \"Народной воли\"** - **Липецк**",
    "location": {
      "name": "Липецк",
      "lat": 46.300043596104715,
      "lng": 27.74031236721354
    },
    "category": "Военные кампании"
  },
  {
    "title": "Осень** - **основание \"черного передела\"** - **санкт-петербург**",
    "date": "1879",
    "description": "* ** 1879 , осень** - **Основание \"Черного передела\"** - **Санкт-Петербург**",
    "location": {
      "name": "Санкт-Петербург",
      "lat": 59.94,
      "lng": 30.31
    },
    "category": "Восстания и бунты"
  },
  {
    "title": "Ноябрь** - **первая попытка взрыва царского поезда",
    "date": "1879",
    "description": "* ** 1879 , ноябрь** - **Первая попытка взрыва царского поезда под Москвой** - **Под Москвой**",
    "location": {
      "name": "Под Москвой",
      "lat": 45.72178259714548,
      "lng": 43.90283999265564
    },
    "category": "Дипломатические события"
  },
  {
    "title": "Февраля** - **взрыв в зимнем дворце** -",
    "date": "1880",
    "description": "* ** 1880 , 5 февраля** - **Взрыв в Зимнем дворце** - **Санкт-Петербург**",
    "location": {
      "name": "Санкт-Петербург",
      "lat": 59.94,
      "lng": 30.31
    },
    "category": "Политические реформы"
  },
  {
    "title": "Марта** - **убийство александра ii** - **санкт-петербург**",
    "date": "1881",
    "description": "* ** 1881 , 1 марта** - **Убийство Александра II** - **Санкт-Петербург**",
    "location": {
      "name": "Санкт-Петербург",
      "lat": 59.94,
      "lng": 30.31
    },
    "category": "Военные кампании"
  },
  {
    "title": "Дело \"14-ти\"** - **москва**",
    "date": "1882-1889",
    "description": "* ** 1882-1889 ** - **Дело \"14-ти\"** - **Москва**",
    "location": {
      "name": "Москва",
      "lat": 55.75,
      "lng": 37.62
    },
    "category": "Территориальные приобретения"
  },
  {
    "title": "Образование группы \"освобождение труда\"** - **женева**",
    "date": "1883",
    "description": "* ** 1883 ** - **Образование группы \"Освобождение труда\"** - **Женева**",
    "location": {
      "name": "Женева",
      "lat": 48.10161255724163,
      "lng": 49.88935927302141
    },
    "category": "Становление государства"
  },
  {
    "title": "Ноябрь** - **дело дмитрия якушкина** - **самарская",
    "date": "1886",
    "description": "* ** 1886 , ноябрь** - **Дело Дмитрия Якушкина** - **Самарская губерния**",
    "location": {
      "name": "Самарская губерния",
      "lat": 61.56455570583593,
      "lng": 35.39849939175017
    },
    "category": "Дипломатические события"
  },
  {
    "title": "Марта** - **покушение на александра iii** -",
    "date": "1887",
    "description": "* ** 1887 , 1 марта** - **Покушение на Александра III** - **Санкт-Петербург**",
    "location": {
      "name": "Санкт-Петербург",
      "lat": 59.94,
      "lng": 30.31
    },
    "category": "Становление государства"
  }
]