[
  {
    "title": "Год ** - первое упоминание москвы в",
    "date": "1147 год",
    "description": "* ** 1147 год ** - Первое упоминание Москвы в летописи - Москва",
    "location": {
      "name": "Москва",
      "lat": 55.75,
      "lng": 37.62
    },
    "category": "Восстания и бунты"
  },
  {
    "title": "Годы** - разорение москвы батыем - москва",
    "date": "1237-1238",
    "description": "* ** 1237-1238 годы** - Разорение Москвы Батыем - Москва",
    "location": {
      "name": "Москва",
      "lat": 55.75,
      "lng": 37.62
    },
    "category": "Социальные реформы"
  },
  {
    "title": "Год ** - передача москвы во владение",
    "date": "1263 год",
    "description": "* ** 1263 год ** - Передача Москвы во владение Даниилу Александровичу - Москва",
    "location": {
      "name": "Москва",
      "lat": 55.75,
      "lng": 37.62
    },
    "category": "Становление государства"
  },
  {
    "title": "Годы** - присоединение коломны к московскому княжеству",
    "date": "1300-1303",
    "description": "* ** 1300-1303 годы** - Присоединение Коломны к Московскому княжеству - Коломна",
    "location": {
      "name": "Коломна",
      "lat": 64.57748469621225,
      "lng": 34.736861027542496
    },
    "category": "Становление государства"
  },
  {
    "title": "Год ** - присоединение переяславля-залесского к московскому",
    "date": "1303 год",
    "description": "* ** 1303 год ** - Присоединение Переяславля-Залесского к Московскому княжеству - Переяславль-Залесский",
    "location": {
      "name": "Переяславль-Залесский",
      "lat": 55.256144476061074,
      "lng": 39.51069835502468
    },
    "category": "Становление государства"
  },
  {
    "title": "Год ** - начало борьбы москвы и",
    "date": "1304 год",
    "description": "* ** 1304 год ** - Начало борьбы Москвы и Твери за великокняжеский престол - Орда (Сарай)",
    "location": {
      "name": "Сарай",
      "lat": 64.50187387097891,
      "lng": 49.326753812962686
    },
    "category": "Политические реформы"
  },
  {
    "title": "- перенос митрополичьей кафедры из владимира в москву - москва",
    "date": "1325 год",
    "description": "* ** 1325 год ** - Перенос митрополичьей кафедры из Владимира в Москву - Москва",
    "location": {
      "name": "Москва",
      "lat": 55.75,
      "lng": 37.62
    },
    "category": "Дипломатические события"
  },
  {
    "title": "Год ** - начало строительства успенского собора",
    "date": "1326 год",
    "description": "* ** 1326 год ** - Начало строительства Успенского собора в Москве - Москва, Московский Кремль",
    "location": {
      "name": "Москва, Московский Кремль",
      "lat": 55.75,
      "lng": 37.62
    },
    "category": "Культура и религия"
  },
  {
    "title": "- антиордынское восстание в твери - тверь",
    "date": "1327 год",
    "description": "* ** 1327 год ** - Антиордынское восстание в Твери - Тверь",
    "location": {
      "name": "Тверь",
      "lat": 54.80512947586904,
      "lng": 27.290908987169587
    },
    "category": "Революции и перевороты"
  },
  {
    "title": "- получение иваном калитой ярлыка на великое княжение владимирское - орда",
    "date": "1328 год",
    "description": "* ** 1328 год ** - Получение Иваном Калитой ярлыка на великое княжение Владимирское - Орда (Сарай)",
    "location": {
      "name": "Сарай",
      "lat": 47.74910552406359,
      "lng": 31.444532538058574
    },
    "category": "Дипломатические события"
  },
  {
    "title": "Год ** - сожжение москвы литовским князем",
    "date": "1339 год",
    "description": "* ** 1339 год ** - Сожжение Москвы литовским князем Ольгердом - Москва",
    "location": {
      "name": "Москва",
      "lat": 55.75,
      "lng": 37.62
    },
    "category": "Экономические события"
  },
  {
    "title": "Год ** - начало строительства каменного московского",
    "date": "1340 год",
    "description": "* ** 1340 год ** - Начало строительства каменного Московского Кремля - Москва, Московский Кремль",
    "location": {
      "name": "Московский Кремль",
      "lat": 50.44943401401153,
      "lng": 41.59326476329108
    },
    "category": "Культура и религия"
  },
  {
    "title": "Годы** - правление дмитрия донского - москва",
    "date": "1359-1389",
    "description": "* ** 1359-1389 годы** - Правление Дмитрия Донского - Москва",
    "location": {
      "name": "Москва",
      "lat": 55.75,
      "lng": 37.62
    },
    "category": "Военные кампании"
  },
  {
    "title": "Год ** - замена деревянных стен московского",
    "date": "1367 год",
    "description": "* ** 1367 год ** - Замена деревянных стен Московского Кремля на белокаменные - Москва, Московский Кремль",
    "location": {
      "name": "Москва, Московский Кремль",
      "lat": 55.75,
      "lng": 37.62
    },
    "category": "Научные достижения"
  },
  {
    "title": "Год ** - первый поход ольгерда на",
    "date": "1368 год",
    "description": "* ** 1368 год ** - Первый поход Ольгерда на Москву - Москва",
    "location": {
      "name": "Москва",
      "lat": 55.75,
      "lng": 37.62
    },
    "category": "Восстания и бунты"
  },
  {
    "title": "Год ** - второй поход ольгерда на",
    "date": "1370 год",
    "description": "* ** 1370 год ** - Второй поход Ольгерда на Москву - Москва",
    "location": {
      "name": "Москва",
      "lat": 55.75,
      "lng": 37.62
    },
    "category": "Становление государства"
  },
  {
    "title": "Год ** - поход московского войска на",
    "date": "1375 год",
    "description": "* ** 1375 год ** - Поход московского войска на Тверь - Тверь",
    "location": {
      "name": "Тверь",
      "lat": 50.12190775641735,
      "lng": 32.95177768112078
    },
    "category": "Изменения границ"
  },
  {
    "title": "- битва на реке воже - река вожа",
    "date": "1378 год",
    "description": "* ** 1378 год ** - Битва на реке Воже - Река Вожа, Рязанская земля",
    "location": {
      "name": "Река Вожа, Рязанская земля",
      "lat": 49.13304309975496,
      "lng": 51.97653047529212
    },
    "category": "Войны и сражения"
  },
  {
    "title": "- куликовская битва - куликово поле",
    "date": "1380",
    "description": "* **8 сентября 1380 года** - Куликовская битва - Куликово поле, между реками Дон и Непрядва",
    "location": {
      "name": "Куликово поле",
      "lat": 53.67,
      "lng": 38.67
    },
    "category": "Войны и сражения"
  },
  {
    "title": "Год ** - разорение москвы тохтамышем -",
    "date": "1382 год",
    "description": "* ** 1382 год ** - Разорение Москвы Тохтамышем - Москва",
    "location": {
      "name": "Москва",
      "lat": 55.75,
      "lng": 37.62
    },
    "category": "Социальные реформы"
  },
  {
    "title": "Годы** - правление василия i - москва",
    "date": "1389-1425",
    "description": "* ** 1389-1425 годы** - Правление Василия I - Москва",
    "location": {
      "name": "Москва",
      "lat": 55.75,
      "lng": 37.62
    },
    "category": "Экономические события"
  },
  {
    "title": "Год ** - присоединение нижегородского княжества к",
    "date": "1392 год",
    "description": "* ** 1392 год ** - Присоединение Нижегородского княжества к Москве - Нижний Новгород",
    "location": {
      "name": "Нижний Новгород",
      "lat": 56.32,
      "lng": 44.0
    },
    "category": "Становление государства"
  },
  {
    "title": "Год ** - вторжение тамерлана в русские",
    "date": "1395 год",
    "description": "* ** 1395 год ** - Вторжение Тамерлана в русские земли - Южные рубежи Руси",
    "location": {
      "name": "Южные рубежи Руси",
      "lat": 49.45333518000798,
      "lng": 42.423559397647324
    },
    "category": "Военные кампании"
  },
  {
    "title": "Годы** - правление василия ii темного -",
    "date": "1425-1462",
    "description": "* ** 1425-1462 годы** - Правление Василия II Темного - Москва",
    "location": {
      "name": "Москва",
      "lat": 55.75,
      "lng": 37.62
    },
    "category": "Социальные реформы"
  },
  {
    "title": "- феодальная война в московском княжестве - московское княжество",
    "date": "1433-1453",
    "description": "* ** 1433-1453 годы** - Феодальная война в Московском княжестве - Московское княжество",
    "location": {
      "name": "Московское княжество",
      "lat": 62.44860239293904,
      "lng": 32.37411813904115
    },
    "category": "Войны и сражения"
  },
  {
    "title": "Год ** - избрание ионы митрополитом московским",
    "date": "1448 год",
    "description": "* ** 1448 год ** - Избрание Ионы митрополитом Московским и всея Руси - Москва",
    "location": {
      "name": "Москва",
      "lat": 55.75,
      "lng": 37.62
    },
    "category": "Научные достижения"
  },
  {
    "title": "Год ** - падение константинополя - константинополь",
    "date": "1453 год",
    "description": "* ** 1453 год ** - Падение Константинополя - Константинополь",
    "location": {
      "name": "Константинополь",
      "lat": 41.01,
      "lng": 28.97
    },
    "category": "Территориальные приобретения"
  },
  {
    "title": "Годы** - правление ивана iii - москва",
    "date": "1462-1505",
    "description": "* ** 1462-1505 годы** - Правление Ивана III - Москва",
    "location": {
      "name": "Москва",
      "lat": 55.75,
      "lng": 37.62
    },
    "category": "Войны и сражения"
  },
  {
    "title": "- битва на реке шелони - река шелонь",
    "date": "1471 год",
    "description": "* ** 1471 год ** - Битва на реке Шелони - Река Шелонь, Новгородская земля",
    "location": {
      "name": "Река Шелонь, Новгородская земля",
      "lat": 58.52,
      "lng": 31.27
    },
    "category": "Войны и сражения"
  },
  {
    "title": "Год ** - присоединение новгорода к москве",
    "date": "1478 год",
    "description": "* ** 1478 год ** - Присоединение Новгорода к Москве - Новгород",
    "location": {
      "name": "Новгород",
      "lat": 58.52,
      "lng": 31.27
    },
    "category": "Изменения границ"
  },
  {
    "title": "Перенос митрополичьей кафедры из владимира в москву",
    "date": "1327 год",
    "description": "* ** 1327 год ** - **Перенос митрополичьей кафедры из Владимира в Москву** - Москва",
    "location": {
      "name": "Москва",
      "lat": 55.75,
      "lng": 37.62
    },
    "category": "Дипломатические события"
  },
  {
    "title": "Год ** - **строительство первого дубового кремля",
    "date": "1339 год",
    "description": "* ** 1339 год ** - **Строительство первого дубового Кремля в Москве** - Москва",
    "location": {
      "name": "Москва",
      "lat": 55.75,
      "lng": 37.62
    },
    "category": "Дипломатические события"
  },
  {
    "title": "Год ** - **эпидемия чумы (\"черная смерть\")**",
    "date": "1353 год",
    "description": "* ** 1353 год ** - **Эпидемия чумы (\"Черная смерть\")** - Московское княжество",
    "location": {
      "name": "Московское княжество",
      "lat": 60.51994740599823,
      "lng": 46.81305262085175
    },
    "category": "Становление государства"
  },
  {
    "title": "Годы** - **строительство белокаменного кремля** - москва",
    "date": "1366-1368",
    "description": "* ** 1366-1368 годы** - **Строительство белокаменного Кремля** - Москва",
    "location": {
      "name": "Москва",
      "lat": 55.75,
      "lng": 37.62
    },
    "category": "Основание городов"
  },
  {
    "title": "Год ** - **поход московского войска на",
    "date": "1375 год",
    "description": "* ** 1375 год ** - **Поход московского войска на Тверь** - Тверь",
    "location": {
      "name": "Тверь",
      "lat": 46.52508219928336,
      "lng": 30.964309494990147
    },
    "category": "Экономические события"
  },
  {
    "title": "Год ** - **разорение москвы тохтамышем** -",
    "date": "1382 год",
    "description": "* ** 1382 год ** - **Разорение Москвы Тохтамышем** - Москва",
    "location": {
      "name": "Москва",
      "lat": 55.75,
      "lng": 37.62
    },
    "category": "Восстания и бунты"
  },
  {
    "title": "Год ** - **дмитрий донской передает великое",
    "date": "1389 год",
    "description": "* ** 1389 год ** - **Дмитрий Донской передает великое княжение сыну Василию I без санкции Орды** - Москва",
    "location": {
      "name": "Москва",
      "lat": 55.75,
      "lng": 37.62
    },
    "category": "Научные достижения"
  },
  {
    "title": "Год ** - **присоединение нижегородского княжества к",
    "date": "1392 год",
    "description": "* ** 1392 год ** - **Присоединение Нижегородского княжества к Москве** - Нижний Новгород",
    "location": {
      "name": "Нижний Новгород",
      "lat": 56.32,
      "lng": 44.0
    },
    "category": "Становление государства"
  },
  {
    "title": "Год ** - **взятие тамерланом ельца** -",
    "date": "1395 год",
    "description": "* ** 1395 год ** - **Взятие Тамерланом Ельца** - Елец",
    "location": {
      "name": "Елец",
      "lat": 64.00057775417908,
      "lng": 36.741630284409084
    },
    "category": "Войны и сражения"
  },
  {
    "title": "Год ** - **нашествие едигея на москву**",
    "date": "1408 год",
    "description": "* ** 1408 год ** - **Нашествие Едигея на Москву** - Москва",
    "location": {
      "name": "Москва",
      "lat": 55.75,
      "lng": 37.62
    },
    "category": "Научные достижения"
  },
  {
    "title": "Феодальная война в московском княжестве",
    "date": "1425-1453",
    "description": "* ** 1425-1453 годы** - **Феодальная война в Московском княжестве** - Московское княжество",
    "location": {
      "name": "Московское княжество",
      "lat": 45.665663341588235,
      "lng": 47.97266906697817
    },
    "category": "Войны и сражения"
  },
  {
    "title": "Год ** - **битва под суздалем и",
    "date": "1445 год",
    "description": "* ** 1445 год ** - **Битва под Суздалем и пленение Василия II** - Суздаль",
    "location": {
      "name": "Суздаль",
      "lat": 56.42,
      "lng": 40.44
    },
    "category": "Войны и сражения"
  },
  {
    "title": "Год ** - **избрание ионы митрополитом всея",
    "date": "1448 год",
    "description": "* ** 1448 год ** - **Избрание Ионы митрополитом всея Руси без санкции Константинополя** - Москва",
    "location": {
      "name": "Москва",
      "lat": 55.75,
      "lng": 37.62
    },
    "category": "Политические реформы"
  },
  {
    "title": "Яжелбицкий мирный договор",
    "date": "1456 год",
    "description": "* ** 1456 год ** - **Яжелбицкий мирный договор** - Яжелбицы",
    "location": {
      "name": "Яжелбицы",
      "lat": 60.11779164676939,
      "lng": 44.059055461381725
    },
    "category": "Дипломатические события"
  },
  {
    "title": "Год ** - **начало правления ивана iii**",
    "date": "1462 год",
    "description": "* ** 1462 год ** - **Начало правления Ивана III** - Москва",
    "location": {
      "name": "Москва",
      "lat": 55.75,
      "lng": 37.62
    },
    "category": "Изменения границ"
  },
  {
    "title": "Год ** - **битва на реке шелони**",
    "date": "1471 год",
    "description": "* ** 1471 год ** - **Битва на реке Шелони** - Река Шелонь",
    "location": {
      "name": "Река Шелонь",
      "lat": 64.42593021217083,
      "lng": 44.444393013863234
    },
    "category": "Войны и сражения"
  },
  {
    "title": "Год ** - **присоединение новгорода к москве**",
    "date": "1478 год",
    "description": "* ** 1478 год ** - **Присоединение Новгорода к Москве** - Новгород",
    "location": {
      "name": "Новгород",
      "lat": 58.52,
      "lng": 31.27
    },
    "category": "Изменения границ"
  },
  {
    "title": "Год ** - **стояние на реке угре**",
    "date": "1480 год",
    "description": "* ** 1480 год ** - **Стояние на реке Угре** - Река Угра",
    "location": {
      "name": "Река Угра",
      "lat": 50.23090798323313,
      "lng": 43.4065883278069
    },
    "category": "Социальные реформы"
  },
  {
    "title": "Год ** - **присоединение твери к москве**",
    "date": "1485 год",
    "description": "* ** 1485 год ** - **Присоединение Твери к Москве** - Тверь",
    "location": {
      "name": "Тверь",
      "lat": 61.694209370535205,
      "lng": 42.81864415759064
    },
    "category": "Изменения границ"
  },
  {
    "title": "Год ** - **судебник ивана iii** -",
    "date": "1497 год",
    "description": "* ** 1497 год ** - **Судебник Ивана III** - Москва",
    "location": {
      "name": "Москва",
      "lat": 55.75,
      "lng": 37.62
    },
    "category": "Экономические события"
  }
]