[
  {
    "title": "- дворцовый переворот - санкт-петербург",
    "date": "1741",
    "description": "* **25 ноября (6 декабря по новому стилю) 1741 ** - Дворцовый переворот - Санкт-Петербург",
    "location": {
      "name": "Санкт-Петербург",
      "lat": 59.94,
      "lng": 30.31
    },
    "category": "Революции и перевороты"
  },
  {
    "title": "- указ о порядке наследования престола - российская империя",
    "date": "1742",
    "description": "* ** 1742 ** - Указ о порядке наследования престола - Российская империя",
    "location": {
      "name": "Санкт-Петербург",
      "lat": 59.94,
      "lng": 30.31
    },
    "category": "Социальные реформы"
  },
  {
    "title": "- основание города оренбурга - оренбург",
    "date": "1742",
    "description": "* ** 1742 ** - Основание города Оренбурга - Оренбург",
    "location": {
      "name": "Оренбург",
      "lat": 59.785429560096844,
      "lng": 32.9055605425458
    },
    "category": "Революции и перевороты"
  },
  {
    "title": "Начало деятельности сибирских школ - сибирь",
    "date": "1742",
    "description": "* ** 1742 ** - Начало деятельности Сибирских школ - Сибирь",
    "location": {
      "name": "Тобольск",
      "lat": 47.97375116994817,
      "lng": 51.853787707582725
    },
    "category": "Культура и религия"
  },
  {
    "title": "- абоский мирный договор - або",
    "date": "1743",
    "description": "* **7 (18) августа 1743 ** - Абоский мирный договор - Або (Турку, Финляндия)",
    "location": {
      "name": "Або (Турку)",
      "lat": 57.12396912686977,
      "lng": 43.83324008562624
    },
    "category": "Дипломатические события"
  },
  {
    "title": "Завершение русско-шведской войны 1741-1743 годов",
    "date": "1741-1743",
    "description": "* Завершение русско-шведской войны 1741-1743 годов",
    "location": {
      "name": "Або",
      "lat": 60.2884840589426,
      "lng": 41.97916023470804
    },
    "category": "Войны и сражения"
  },
  {
    "title": "- указ об отмене смертной казни",
    "date": "1744",
    "description": "* ** 1744 ** - Указ об отмене смертной казни (фактически) - Российская империя",
    "location": {
      "name": "Санкт-Петербург",
      "lat": 59.94,
      "lng": 30.31
    },
    "category": "Культура и религия"
  },
  {
    "title": "Начало массового строительства каменных зданий в санкт-петербурге",
    "date": "1744",
    "description": "* ** 1744 ** - Начало массового строительства каменных зданий в Санкт-Петербурге - Санкт-Петербург",
    "location": {
      "name": "Санкт-Петербург",
      "lat": 59.94,
      "lng": 30.31
    },
    "category": "Становление государства"
  },
  {
    "title": "Подтверждение прав и привилегий дворянства - российская",
    "date": "1746",
    "description": "* ** 1746 ** - Подтверждение прав и привилегий дворянства - Российская империя",
    "location": {
      "name": "Санкт-Петербург",
      "lat": 59.94,
      "lng": 30.31
    },
    "category": "Восстания и бунты"
  },
  {
    "title": "Января 1747 ** - учреждение московского университета",
    "date": "1747",
    "description": "* **12 (23) января 1747 ** - Учреждение Московского университета - Москва",
    "location": {
      "name": "Москва",
      "lat": 55.75,
      "lng": 37.62
    },
    "category": "Военные кампании"
  },
  {
    "title": "Начало строительства зимнего дворца в его современном",
    "date": "1748",
    "description": "* ** 1748 ** - Начало строительства Зимнего дворца в его современном виде - Санкт-Петербург",
    "location": {
      "name": "Санкт-Петербург",
      "lat": 59.94,
      "lng": 30.31
    },
    "category": "Восстания и бунты"
  },
  {
    "title": "Е годы** - расцвет стиля \"елизаветинское барокко\"",
    "date": "1750",
    "description": "* ** 1750 -е годы** - Расцвет стиля \"елизаветинское барокко\" - Российская империя",
    "location": {
      "name": "Санкт-Петербург",
      "lat": 59.94,
      "lng": 30.31
    },
    "category": "Социальные реформы"
  },
  {
    "title": "- указ о создании новослободских казаков - южная украина",
    "date": "1752",
    "description": "* ** 1752 ** - Указ о создании Новослободских казаков - Южная Украина",
    "location": {
      "name": "Южная Украина",
      "lat": 50.45,
      "lng": 30.52
    },
    "category": "Революции и перевороты"
  },
  {
    "title": "Учреждение дворянского заемного банка и купеческого банка",
    "date": "1754",
    "description": "* ** 1754 ** - Учреждение Дворянского заемного банка и Купеческого банка - Российская империя",
    "location": {
      "name": "Санкт-Петербург",
      "lat": 59.94,
      "lng": 30.31
    },
    "category": "Политические реформы"
  },
  {
    "title": "- отмена внутренних таможенных пошлин - российская империя",
    "date": "1754",
    "description": "* ** 1754 ** - Отмена внутренних таможенных пошлин - Российская империя",
    "location": {
      "name": "Российская империя",
      "lat": 53.99520360687143,
      "lng": 51.62647896008979
    },
    "category": "Дипломатические события"
  },
  {
    "title": "- открытие московского университета - москва",
    "date": "1755",
    "description": "* ** 1755 ** - Открытие Московского университета - Москва",
    "location": {
      "name": "Москва",
      "lat": 55.75,
      "lng": 37.62
    },
    "category": "Научные достижения"
  },
  {
    "title": "Августа (10 сентября) 1756 ** - учреждение",
    "date": "1756",
    "description": "* **30 августа (10 сентября) 1756 ** - Учреждение Русского театра - Санкт-Петербург",
    "location": {
      "name": "Санкт-Петербург",
      "lat": 59.94,
      "lng": 30.31
    },
    "category": "Культура и религия"
  },
  {
    "title": "Участие россии в семилетней войне - европа",
    "date": "1756-1763",
    "description": "* ** 1756-1763 ** - Участие России в Семилетней войне - Европа",
    "location": {
      "name": "Европа",
      "lat": 50.0,
      "lng": 10.0
    },
    "category": "Революции и перевороты"
  },
  {
    "title": "Победа русских войск при гросс-егерсдорфе - гросс-егерсдорф",
    "date": "1757",
    "description": "* ** 1757 ** - Победа русских войск при Гросс-Егерсдорфе - Гросс-Егерсдорф (Восточная Пруссия)",
    "location": {
      "name": "Гросс-Егерсдорф",
      "lat": 51.59273695265133,
      "lng": 31.405132898211722
    },
    "category": "Культура и религия"
  },
  {
    "title": "Учреждение академии художеств - санкт-петербург",
    "date": "1757",
    "description": "* ** 1757 ** - Учреждение Академии художеств - Санкт-Петербург",
    "location": {
      "name": "Санкт-Петербург",
      "lat": 59.94,
      "lng": 30.31
    },
    "category": "Культура и религия"
  },
  {
    "title": "Победа русских войск при цорндорфе - цорндорф",
    "date": "1758",
    "description": "* ** 1758 ** - Победа русских войск при Цорндорфе - Цорндорф (Бранденбург)",
    "location": {
      "name": "Цорндорф",
      "lat": 59.1202449196987,
      "lng": 28.823417588533122
    },
    "category": "Войны и сражения"
  },
  {
    "title": "Августа 1759 ** - победа русских войск",
    "date": "1759",
    "description": "* **1 (12) августа 1759 ** - Победа русских войск при Кунерсдорфе - Кунерсдорф (Бранденбург)",
    "location": {
      "name": "Кунерсдорф",
      "lat": 49.94661471401331,
      "lng": 50.488724317437566
    },
    "category": "Революции и перевороты"
  },
  {
    "title": "Взятие берлина русскими войсками - берлин",
    "date": "1760",
    "description": "* ** 1760 ** - Взятие Берлина русскими войсками - Берлин",
    "location": {
      "name": "Берлин",
      "lat": 52.52,
      "lng": 13.4
    },
    "category": "Дипломатические события"
  },
  {
    "title": "Взятие кольберга русскими войсками - кольберг (померания",
    "date": "1761",
    "description": "* ** 1761 ** - Взятие Кольберга русскими войсками - Кольберг (Померания)",
    "location": {
      "name": "Кольберг (Померания)",
      "lat": 45.02361048636227,
      "lng": 51.228052194394984
    },
    "category": "Дипломатические события"
  },
  {
    "title": "- смерть елизаветы петровны - санкт-петербург",
    "date": "1761",
    "description": "* **25 декабря 1761 (5 января 1762)** - Смерть Елизаветы Петровны - Санкт-Петербург",
    "location": {
      "name": "Санкт-Петербург",
      "lat": 59.94,
      "lng": 30.31
    },
    "category": "Дипломатические события"
  },
  {
    "title": "Год ** - **учреждение должности генерал-кригскомиссара** -",
    "date": "1742 год",
    "description": "* ** 1742 год ** - **Учреждение должности генерал-кригскомиссара** - **Санкт-Петербург**",
    "location": {
      "name": "Санкт-Петербург",
      "lat": 59.94,
      "lng": 30.31
    },
    "category": "Становление государства"
  },
  {
    "title": "Год ** - **основание оренбургской губернии** -",
    "date": "1742 год",
    "description": "* ** 1742 год ** - **Основание Оренбургской губернии** - **Оренбург**",
    "location": {
      "name": "Оренбург",
      "lat": 49.31851487058088,
      "lng": 42.7757597903733
    },
    "category": "Дипломатические события"
  },
  {
    "title": "Абоский мирный договор со швецией",
    "date": "1743 год",
    "description": "* ** 1743 год ** - **Абоский мирный договор со Швецией** - **Або (Турку), Финляндия**",
    "location": {
      "name": "Або (Турку), Финляндия",
      "lat": 46.872684076483075,
      "lng": 43.23608662224852
    },
    "category": "Дипломатические события"
  },
  {
    "title": "Год ** - **указ о таможенных льготах",
    "date": "1744 год",
    "description": "* ** 1744 год ** - **Указ о таможенных льготах для Сибири** - **Санкт-Петербург**",
    "location": {
      "name": "Санкт-Петербург",
      "lat": 59.94,
      "lng": 30.31
    },
    "category": "Социальные реформы"
  },
  {
    "title": "Год ** - **указ о высылке евреев",
    "date": "1744 год",
    "description": "* ** 1744 год ** - **Указ о высылке евреев из России** - **Санкт-Петербург**",
    "location": {
      "name": "Санкт-Петербург",
      "lat": 59.94,
      "lng": 30.31
    },
    "category": "Культура и религия"
  },
  {
    "title": "Год ** - **учреждение первого в россии",
    "date": "1746 год",
    "description": "* ** 1746 год ** - **Учреждение первого в России государственного банка - Дворянского заёмного банка** - **Санкт-Петербург**",
    "location": {
      "name": "Санкт-Петербург",
      "lat": 59.94,
      "lng": 30.31
    },
    "category": "Становление государства"
  },
  {
    "title": "Год ** - **строительство первой химической лаборатории",
    "date": "1747 год",
    "description": "* ** 1747 год ** - **Строительство первой химической лаборатории при Академии наук** - **Санкт-Петербург**",
    "location": {
      "name": "Санкт-Петербург",
      "lat": 59.94,
      "lng": 30.31
    },
    "category": "Научные достижения"
  },
  {
    "title": "Год ** - **начало строительства смольного собора**",
    "date": "1749 год",
    "description": "* ** 1749 год ** - **Начало строительства Смольного собора** - **Санкт-Петербург**",
    "location": {
      "name": "Санкт-Петербург",
      "lat": 59.94,
      "lng": 30.31
    },
    "category": "Культура и религия"
  },
  {
    "title": "Год ** - **учреждение первого русского профессионального",
    "date": "1750 год",
    "description": "* ** 1750 год ** - **Учреждение первого русского профессионального театра** - **Ярославль**",
    "location": {
      "name": "Ярославль",
      "lat": 57.63,
      "lng": 39.87
    },
    "category": "Культура и религия"
  },
  {
    "title": "Год ** - **указ о создании сербских",
    "date": "1752 год",
    "description": "* ** 1752 год ** - **Указ о создании Сербских поселений (Новая Сербия и Славяносербия)** - **Территория современной Украины**",
    "location": {
      "name": "Территория современной Украины",
      "lat": 56.95508764656142,
      "lng": 37.957037865479485
    },
    "category": "Изменения границ"
  },
  {
    "title": "Год ** - **указ о праве дворян",
    "date": "1753 год",
    "description": "* ** 1753 год ** - **Указ о праве дворян ссылать крестьян в Сибирь** - **Санкт-Петербург**",
    "location": {
      "name": "Санкт-Петербург",
      "lat": 59.94,
      "lng": 30.31
    },
    "category": "Политические реформы"
  },
  {
    "title": "Год ** - **упразднение внутренних таможен** -",
    "date": "1754 год",
    "description": "* ** 1754 год ** - **Упразднение внутренних таможен** - **Российская империя**",
    "location": {
      "name": "Российская империя",
      "lat": 53.588704225218336,
      "lng": 46.965975674037395
    },
    "category": "Культура и религия"
  },
  {
    "title": "Год ** - **учреждение московского университета** -",
    "date": "1755 год",
    "description": "* ** 1755 год ** - **Учреждение Московского университета** - **Москва**",
    "location": {
      "name": "Москва",
      "lat": 55.75,
      "lng": 37.62
    },
    "category": "Политические реформы"
  },
  {
    "title": "Год ** - **основание первого постоянного русского",
    "date": "1756 год",
    "description": "* ** 1756 год ** - **Основание первого постоянного русского театра в Санкт-Петербурге** - **Санкт-Петербург**",
    "location": {
      "name": "Санкт-Петербург",
      "lat": 59.94,
      "lng": 30.31
    },
    "category": "Культура и религия"
  },
  {
    "title": "Год ** - **участие россии в семилетней",
    "date": "1756 год",
    "description": "* ** 1756 год ** - **Участие России в Семилетней войне** - **Европа**",
    "location": {
      "name": "Европа",
      "lat": 50.0,
      "lng": 10.0
    },
    "category": "Изменения границ"
  },
  {
    "title": "Год ** - **учреждение академии художеств** -",
    "date": "1757 год",
    "description": "* ** 1757 год ** - **Учреждение Академии художеств** - **Санкт-Петербург**",
    "location": {
      "name": "Санкт-Петербург",
      "lat": 59.94,
      "lng": 30.31
    },
    "category": "Восстания и бунты"
  },
  {
    "title": "Год ** - **победа русской армии в",
    "date": "1757 год",
    "description": "* ** 1757 год ** - **Победа русской армии в битве при Гросс-Егерсдорфе** - **Гросс-Егерсдорф (Восточная Пруссия)**",
    "location": {
      "name": "Гросс-Егерсдорф",
      "lat": 50.610810199347576,
      "lng": 31.80477252078564
    },
    "category": "Экономические события"
  },
  {
    "title": "Год ** - **захват русскими войсками кёнигсберга**",
    "date": "1758 год",
    "description": "* ** 1758 год ** - **Захват русскими войсками Кёнигсберга** - **Кёнигсберг (Калининград)**",
    "location": {
      "name": "Кёнигсберг (Калининград)",
      "lat": 54.71,
      "lng": 20.51
    },
    "category": "Культура и религия"
  },
  {
    "title": "Год ** - **взятие берлина русскими войсками**",
    "date": "1760 год",
    "description": "* ** 1760 год ** - **Взятие Берлина русскими войсками** - **Берлин**",
    "location": {
      "name": "Берлин",
      "lat": 52.52,
      "lng": 13.4
    },
    "category": "Культура и религия"
  }
]