[
  {
    "title": "Год ** - начало церковной реформы патриарха",
    "date": "1652 год",
    "description": "* ** 1652 год ** - Начало церковной реформы патриарха Никона - Москва",
    "location": {
      "name": "Москва",
      "lat": 55.75,
      "lng": 37.62
    },
    "category": "Культура и религия"
  },
  {
    "title": "Год ** - первые проявления несогласия с",
    "date": "1657 год",
    "description": "* ** 1657 год ** - Первые проявления несогласия с реформой на Соловках - Соловецкий монастырь",
    "location": {
      "name": "Соловецкий монастырь",
      "lat": 52.52643767942327,
      "lng": 44.88098534603205
    },
    "category": "Культура и религия"
  },
  {
    "title": "Годы** - осуждение старообрядцев на большом московском",
    "date": "1666-1667",
    "description": "* ** 1666-1667 годы** - Осуждение старообрядцев на Большом Московском соборе - Москва",
    "location": {
      "name": "Москва",
      "lat": 55.75,
      "lng": 37.62
    },
    "category": "Культура и религия"
  },
  {
    "title": "Год ** - отказ соловецкого монастыря принять",
    "date": "1666 год",
    "description": "* ** 1666 год ** - Отказ Соловецкого монастыря принять новые книги - Соловецкий монастырь",
    "location": {
      "name": "Соловецкий монастырь",
      "lat": 57.71046788550874,
      "lng": 31.64334961865333
    },
    "category": "Культура и религия"
  },
  {
    "title": "Год ** - царская грамота с требованием",
    "date": "1668 год",
    "description": "* ** 1668 год ** - Царская грамота с требованием подчиниться реформе - Москва (отправлена на Соловки)",
    "location": {
      "name": "Москва",
      "lat": 55.75,
      "lng": 37.62
    },
    "category": "Социальные реформы"
  },
  {
    "title": "Год , 22 июня** - начало осады",
    "date": "1668 год",
    "description": "* ** 1668 год , 22 июня** - Начало осады Соловецкого монастыря царскими войсками - Соловецкий монастырь",
    "location": {
      "name": "Соловецкий монастырь",
      "lat": 53.12623987138396,
      "lng": 42.85678250756986
    },
    "category": "Культура и религия"
  },
  {
    "title": "Годы** - период осады соловецкого монастыря -",
    "date": "1668-1676",
    "description": "* ** 1668-1676 годы** - Период осады Соловецкого монастыря - Соловецкий монастырь",
    "location": {
      "name": "Соловецкий монастырь",
      "lat": 58.4316839729764,
      "lng": 38.64564763304938
    },
    "category": "Культура и религия"
  },
  {
    "title": "Годы** - переписка между соловецким монастырем и",
    "date": "1668-1676",
    "description": "* ** 1668-1676 годы** - Переписка между Соловецким монастырем и другими старообрядческими центрами - Соловецкий монастырь, различные регионы России",
    "location": {
      "name": "Соловецкий монастырь",
      "lat": 57.16478511842983,
      "lng": 33.94046567059796
    },
    "category": "Культура и религия"
  },
  {
    "title": "Год ** - смена воеводы, командующего осадой",
    "date": "1671 год",
    "description": "* ** 1671 год ** - Смена воеводы, командующего осадой - Соловецкий монастырь",
    "location": {
      "name": "Соловецкий монастырь",
      "lat": 60.38698097423212,
      "lng": 51.654260715283925
    },
    "category": "Культура и религия"
  },
  {
    "title": "Год ** - попытка штурма монастыря -",
    "date": "1673 год",
    "description": "* ** 1673 год ** - Попытка штурма монастыря - Соловецкий монастырь",
    "location": {
      "name": "Соловецкий монастырь",
      "lat": 45.527924536420734,
      "lng": 27.84098089211427
    },
    "category": "Войны и сражения"
  },
  {
    "title": "Год ** - прибытие к соловкам подкреплений",
    "date": "1674 год",
    "description": "* ** 1674 год ** - Прибытие к Соловкам подкреплений для царских войск - Соловецкий монастырь",
    "location": {
      "name": "Соловецкий монастырь",
      "lat": 50.80956410520167,
      "lng": 32.54258701742461
    },
    "category": "Культура и религия"
  },
  {
    "title": "Год ** - усиление блокады монастыря -",
    "date": "1675 год",
    "description": "* ** 1675 год ** - Усиление блокады монастыря - Соловецкий монастырь",
    "location": {
      "name": "Соловецкий монастырь",
      "lat": 53.8666303710039,
      "lng": 31.34576578143154
    },
    "category": "Культура и религия"
  },
  {
    "title": "Год ** - попытки переговоров между осаждающими",
    "date": "1675 год",
    "description": "* ** 1675 год ** - Попытки переговоров между осаждающими и осажденными - Соловецкий монастырь",
    "location": {
      "name": "Соловецкий монастырь",
      "lat": 59.540998552484965,
      "lng": 45.72957331885296
    },
    "category": "Культура и религия"
  },
  {
    "title": "Год , 18 января** - взятие соловецкого",
    "date": "1676 год",
    "description": "* ** 1676 год , 18 января** - Взятие Соловецкого монастыря - Соловецкий монастырь",
    "location": {
      "name": "Соловецкий монастырь",
      "lat": 57.32222401401185,
      "lng": 38.93225572201811
    },
    "category": "Культура и религия"
  },
  {
    "title": "Год , 19 января** - расправа над",
    "date": "1676 год",
    "description": "* ** 1676 год , 19 января** - Расправа над участниками восстания - Соловецкий монастырь",
    "location": {
      "name": "Соловецкий монастырь",
      "lat": 56.83369539681136,
      "lng": 43.96207796057031
    },
    "category": "Культура и религия"
  },
  {
    "title": "Год ** - установление нового порядка в",
    "date": "1676 год",
    "description": "* ** 1676 год ** - Установление нового порядка в Соловецком монастыре - Соловецкий монастырь",
    "location": {
      "name": "Соловецкий монастырь",
      "lat": 57.02475320865724,
      "lng": 47.476444684478764
    },
    "category": "Культура и религия"
  },
  {
    "title": "Е годы** - преследование старообрядцев по всей",
    "date": "1676-1680",
    "description": "* ** 1676-1680 -е годы** - Преследование старообрядцев по всей России - Различные регионы России",
    "location": {
      "name": "Различные регионы России",
      "lat": 64.2850712740334,
      "lng": 51.75700753802059
    },
    "category": "Революции и перевороты"
  },
  {
    "title": "Год ** - соловецкие мученики причислены к",
    "date": "1682 год",
    "description": "* ** 1682 год ** - Соловецкие мученики причислены к лику святых старообрядческой церковью - Место неизвестно (старообрядческие общины)",
    "location": {
      "name": "Место неизвестно (старообрядческие общины)",
      "lat": 53.83605191425849,
      "lng": 31.105993827697795
    },
    "category": "Культура и религия"
  },
  {
    "title": "Годы** - соловецкий лагерь особого назначения (слон",
    "date": "1920-1939",
    "description": "* ** 1920-1939 годы** - Соловецкий лагерь особого назначения (СЛОН) - Соловецкий монастырь",
    "location": {
      "name": "Соловецкий монастырь",
      "lat": 55.99185838629178,
      "lng": 51.888890483509044
    },
    "category": "Культура и религия"
  },
  {
    "title": "Год ** - возвращение соловецкого монастыря русской",
    "date": "1990 год",
    "description": "* ** 1990 год ** - Возвращение Соловецкого монастыря Русской православной церкви - Соловецкий монастырь",
    "location": {
      "name": "Соловецкие острова",
      "lat": 58.68683044490068,
      "lng": 51.841630593163366
    },
    "category": "Культура и религия"
  },
  {
    "title": "- включение соловецкого архипелага в список всемирного наследия юнеско - соловецкий архипелаг",
    "date": "1992 год",
    "description": "* ** 1992 год ** - Включение Соловецкого архипелага в список Всемирного наследия ЮНЕСКО - Соловецкий архипелаг",
    "location": {
      "name": "Соловецкий архипелаг",
      "lat": 59.39702017716187,
      "lng": 40.74019448428028
    },
    "category": "Дипломатические события"
  },
  {
    "title": "Год ** - канонизация соловецких новомучеников русской",
    "date": "2000 год",
    "description": "* ** 2000 год ** - Канонизация Соловецких новомучеников Русской православной церковью - Москва",
    "location": {
      "name": "Москва",
      "lat": 55.75,
      "lng": 37.62
    },
    "category": "Культура и религия"
  },
  {
    "title": "Год ** - **начало активной переписки между",
    "date": "1658 год",
    "description": "* ** 1658 год ** - **Начало активной переписки между Соловецким монастырем и Москвой о новопечатных книгах** - Соловецкий монастырь -",
    "location": {
      "name": "Соловецкий монастырь",
      "lat": 49.257998891878174,
      "lng": 35.94433153487385
    },
    "category": "Культура и религия"
  },
  {
    "title": "Год ** - **соборное осуждение протопопа аввакума",
    "date": "1666 год",
    "description": "* ** 1666 год ** - **Соборное осуждение протопопа Аввакума и других противников реформы** - Москва -",
    "location": {
      "name": "Москва",
      "lat": 55.75,
      "lng": 37.62
    },
    "category": "Культура и религия"
  },
  {
    "title": "Год ** - **посылка царских грамот с",
    "date": "1667 год",
    "description": "* ** 1667 год ** - **Посылка царских грамот с увещеваниями на Соловки** - Соловецкий монастырь -",
    "location": {
      "name": "Соловецкий монастырь",
      "lat": 48.28072087264168,
      "lng": 46.55904178655158
    },
    "category": "Культура и религия"
  },
  {
    "title": "Год , февраль** - **первые столкновения между",
    "date": "1668 год",
    "description": "* ** 1668 год , февраль** - **Первые столкновения между стрельцами и монахами у стен монастыря** - Соловецкий монастырь -",
    "location": {
      "name": "Соловецкий монастырь",
      "lat": 47.49032746478066,
      "lng": 40.51156667865723
    },
    "category": "Культура и религия"
  },
  {
    "title": "Год , весна-лето** - **организация обороны монастыря",
    "date": "1668 год",
    "description": "* ** 1668 год , весна-лето** - **Организация обороны монастыря: укрепление стен и запасов** - Соловецкий монастырь -",
    "location": {
      "name": "Соловецкий монастырь",
      "lat": 61.28489759583365,
      "lng": 28.63425525506591
    },
    "category": "Войны и сражения"
  },
  {
    "title": "Год ** - **прибытие на соловки архимандрита",
    "date": "1669 год",
    "description": "* ** 1669 год ** - **Прибытие на Соловки архимандрита Сергия для переговоров** - Соловецкий монастырь -",
    "location": {
      "name": "Соловецкий монастырь",
      "lat": 53.623004961462854,
      "lng": 49.568749877038634
    },
    "category": "Культура и религия"
  },
  {
    "title": "Год ** - **попытки дипломатического урегулирования конфликта",
    "date": "1670 год",
    "description": "* ** 1670 год ** - **Попытки дипломатического урегулирования конфликта через местных воевод** - Соловецкий монастырь -",
    "location": {
      "name": "Соловецкий монастырь",
      "lat": 60.917687477759245,
      "lng": 27.592299957764308
    },
    "category": "Культура и религия"
  },
  {
    "title": "Год ** - **усиление блокады монастыря царскими",
    "date": "1672 год",
    "description": "* ** 1672 год ** - **Усиление блокады монастыря царскими войсками** - Соловецкий монастырь -",
    "location": {
      "name": "Соловецкий монастырь",
      "lat": 56.26395485919031,
      "lng": 29.414245754815973
    },
    "category": "Культура и религия"
  },
  {
    "title": "Год ** - **появление в монастыре беглых",
    "date": "1673 год",
    "description": "* ** 1673 год ** - **Появление в монастыре беглых стрельцов и крестьян, усиливающих оборону** - Соловецкий монастырь -",
    "location": {
      "name": "Соловецкий монастырь",
      "lat": 49.299542864166185,
      "lng": 49.02285829786429
    },
    "category": "Войны и сражения"
  },
  {
    "title": "Год ** - **эпидемия цинги и других",
    "date": "1674 год",
    "description": "* ** 1674 год ** - **Эпидемия цинги и других болезней в осажденном монастыре** - Соловецкий монастырь -",
    "location": {
      "name": "Соловецкий монастырь",
      "lat": 51.64310089576318,
      "lng": 27.830855965895225
    },
    "category": "Культура и религия"
  },
  {
    "title": "Год ** - **переговоры между осаждающими и",
    "date": "1675 год",
    "description": "* ** 1675 год ** - **Переговоры между осаждающими и монахами о сдаче монастыря** - Соловецкий монастырь -",
    "location": {
      "name": "Соловецкий монастырь",
      "lat": 63.280322708289226,
      "lng": 49.512789245050556
    },
    "category": "Культура и религия"
  },
  {
    "title": "Год , осень** - **предательство монаха феоктиста",
    "date": "1676 год",
    "description": "* ** 1676 год , осень** - **Предательство монаха Феоктиста (Федки) Кривого** - Соловецкий монастырь -",
    "location": {
      "name": "Соловецкий монастырь",
      "lat": 46.10982712326167,
      "lng": 29.211364307144194
    },
    "category": "Культура и религия"
  },
  {
    "title": "Год , 18 января** - **взятие соловецкого",
    "date": "1676 год",
    "description": "* ** 1676 год , 18 января** - **Взятие Соловецкого монастыря царскими войсками** - Соловецкий монастырь -",
    "location": {
      "name": "Соловецкий монастырь",
      "lat": 63.014022194071515,
      "lng": 43.412392258703875
    },
    "category": "Культура и религия"
  },
  {
    "title": "Год , январь-февраль** - **расправы над участниками",
    "date": "1676 год",
    "description": "* ** 1676 год , январь-февраль** - **Расправы над участниками восстания** - Соловецкий монастырь -",
    "location": {
      "name": "Соловецкий монастырь",
      "lat": 52.69026200554876,
      "lng": 48.526506143044685
    },
    "category": "Культура и религия"
  },
  {
    "title": "Год ** - **основание новой соловецкой обители",
    "date": "1677 год",
    "description": "* ** 1677 год ** - **Основание новой Соловецкой обители, лояльной царской власти** - Соловецкий монастырь -",
    "location": {
      "name": "Соловецкий монастырь",
      "lat": 58.837408201271415,
      "lng": 27.412575101974976
    },
    "category": "Культура и религия"
  },
  {
    "title": "Год ** - **восстание стрельцов в москве",
    "date": "1682 год",
    "description": "* ** 1682 год ** - **Восстание стрельцов в Москве, отголоски Соловецкого восстания** - Москва -",
    "location": {
      "name": "Москва",
      "lat": 55.75,
      "lng": 37.62
    },
    "category": "Революции и перевороты"
  },
  {
    "title": "Год ** - **указ о помиловании некоторых",
    "date": "1685 год",
    "description": "* ** 1685 год ** - **Указ о помиловании некоторых участников Соловецкого восстания** - Москва -",
    "location": {
      "name": "Москва",
      "lat": 55.75,
      "lng": 37.62
    },
    "category": "Революции и перевороты"
  },
  {
    "title": "Е годы** - **создание соловецкого лагеря особого",
    "date": "1920",
    "description": "* ** 1920 -е годы** - **Создание Соловецкого лагеря особого назначения (СЛОН)** - Соловецкий монастырь -",
    "location": {
      "name": "Соловецкие острова",
      "lat": 46.07663498047793,
      "lng": 38.32418578361043
    },
    "category": "Культура и религия"
  }
]