[
  {
    "title": "Ноября 1796 ** - воцарение павла i",
    "date": "1796",
    "description": "* **6 ноября 1796 ** - Воцарение Павла I - Санкт-Петербург",
    "location": {
      "name": "Санкт-Петербург",
      "lat": 59.94,
      "lng": 30.31
    },
    "category": "Научные достижения"
  },
  {
    "title": "Ноябрь 1796 ** - освобождение из заключения",
    "date": "1796",
    "description": "* **Ноябрь 1796 ** - Освобождение из заключения Н",
    "location": {
      "name": "Санкт-Петербург",
      "lat": 59.94,
      "lng": 30.31
    },
    "category": "Территориальные приобретения"
  },
  {
    "title": "Ноябрь 1796 ** - возвращение из ссылки",
    "date": "1796",
    "description": "* **Ноябрь 1796 ** - Возвращение из ссылки Тадеуша Костюшко - Санкт-Петербург",
    "location": {
      "name": "Санкт-Петербург",
      "lat": 59.94,
      "lng": 30.31
    },
    "category": "Войны и сражения"
  },
  {
    "title": "- указ о трехдневной барщине - российская империя",
    "date": "1796",
    "description": "* **Ноябрь 1796 ** - Указ о трехдневной барщине - Российская империя",
    "location": {
      "name": "Российская империя",
      "lat": 52.56573718852198,
      "lng": 30.115931520906443
    },
    "category": "Научные достижения"
  },
  {
    "title": "Ноябрь 1796 ** - введение прусских военных",
    "date": "1796",
    "description": "* **Ноябрь 1796 ** - Введение прусских военных уставов в русской армии - Российская империя",
    "location": {
      "name": "Санкт-Петербург",
      "lat": 59.94,
      "lng": 30.31
    },
    "category": "Войны и сражения"
  },
  {
    "title": "Апреля 1797 ** - учреждение министерства уделов",
    "date": "1797",
    "description": "* **5 апреля 1797 ** - Учреждение Министерства уделов - Санкт-Петербург",
    "location": {
      "name": "Санкт-Петербург",
      "lat": 59.94,
      "lng": 30.31
    },
    "category": "Социальные реформы"
  },
  {
    "title": "- издание манифеста о трехдневной барщине - российская империя",
    "date": "1797",
    "description": "* **5 апреля 1797 ** - Издание Манифеста о трехдневной барщине - Российская империя",
    "location": {
      "name": "Санкт-Петербург",
      "lat": 59.94,
      "lng": 30.31
    },
    "category": "Дипломатические события"
  },
  {
    "title": "Апреля 1797 ** - учреждение ордена святой",
    "date": "1797",
    "description": "* **5 апреля 1797 ** - Учреждение ордена Святой Анны - Санкт-Петербург",
    "location": {
      "name": "Санкт-Петербург",
      "lat": 59.94,
      "lng": 30.31
    },
    "category": "Дипломатические события"
  },
  {
    "title": "Запрет на ношение круглых шляп и фраков",
    "date": "1797",
    "description": "* ** 1797 ** - Запрет на ношение круглых шляп и фраков - Российская империя",
    "location": {
      "name": "Санкт-Петербург",
      "lat": 59.94,
      "lng": 30.31
    },
    "category": "Основание городов"
  },
  {
    "title": "Вступление россии во вторую антифранцузскую коалицию -",
    "date": "1798",
    "description": "* ** 1798 ** - Вступление России во Вторую антифранцузскую коалицию - Европа",
    "location": {
      "name": "Санкт-Петербург",
      "lat": 59.94,
      "lng": 30.31
    },
    "category": "Изменения границ"
  },
  {
    "title": "Начало русско-французской войны - средиземное море",
    "date": "1798",
    "description": "* ** 1798 ** - Начало русско-французской войны - Средиземное море",
    "location": {
      "name": "Средиземное море",
      "lat": 45.28327495795031,
      "lng": 45.45305599191131
    },
    "category": "Культура и религия"
  },
  {
    "title": "Средиземноморский поход ф",
    "date": "1798-1800",
    "description": "* ** 1798-1800 ** - Средиземноморский поход Ф",
    "location": {
      "name": "Средиземное море",
      "lat": 49.07224600413153,
      "lng": 32.007622053727474
    },
    "category": "Экономические события"
  },
  {
    "title": "Итальянский поход а",
    "date": "1799",
    "description": "* ** 1799 ** - Итальянский поход А",
    "location": {
      "name": "Северная Италия",
      "lat": 45.090151193869715,
      "lng": 31.077306345796856
    },
    "category": "Дипломатические события"
  },
  {
    "title": "Швейцарский поход а",
    "date": "1799",
    "description": "* ** 1799 ** - Швейцарский поход А",
    "location": {
      "name": "Швейцария",
      "lat": 54.63878558520429,
      "lng": 28.56526201514069
    },
    "category": "Военные кампании"
  },
  {
    "title": "- указ о запрете ввоза книг и нот из-за границы - российская империя",
    "date": "1799",
    "description": "* ** 1799 ** - Указ о запрете ввоза книг и нот из-за границы - Российская империя",
    "location": {
      "name": "Санкт-Петербург",
      "lat": 59.94,
      "lng": 30.31
    },
    "category": "Изменения границ"
  },
  {
    "title": "Разрыв россии со второй антифранцузской коалицией -",
    "date": "1800",
    "description": "* ** 1800 ** - Разрыв России со Второй антифранцузской коалицией - Санкт-Петербург",
    "location": {
      "name": "Санкт-Петербург",
      "lat": 59.94,
      "lng": 30.31
    },
    "category": "Войны и сражения"
  },
  {
    "title": "Сближение россии с францией - санкт-петербург",
    "date": "1800",
    "description": "* ** 1800 ** - Сближение России с Францией - Санкт-Петербург",
    "location": {
      "name": "Санкт-Петербург",
      "lat": 59.94,
      "lng": 30.31
    },
    "category": "Революции и перевороты"
  },
  {
    "title": "Запрет на выезд за границу - российская",
    "date": "1800",
    "description": "* ** 1800 ** - Запрет на выезд за границу - Российская империя",
    "location": {
      "name": "Санкт-Петербург",
      "lat": 59.94,
      "lng": 30.31
    },
    "category": "Изменения границ"
  },
  {
    "title": "- указ о возвращении дворянам права просить об отставке - российская империя",
    "date": "1800",
    "description": "* ** 1800 ** - Указ о возвращении дворянам права просить об отставке - Российская империя",
    "location": {
      "name": "Санкт-Петербург",
      "lat": 59.94,
      "lng": 30.31
    },
    "category": "Научные достижения"
  },
  {
    "title": "Начало подготовки к индийскому походу - российская",
    "date": "1800",
    "description": "* ** 1800 ** - Начало подготовки к Индийскому походу - Российская империя",
    "location": {
      "name": "Санкт-Петербург",
      "lat": 59.94,
      "lng": 30.31
    },
    "category": "Военные кампании"
  },
  {
    "title": "Январь 1801 ** - отправка казачьего войска",
    "date": "1801",
    "description": "* **Январь 1801 ** - Отправка казачьего войска на завоевание Индии - Российская империя",
    "location": {
      "name": "Дон",
      "lat": 47.23,
      "lng": 39.72
    },
    "category": "Политические реформы"
  },
  {
    "title": "Марта 1801 ** - убийство павла i",
    "date": "1801",
    "description": "* **12 марта 1801 ** - Убийство Павла I - Санкт-Петербург, Михайловский замок",
    "location": {
      "name": "Санкт-Петербург",
      "lat": 59.94,
      "lng": 30.31
    },
    "category": "Экономические события"
  },
  {
    "title": "Марта 1801 ** - воцарение александра i",
    "date": "1801",
    "description": "* **12 марта 1801 ** - Воцарение Александра I - Санкт-Петербург",
    "location": {
      "name": "Санкт-Петербург",
      "lat": 59.94,
      "lng": 30.31
    },
    "category": "Революции и перевороты"
  },
  {
    "title": "Строительство михайловского замка - санкт-петербург",
    "date": "1796-1801",
    "description": "* ** 1796-1801 ** - Строительство Михайловского замка - Санкт-Петербург",
    "location": {
      "name": "Санкт-Петербург",
      "lat": 59.94,
      "lng": 30.31
    },
    "category": "Войны и сражения"
  },
  {
    "title": "- коронация павла i - москва",
    "date": "1797",
    "description": "* ** 1797 ** - Коронация Павла I - Москва",
    "location": {
      "name": "Москва",
      "lat": 55.75,
      "lng": 37.62
    },
    "category": "Социальные реформы"
  },
  {
    "title": "Издание \"установления об императорской фамилии\" - санкт-петербург",
    "date": "1797",
    "description": "* ** 1797 ** - Издание \"Установления об Императорской Фамилии\" - Санкт-Петербург",
    "location": {
      "name": "Санкт-Петербург",
      "lat": 59.94,
      "lng": 30.31
    },
    "category": "Научные достижения"
  },
  {
    "title": "- принятие павлом i титула великого магистра мальтийского ордена - санкт-петербург",
    "date": "1798",
    "description": "* ** 1798 ** - Принятие Павлом I титула Великого магистра Мальтийского ордена - Санкт-Петербург",
    "location": {
      "name": "Санкт-Петербург",
      "lat": 59.94,
      "lng": 30.31
    },
    "category": "Военные кампании"
  },
  {
    "title": "Год ** - **учреждение медико-хирургической академии** -",
    "date": "1797 год",
    "description": "* ** 1797 год ** - **Учреждение Медико-хирургической академии** - Санкт-Петербург",
    "location": {
      "name": "Санкт-Петербург",
      "lat": 59.94,
      "lng": 30.31
    },
    "category": "Территориальные приобретения"
  },
  {
    "title": "Год ** - **запрет на ношение круглых",
    "date": "1797 год",
    "description": "* ** 1797 год ** - **Запрет на ношение круглых шляп, фраков и бакенбард** - Российская империя",
    "location": {
      "name": "Санкт-Петербург",
      "lat": 59.94,
      "lng": 30.31
    },
    "category": "Войны и сражения"
  },
  {
    "title": "Год ** - **указ о запрете ввоза",
    "date": "1797 год",
    "description": "* ** 1797 год ** - **Указ о запрете ввоза книг и нот из-за границы** - Российская империя",
    "location": {
      "name": "Санкт-Петербург",
      "lat": 59.94,
      "lng": 30.31
    },
    "category": "Изменения границ"
  },
  {
    "title": "Год ** - **реформа почтовой службы** -",
    "date": "1797 год",
    "description": "* ** 1797 год ** - **Реформа почтовой службы** - Российская империя",
    "location": {
      "name": "Санкт-Петербург",
      "lat": 59.94,
      "lng": 30.31
    },
    "category": "Социальные реформы"
  },
  {
    "title": "Год ** - **учреждение военно-сиротского дома** -",
    "date": "1798 год",
    "description": "* ** 1798 год ** - **Учреждение Военно-сиротского дома** - Гатчина",
    "location": {
      "name": "Гатчина",
      "lat": 57.10175276588565,
      "lng": 34.80925240808353
    },
    "category": "Войны и сражения"
  },
  {
    "title": "Год ** - **вступление россии во вторую",
    "date": "1798 год",
    "description": "* ** 1798 год ** - **Вступление России во Вторую антифранцузскую коалицию** - Европа",
    "location": {
      "name": "Европа",
      "lat": 50.0,
      "lng": 10.0
    },
    "category": "Становление государства"
  },
  {
    "title": "Год ** - **назначение а",
    "date": "1798 год",
    "description": "* ** 1798 год ** - **Назначение А",
    "category": "Основание городов"
  },
  {
    "title": "Годы** - **русско-турецкая экспедиция в ионическом море**",
    "date": "1798-1800",
    "description": "* ** 1798-1800 годы** - **Русско-турецкая экспедиция в Ионическом море** - Ионические острова",
    "location": {
      "name": "Ионические острова",
      "lat": 45.87153572748769,
      "lng": 48.385296609056354
    },
    "category": "Научные достижения"
  },
  {
    "title": "Год ** - **учреждение ордена святого иоанна",
    "date": "1799 год",
    "description": "* ** 1799 год ** - **Учреждение Ордена Святого Иоанна Иерусалимского в России** - Санкт-Петербург",
    "location": {
      "name": "Санкт-Петербург",
      "lat": 59.94,
      "lng": 30.31
    },
    "category": "Культура и религия"
  },
  {
    "title": "Год ** - **швейцарский поход суворова** -",
    "date": "1799 год",
    "description": "* ** 1799 год ** - **Швейцарский поход Суворова** - Швейцария",
    "location": {
      "name": "Швейцария",
      "lat": 45.94559190447505,
      "lng": 27.697234486391658
    },
    "category": "Военные кампании"
  },
  {
    "title": "Год ** - **разрыв россии со второй",
    "date": "1799 год",
    "description": "* ** 1799 год ** - **Разрыв России со Второй антифранцузской коалицией** - Европа",
    "location": {
      "name": "Европа",
      "lat": 50.0,
      "lng": 10.0
    },
    "category": "Революции и перевороты"
  },
  {
    "title": "Год ** - **указ о запрете вывоза",
    "date": "1800 год",
    "description": "* ** 1800 год ** - **Указ о запрете вывоза хлеба за границу** - Российская империя",
    "location": {
      "name": "Санкт-Петербург",
      "lat": 59.94,
      "lng": 30.31
    },
    "category": "Изменения границ"
  },
  {
    "title": "Год ** - **сближение с наполеоном бонапартом**",
    "date": "1800 год",
    "description": "* ** 1800 год ** - **Сближение с Наполеоном Бонапартом** - Европа",
    "location": {
      "name": "Санкт-Петербург",
      "lat": 59.94,
      "lng": 30.31
    },
    "category": "Дипломатические события"
  },
  {
    "title": "Год ** - **подготовка к совместному франко-русскому",
    "date": "1800 год",
    "description": "* ** 1800 год ** - **Подготовка к совместному франко-русскому походу в Индию** - Европа, Азия",
    "location": {
      "name": "Санкт-Петербург",
      "lat": 59.94,
      "lng": 30.31
    },
    "category": "Территориальные приобретения"
  },
  {
    "title": "Год ** - **указ о возвращении из",
    "date": "1800 год",
    "description": "* ** 1800 год ** - **Указ о возвращении из ссылки всех лиц, пострадавших при Екатерине II за критику масонства** - Российская империя",
    "location": {
      "name": "Санкт-Петербург",
      "lat": 59.94,
      "lng": 30.31
    },
    "category": "Социальные реформы"
  },
  {
    "title": "Год ** - **введение цензуры на частные",
    "date": "1800 год",
    "description": "* ** 1800 год ** - **Введение цензуры на частные типографии** - Российская империя",
    "location": {
      "name": "Санкт-Петербург",
      "lat": 59.94,
      "lng": 30.31
    },
    "category": "Социальные реформы"
  },
  {
    "title": "Год ** - **указ о запрете ношения",
    "date": "1800 год",
    "description": "* ** 1800 год ** - **Указ о запрете ношения фраков, жилетов, сапог с отворотами и галстуков** - Российская империя",
    "location": {
      "name": "Санкт-Петербург",
      "lat": 59.94,
      "lng": 30.31
    },
    "category": "Восстания и бунты"
  },
  {
    "title": "Год ** - **закрытие всех частных типографий**",
    "date": "1801 год",
    "description": "* ** 1801 год ** - **Закрытие всех частных типографий** - Российская империя",
    "location": {
      "name": "Санкт-Петербург",
      "lat": 59.94,
      "lng": 30.31
    },
    "category": "Революции и перевороты"
  },
  {
    "title": "Год ** - **подготовка к войне с",
    "date": "1801 год",
    "description": "* ** 1801 год ** - **Подготовка к войне с Англией** - Европа",
    "location": {
      "name": "Европа",
      "lat": 50.0,
      "lng": 10.0
    },
    "category": "Становление государства"
  }
]