[
  {
    "title": "- открытие первой школы на руси - киев",
    "date": "1030 год",
    "description": "* ** 1030 год ** - Открытие первой школы на Руси - Киев",
    "location": {
      "name": "Киев",
      "lat": 50.45,
      "lng": 30.52
    },
    "category": "Научные достижения"
  },
  {
    "title": "- основание московской типографии - москва",
    "date": "1553 год",
    "description": "* ** 1553 год ** - Основание Московской типографии - Москва",
    "location": {
      "name": "Москва",
      "lat": 55.75,
      "lng": 37.62
    },
    "category": "Становление государства"
  },
  {
    "title": "Год , 1 марта** - издание \"апостола\"",
    "date": "1564 год",
    "description": "* ** 1564 год , 1 марта** - Издание \"Апостола\" - Москва",
    "location": {
      "name": "Москва",
      "lat": 55.75,
      "lng": 37.62
    },
    "category": "Войны и сражения"
  },
  {
    "title": "- открытие славяно-греко-латинской академии - москва",
    "date": "1687 год",
    "description": "* ** 1687 год ** - Открытие Славяно-греко-латинской академии - Москва",
    "location": {
      "name": "Москва",
      "lat": 55.75,
      "lng": 37.62
    },
    "category": "Научные достижения"
  },
  {
    "title": "- открытие школы математических и навигацких наук - москва",
    "date": "1701 год",
    "description": "* ** 1701 год ** - Открытие Школы математических и навигацких наук - Москва",
    "location": {
      "name": "Москва",
      "lat": 55.75,
      "lng": 37.62
    },
    "category": "Научные достижения"
  },
  {
    "title": "Год ** - издание первого номера газеты",
    "date": "1703 год",
    "description": "* ** 1703 год ** - Издание первого номера газеты \"Ведомости\" - Москва",
    "location": {
      "name": "Москва",
      "lat": 55.75,
      "lng": 37.62
    },
    "category": "Научные достижения"
  },
  {
    "title": "- указ об обязательном обучении дворянских детей - российская империя",
    "date": "1714 год",
    "description": "* ** 1714 год ** - Указ об обязательном обучении дворянских детей - Российская империя",
    "location": {
      "name": "Санкт-Петербург",
      "lat": 59.94,
      "lng": 30.31
    },
    "category": "Культура и религия"
  },
  {
    "title": "- создание синодальной типографии - санкт-петербург",
    "date": "1721 год",
    "description": "* ** 1721 год ** - Создание Синодальной типографии - Санкт-Петербург",
    "location": {
      "name": "Санкт-Петербург",
      "lat": 59.94,
      "lng": 30.31
    },
    "category": "Военные кампании"
  },
  {
    "title": "Год , 28 января** - учреждение академии",
    "date": "1724 год",
    "description": "* ** 1724 год , 28 января** - Учреждение Академии наук и художеств - Санкт-Петербург",
    "location": {
      "name": "Санкт-Петербург",
      "lat": 59.94,
      "lng": 30.31
    },
    "category": "Научные достижения"
  },
  {
    "title": "- открытие московского университета - москва",
    "date": "1755 год",
    "description": "* ** 1755 год , 25 января** - Открытие Московского университета - Москва",
    "location": {
      "name": "Москва",
      "lat": 55.75,
      "lng": 37.62
    },
    "category": "Научные достижения"
  },
  {
    "title": "- манифест о вольности дворянства - российская империя",
    "date": "1762 год",
    "description": "* ** 1762 год ** - Манифест о вольности дворянства - Российская империя",
    "location": {
      "name": "Санкт-Петербург",
      "lat": 59.94,
      "lng": 30.31
    },
    "category": "Военные кампании"
  },
  {
    "title": "- указ о вольных типографиях - российская империя",
    "date": "1783 год",
    "description": "* ** 1783 год ** - Указ о вольных типографиях - Российская империя",
    "location": {
      "name": "Санкт-Петербург",
      "lat": 59.94,
      "lng": 30.31
    },
    "category": "Социальные реформы"
  },
  {
    "title": "Год ** - положение об устройстве училищ",
    "date": "1803 год",
    "description": "* ** 1803 год ** - Положение об устройстве училищ - Российская империя",
    "location": {
      "name": "Санкт-Петербург",
      "lat": 59.94,
      "lng": 30.31
    },
    "category": "Политические реформы"
  },
  {
    "title": "Год ** - университетский устав - российская",
    "date": "1804 год",
    "description": "* ** 1804 год ** - Университетский устав - Российская империя",
    "location": {
      "name": "Российская империя",
      "lat": 59.68172421585168,
      "lng": 42.73335750833006
    },
    "category": "Социальные реформы"
  },
  {
    "title": "- создание третьего отделения собственной его императорского величества канцелярии - санкт-петербург",
    "date": "1826 год",
    "description": "* ** 1826 год ** - Создание Третьего отделения Собственной Его Императорского Величества канцелярии - Санкт-Петербург",
    "location": {
      "name": "Санкт-Петербург",
      "lat": 59.94,
      "lng": 30.31
    },
    "category": "Становление государства"
  },
  {
    "title": "Год ** - новый цензурный устав (\"чугунный",
    "date": "1828 год",
    "description": "* ** 1828 год ** - Новый цензурный устав (\"чугунный устав\") - Российская империя",
    "location": {
      "name": "Санкт-Петербург",
      "lat": 59.94,
      "lng": 30.31
    },
    "category": "Социальные реформы"
  },
  {
    "title": "Год ** - новый университетский устав -",
    "date": "1835 год",
    "description": "* ** 1835 год ** - Новый университетский устав - Российская империя",
    "location": {
      "name": "Российская империя",
      "lat": 63.87773570471977,
      "lng": 51.94282903897935
    },
    "category": "Социальные реформы"
  },
  {
    "title": "- земская реформа - российская империя",
    "date": "1864 год",
    "description": "* ** 1864 год ** - Земская реформа - Российская империя",
    "location": {
      "name": "Российская империя",
      "lat": 46.238028556272866,
      "lng": 43.231592474715875
    },
    "category": "Социальные реформы"
  },
  {
    "title": "Год ** - временные правила о печати",
    "date": "1865 год",
    "description": "* ** 1865 год ** - Временные правила о печати - Российская империя",
    "location": {
      "name": "Санкт-Петербург",
      "lat": 59.94,
      "lng": 30.31
    },
    "category": "Восстания и бунты"
  },
  {
    "title": "Год ** - городовое положение - российская",
    "date": "1870 год",
    "description": "* ** 1870 год ** - Городовое положение - Российская империя",
    "location": {
      "name": "Российская империя",
      "lat": 54.57006442174796,
      "lng": 32.82086231262045
    },
    "category": "Становление государства"
  },
  {
    "title": "Год ** - циркуляр \"о кухаркиных детях\"",
    "date": "1871 год",
    "description": "* ** 1871 год ** - Циркуляр \"о кухаркиных детях\" - Российская империя",
    "location": {
      "name": "Санкт-Петербург",
      "lat": 59.94,
      "lng": 30.31
    },
    "category": "Революции и перевороты"
  },
  {
    "title": "Год ** - положение о губернских и",
    "date": "1890 год",
    "description": "* ** 1890 год ** - Положение о губернских и уездных земских учреждениях - Российская империя",
    "location": {
      "name": "Санкт-Петербург",
      "lat": 59.94,
      "lng": 30.31
    },
    "category": "Военные кампании"
  },
  {
    "title": "- манифест об усовершенствовании государственного порядка - российская империя",
    "date": "1905 год",
    "description": "* ** 1905 год , 17 октября** - Манифест об усовершенствовании государственного порядка - Российская империя",
    "location": {
      "name": "Санкт-Петербург",
      "lat": 59.94,
      "lng": 30.31
    },
    "category": "Становление государства"
  },
  {
    "title": "- отмена предварительной цензуры для периодических изданий - российская империя",
    "date": "1906 год",
    "description": "* ** 1906 год ** - Отмена предварительной цензуры для периодических изданий - Российская империя",
    "location": {
      "name": "Санкт-Петербург",
      "lat": 59.94,
      "lng": 30.31
    },
    "category": "Политические реформы"
  },
  {
    "title": "Год ** - введение всеобщего начального образования",
    "date": "1908 год",
    "description": "* ** 1908 год ** - Введение всеобщего начального образования - Российская империя",
    "location": {
      "name": "Российская империя",
      "lat": 54.1740556541726,
      "lng": 41.1554172262974
    },
    "category": "Становление государства"
  },
  {
    "title": "- открытие московского городского народного университета имени а",
    "date": "1915 год",
    "description": "* ** 1915 год ** - Открытие Московского городского народного университета имени А",
    "location": {
      "name": "Москва",
      "lat": 55.75,
      "lng": 37.62
    },
    "category": "Научные достижения"
  },
  {
    "title": "Указ о назначении учителей в школы из",
    "date": "1722",
    "description": "* ** 1722 ** - **Указ о назначении учителей в школы из числа грамотных солдат** - Российская империя",
    "location": {
      "name": "Санкт-Петербург",
      "lat": 59.94,
      "lng": 30.31
    },
    "category": "Военные кампании"
  },
  {
    "title": "Учреждение воспитательных домов для сирот и беспризорных",
    "date": "1764",
    "description": "* ** 1764 ** - **Учреждение Воспитательных домов для сирот и беспризорных детей** - Москва, Санкт-Петербург, Российская империя",
    "location": {
      "name": "Москва, Санкт-Петербург",
      "lat": 55.75,
      "lng": 37.62
    },
    "category": "Войны и сражения"
  },
  {
    "title": "Школьная реформа в австрийской империи",
    "date": "1782-1786",
    "description": "* ** 1782-1786 ** - **Школьная реформа в Австрийской империи (Allgemeine Schulordnung)** - Австрийская империя",
    "location": {
      "name": "Австрийская империя",
      "lat": 52.76410365004164,
      "lng": 46.43561484616046
    },
    "category": "Социальные реформы"
  },
  {
    "title": "Принятие \"устава народных училищ\"** - российская империя",
    "date": "1786",
    "description": "* ** 1786 ** - **Принятие \"Устава народных училищ\"** - Российская империя",
    "location": {
      "name": "Санкт-Петербург",
      "lat": 59.94,
      "lng": 30.31
    },
    "category": "Социальные реформы"
  },
  {
    "title": "Основание виленской медико-хирургической академии** - вильно, российская",
    "date": "1795",
    "description": "* ** 1795 ** - **Основание Виленской медико-хирургической академии** - Вильно, Российская империя (совр",
    "location": {
      "name": "Вильно",
      "lat": 49.526248431523406,
      "lng": 29.988643227498965
    },
    "category": "Культура и религия"
  },
  {
    "title": "Предварительные правила народного просвещения\"** - российская империя",
    "date": "1803",
    "description": "* ** 1803 ** - **\"Предварительные правила народного просвещения\"** - Российская империя",
    "location": {
      "name": "Санкт-Петербург",
      "lat": 59.94,
      "lng": 30.31
    },
    "category": "Дипломатические события"
  },
  {
    "title": "Утверждение университетских уставов для дерптского, казанского и",
    "date": "1804",
    "description": "* ** 1804 ** - **Утверждение университетских уставов для Дерптского, Казанского и Харьковского университетов** - Российская империя",
    "location": {
      "name": "Санкт-Петербург",
      "lat": 59.94,
      "lng": 30.31
    },
    "category": "Социальные реформы"
  },
  {
    "title": "Открытие царскосельского лицея** - царское село, российская",
    "date": "1811",
    "description": "* ** 1811 ** - **Открытие Царскосельского лицея** - Царское Село, Российская империя",
    "location": {
      "name": "Царское Село",
      "lat": 58.799766173018256,
      "lng": 40.334035756506815
    },
    "category": "Научные достижения"
  },
  {
    "title": "Устав гимназий и училищ уездных и приходских**",
    "date": "1828",
    "description": "* ** 1828 ** - **Устав гимназий и училищ уездных и приходских** - Российская империя",
    "location": {
      "name": "Санкт-Петербург",
      "lat": 59.94,
      "lng": 30.31
    },
    "category": "Социальные реформы"
  },
  {
    "title": "Новый университетский устав** - российская империя",
    "date": "1835",
    "description": "* ** 1835 ** - **Новый университетский устав** - Российская империя",
    "location": {
      "name": "Санкт-Петербург",
      "lat": 59.94,
      "lng": 30.31
    },
    "category": "Социальные реформы"
  },
  {
    "title": "Временные правила о печати** - российская империя",
    "date": "1861",
    "description": "* ** 1861 ** - **Временные правила о печати** - Российская империя",
    "location": {
      "name": "Санкт-Петербург",
      "lat": 59.94,
      "lng": 30.31
    },
    "category": "Культура и религия"
  },
  {
    "title": "Положение о начальных народных училищах** - российская",
    "date": "1864",
    "description": "* ** 1864 ** - **Положение о начальных народных училищах** - Российская империя",
    "location": {
      "name": "Санкт-Петербург",
      "lat": 59.94,
      "lng": 30.31
    },
    "category": "Военные кампании"
  },
  {
    "title": "Введение предварительной цензуры только для изданий объемом",
    "date": "1865",
    "description": "* ** 1865 ** - **Введение предварительной цензуры только для изданий объемом свыше 10 печатных листов** - Российская империя",
    "location": {
      "name": "Санкт-Петербург",
      "lat": 59.94,
      "lng": 30.31
    },
    "category": "Социальные реформы"
  },
  {
    "title": "Городовое положение** - российская империя",
    "date": "1870",
    "description": "* ** 1870 ** - **Городовое положение** - Российская империя",
    "location": {
      "name": "Российская империя",
      "lat": 47.32174930270281,
      "lng": 39.60991529705434
    },
    "category": "Научные достижения"
  },
  {
    "title": "Циркуляр о \"кухаркиных детях\"** - российская империя",
    "date": "1871",
    "description": "* ** 1871 ** - **Циркуляр о \"кухаркиных детях\"** - Российская империя",
    "location": {
      "name": "Санкт-Петербург",
      "lat": 59.94,
      "lng": 30.31
    },
    "category": "Культура и религия"
  },
  {
    "title": "Военная реформа д",
    "date": "1874",
    "description": "* ** 1874 ** - **Военная реформа Д",
    "location": {
      "name": "Санкт-Петербург",
      "lat": 59.94,
      "lng": 30.31
    },
    "category": "Войны и сражения"
  },
  {
    "title": "Временные правила о печати\", ужесточение цензуры** -",
    "date": "1882",
    "description": "* ** 1882 ** - **\"Временные правила о печати\", ужесточение цензуры** - Российская империя",
    "location": {
      "name": "Санкт-Петербург",
      "lat": 59.94,
      "lng": 30.31
    },
    "category": "Изменения границ"
  },
  {
    "title": "Первая всеобщая перепись населения российской империи** -",
    "date": "1897",
    "description": "* ** 1897 ** - **Первая всеобщая перепись населения Российской империи** - Российская империя",
    "location": {
      "name": "Российская империя",
      "lat": 55.61102255791823,
      "lng": 37.84486358142632
    },
    "category": "Культура и религия"
  }
]