[
  {
    "title": "Год ** - закрытие ганзейского двора в",
    "date": "1494 год",
    "description": "* ** 1494 год ** - Закрытие Ганзейского двора в Новгороде - Новгород",
    "location": {
      "name": "Новгород",
      "lat": 58.52,
      "lng": 31.27
    },
    "category": "Изменения границ"
  },
  {
    "title": "- русско-ливонская война - ливония",
    "date": "1501-1503",
    "description": "* ** 1501-1503 годы** - Русско-Ливонская война - Ливония, Псковские земли",
    "location": {
      "name": "Псковские земли",
      "lat": 57.82,
      "lng": 28.33
    },
    "category": "Войны и сражения"
  },
  {
    "title": "- заключение перемирия между швецией и россией на 40 лет - москва",
    "date": "1554 год",
    "description": "* ** 1554 год ** - Заключение перемирия между Швецией и Россией на 40 лет - Москва",
    "location": {
      "name": "Москва",
      "lat": 55.75,
      "lng": 37.62
    },
    "category": "Дипломатические события"
  },
  {
    "title": "- заключение позвольского договора - позволь",
    "date": "1557 год",
    "description": "* ** 1557 год ** - Заключение Позвольского договора - Позволь (близ Риги)",
    "location": {
      "name": "Позволь",
      "lat": 50.75976646691031,
      "lng": 37.58645647442999
    },
    "category": "Дипломатические события"
  },
  {
    "title": "Январь 1558 года** - начало ливонской войны",
    "date": "1558",
    "description": "* **Январь 1558 года** - Начало Ливонской войны - Ливония",
    "location": {
      "name": "Ливония",
      "lat": 45.683797809705226,
      "lng": 33.56451695338954
    },
    "category": "Социальные реформы"
  },
  {
    "title": "Май 1558 года** - взятие нарвы -",
    "date": "1558",
    "description": "* **Май 1558 года** - Взятие Нарвы - Нарва",
    "location": {
      "name": "Нарва",
      "lat": 45.3459945663142,
      "lng": 38.56167557633182
    },
    "category": "Становление государства"
  },
  {
    "title": "Июль 1558 года** - взятие дерпта (тарту",
    "date": "1558",
    "description": "* **Июль 1558 года** - Взятие Дерпта (Тарту) - Дерпт (Тарту)",
    "location": {
      "name": "Тарту",
      "lat": 51.364665734521004,
      "lng": 29.9289454620653
    },
    "category": "Революции и перевороты"
  },
  {
    "title": "- перемирие между россией и ливонией - ливония",
    "date": "1559 год",
    "description": "* ** 1559 год ** - Перемирие между Россией и Ливонией - Ливония",
    "location": {
      "name": "Ливония",
      "lat": 56.056855315077684,
      "lng": 43.559893703613064
    },
    "category": "Дипломатические события"
  },
  {
    "title": "Год ** - переход части ливонии под",
    "date": "1559 год",
    "description": "* ** 1559 год ** - Переход части Ливонии под протекторат Великого княжества Литовского - Вильно (Вильнюс)",
    "location": {
      "name": "Вильно (Вильнюс)",
      "lat": 54.69,
      "lng": 25.27
    },
    "category": "Становление государства"
  },
  {
    "title": "Год ** - разгром ливонского войска у",
    "date": "1560 год",
    "description": "* ** 1560 год ** - Разгром ливонского войска у Эргеме - Эргеме (близ Валки)",
    "location": {
      "name": "Эргеме (близ Валки)",
      "lat": 63.02666497791357,
      "lng": 32.08334059966033
    },
    "category": "Основание городов"
  },
  {
    "title": "Год ** - взятие феллина (вильянди) -",
    "date": "1560 год",
    "description": "* ** 1560 год ** - Взятие Феллина (Вильянди) - Феллин (Вильянди)",
    "location": {
      "name": "Вильянди",
      "lat": 62.244701369341705,
      "lng": 48.310129156605115
    },
    "category": "Революции и перевороты"
  },
  {
    "title": "Год ** - распад ливонского ордена -",
    "date": "1561 год",
    "description": "* ** 1561 год ** - Распад Ливонского ордена - Рига",
    "location": {
      "name": "Рига",
      "lat": 56.95,
      "lng": 24.11
    },
    "category": "Социальные реформы"
  },
  {
    "title": "Год ** - виленская уния - вильно",
    "date": "1561 год",
    "description": "* ** 1561 год ** - Виленская уния - Вильно (Вильнюс)",
    "location": {
      "name": "Вильно (Вильнюс)",
      "lat": 54.69,
      "lng": 25.27
    },
    "category": "Военные кампании"
  },
  {
    "title": "Год ** - взятие полоцка - полоцк",
    "date": "1563 год",
    "description": "* ** 1563 год ** - Взятие Полоцка - Полоцк",
    "location": {
      "name": "Полоцк",
      "lat": 46.19809898359264,
      "lng": 47.46141700777526
    },
    "category": "Основание городов"
  },
  {
    "title": "- битва на реке уле - река ула",
    "date": "1564 год",
    "description": "* ** 1564 год ** - Битва на реке Уле - Река Ула (близ Чашников)",
    "location": {
      "name": "Близ Чашников",
      "lat": 53.378769435359736,
      "lng": 34.85960288636607
    },
    "category": "Войны и сражения"
  },
  {
    "title": "- начало переговоров о мире между россией и литвой - москва",
    "date": "1566 год",
    "description": "* ** 1566 год ** - Начало переговоров о мире между Россией и Литвой - Москва",
    "location": {
      "name": "Москва",
      "lat": 55.75,
      "lng": 37.62
    },
    "category": "Дипломатические события"
  },
  {
    "title": "Год ** - люблинская уния - люблин",
    "date": "1569 год",
    "description": "* ** 1569 год ** - Люблинская уния - Люблин",
    "location": {
      "name": "Люблин",
      "lat": 53.31940430337747,
      "lng": 31.89349197464685
    },
    "category": "Войны и сражения"
  },
  {
    "title": "- основание вассального ливонского королевства под властью магнуса - ливония",
    "date": "1570 год",
    "description": "* ** 1570 год ** - Основание вассального Ливонского королевства под властью Магнуса - Ливония",
    "location": {
      "name": "Ревель",
      "lat": 57.318474164027855,
      "lng": 33.9653019846692
    },
    "category": "Экономические события"
  },
  {
    "title": "Год ** - казнь михаила воротынского -",
    "date": "1572 год",
    "description": "* ** 1572 год ** - Казнь Михаила Воротынского - Москва",
    "location": {
      "name": "Москва",
      "lat": 55.75,
      "lng": 37.62
    },
    "category": "Изменения границ"
  },
  {
    "title": "Год ** - взятие салиса (салацгрива) -",
    "date": "1575 год",
    "description": "* ** 1575 год ** - Взятие Салиса (Салацгрива) - Салис (Салацгрива)",
    "location": {
      "name": "Салацгрива",
      "lat": 49.51329540637536,
      "lng": 35.34392830933332
    },
    "category": "Изменения границ"
  },
  {
    "title": "Год ** - стефан баторий становится королем",
    "date": "1576 год",
    "description": "* ** 1576 год ** - Стефан Баторий становится королем Речи Посполитой - Речь Посполитая",
    "location": {
      "name": "Речь Посполитая",
      "lat": 52.78819151500193,
      "lng": 33.00229646191953
    },
    "category": "Военные кампании"
  },
  {
    "title": "Год ** - поход ивана iv на",
    "date": "1577 год",
    "description": "* ** 1577 год ** - Поход Ивана IV на Ливонию - Ливония",
    "location": {
      "name": "Ливония",
      "lat": 51.244261852920516,
      "lng": 47.83232725201486
    },
    "category": "Основание городов"
  },
  {
    "title": "Год ** - начало наступления стефана батория",
    "date": "1579 год",
    "description": "* ** 1579 год ** - Начало наступления Стефана Батория - Полоцк",
    "location": {
      "name": "Полоцк",
      "lat": 46.62188213602658,
      "lng": 44.6665513647102
    },
    "category": "Войны и сражения"
  },
  {
    "title": "Год ** - взятие великих лук -",
    "date": "1580 год",
    "description": "* ** 1580 год ** - Взятие Великих Лук - Великие Луки",
    "location": {
      "name": "Великие Луки",
      "lat": 61.095807719963155,
      "lng": 28.82827262685628
    },
    "category": "Территориальные приобретения"
  },
  {
    "title": "Год ** - начало осады пскова -",
    "date": "1581 год",
    "description": "* ** 1581 год ** - Начало осады Пскова - Псков",
    "location": {
      "name": "Псков",
      "lat": 57.82,
      "lng": 28.33
    },
    "category": "Военные кампании"
  },
  {
    "title": "Годы** - оборона пскова - псков",
    "date": "1581-1583",
    "description": "* ** 1581-1583 годы** - Оборона Пскова - Псков",
    "location": {
      "name": "Псков",
      "lat": 57.82,
      "lng": 28.33
    },
    "category": "Войны и сражения"
  },
  {
    "title": "Год ** - захват шведами нарвы -",
    "date": "1581 год",
    "description": "* ** 1581 год ** - Захват шведами Нарвы - Нарва",
    "location": {
      "name": "Нарва",
      "lat": 45.30272442030261,
      "lng": 38.99675258362262
    },
    "category": "Восстания и бунты"
  },
  {
    "title": "- ям-запольский мир - ям-запольский",
    "date": "1582 год",
    "description": "* ** 1582 год ** - Ям-Запольский мир - Ям-Запольский",
    "location": {
      "name": "Ям-Запольский",
      "lat": 55.88537829080258,
      "lng": 42.366799099996115
    },
    "category": "Дипломатические события"
  },
  {
    "title": "- плюсское перемирие - плюсса",
    "date": "1583 год",
    "description": "* ** 1583 год ** - Плюсское перемирие - Плюсса (близ Нарвы)",
    "location": {
      "name": "Плюсса",
      "lat": 56.5896050750786,
      "lng": 44.7434154225964
    },
    "category": "Дипломатические события"
  },
  {
    "title": "После 1583 года** - экономический кризис в",
    "date": "1583",
    "description": "* **После 1583 года** - Экономический кризис в России - Россия",
    "location": {
      "name": "Россия",
      "lat": 55.75,
      "lng": 37.62
    },
    "category": "Экономические события"
  },
  {
    "title": "После 1583 года** - усиление позиций швеции",
    "date": "1583",
    "description": "* **После 1583 года** - Усиление позиций Швеции и Речи Посполитой в Прибалтике - Прибалтика",
    "location": {
      "name": "Прибалтика",
      "lat": 50.591571233729994,
      "lng": 48.10111134633991
    },
    "category": "Основание городов"
  },
  {
    "title": "Июня** - **битва при эрмесе** - эрмесе",
    "date": "1562",
    "description": "* ** 1562 , 2 июня** - **Битва при Эрмесе** - Эрмесе (совр",
    "location": {
      "name": "Эрмесе",
      "lat": 47.793613330451116,
      "lng": 44.6150503842332
    },
    "category": "Войны и сражения"
  },
  {
    "title": "Февраля** - **взятие полоцка** - полоцк",
    "date": "1563",
    "description": "* ** 1563 , 15 февраля** - **Взятие Полоцка** - Полоцк",
    "location": {
      "name": "Полоцк",
      "lat": 50.96999695187359,
      "lng": 45.79278918150088
    },
    "category": "Военные кампании"
  },
  {
    "title": "Января** - **битва при чашниках (битва на",
    "date": "1564",
    "description": "* ** 1564 , 26 января** - **Битва при Чашниках (битва на Уле)** - Река Ула, близ Чашников",
    "location": {
      "name": "Река Ула, близ Чашников",
      "lat": 49.42657783871131,
      "lng": 42.45169025474414
    },
    "category": "Войны и сражения"
  },
  {
    "title": "Июля** - **люблинская уния** - люблин",
    "date": "1569",
    "description": "* ** 1569 , 1 июля** - **Люблинская уния** - Люблин",
    "location": {
      "name": "Люблин",
      "lat": 60.27929946848268,
      "lng": 39.05548860291247
    },
    "category": "Войны и сражения"
  },
  {
    "title": "Июнь** - **начало осады ревеля** - ревель",
    "date": "1570",
    "description": "* ** 1570 , июнь** - **Начало осады Ревеля** - Ревель (Таллин)",
    "location": {
      "name": "Таллин",
      "lat": 59.44,
      "lng": 24.75
    },
    "category": "Основание городов"
  },
  {
    "title": "Осада продолжалась до марта 1571 года",
    "date": "1571",
    "description": "Осада продолжалась до марта 1571 года",
    "location": {
      "name": "Ревель",
      "lat": 46.005931328505596,
      "lng": 48.661760349101016
    },
    "category": "Войны и сражения"
  },
  {
    "title": "Октября** - **битва при молодях** - молоди",
    "date": "1572",
    "description": "* ** 1572 , 21 октября** - **Битва при Молодях** - Молоди, близ Москвы",
    "location": {
      "name": "Молоди",
      "lat": 60.94163497520455,
      "lng": 48.53992739066831
    },
    "category": "Войны и сражения"
  },
  {
    "title": "Января** - **взятие крепости вейсенштейн (пайде)** -",
    "date": "1573",
    "description": "* ** 1573 , 1 января** - **Взятие крепости Вейсенштейн (Пайде)** - Пайде, Эстония",
    "location": {
      "name": "Пайде, Эстония",
      "lat": 59.44,
      "lng": 24.75
    },
    "category": "Войны и сражения"
  },
  {
    "title": "Июль** - **начало осады пернова (пярну)** -",
    "date": "1575",
    "description": "* ** 1575 , июль** - **Начало осады Пернова (Пярну)** - Пярну, Эстония",
    "location": {
      "name": "Пярну",
      "lat": 48.59669507331908,
      "lng": 46.19331287764294
    },
    "category": "Научные достижения"
  },
  {
    "title": "Мая** - **стефан баторий избран королем речи",
    "date": "1576",
    "description": "* ** 1576 , 1 мая** - **Стефан Баторий избран королем Речи Посполитой** - Енджеюв, Польша",
    "location": {
      "name": "Енджеюв",
      "lat": 58.739766175003616,
      "lng": 35.69305663309822
    },
    "category": "Революции и перевороты"
  },
  {
    "title": "Август** - **начало похода стефана батория на",
    "date": "1577",
    "description": "* ** 1577 , август** - **Начало похода Стефана Батория на Полоцк** - Полоцк",
    "location": {
      "name": "Полоцк",
      "lat": 56.97676709994343,
      "lng": 35.50700873442752
    },
    "category": "Экономические события"
  },
  {
    "title": "Августа** - **взятие полоцка войсками стефана батория**",
    "date": "1579",
    "description": "* ** 1579 , 31 августа** - **Взятие Полоцка войсками Стефана Батория** - Полоцк",
    "location": {
      "name": "Полоцк",
      "lat": 47.33536700627581,
      "lng": 46.74873790062058
    },
    "category": "Научные достижения"
  },
  {
    "title": "Август** - **начало осады великих лук** -",
    "date": "1580",
    "description": "* ** 1580 , август** - **Начало осады Великих Лук** - Великие Луки",
    "location": {
      "name": "Великие Луки",
      "lat": 56.880732656787316,
      "lng": 38.81965194449532
    },
    "category": "Революции и перевороты"
  },
  {
    "title": "Сентября** - **взятие великих лук войсками стефана",
    "date": "1580",
    "description": "* ** 1580 , 5 сентября** - **Взятие Великих Лук войсками Стефана Батория** - Великие Луки",
    "location": {
      "name": "Великие Луки",
      "lat": 52.07931908506773,
      "lng": 51.82758974022481
    },
    "category": "Экономические события"
  },
  {
    "title": "Август** - **начало осады пскова** - псков",
    "date": "1581",
    "description": "* ** 1581 , август** - **Начало осады Пскова** - Псков",
    "location": {
      "name": "Псков",
      "lat": 57.82,
      "lng": 28.33
    },
    "category": "Экономические события"
  },
  {
    "title": "Декабря** - **падение нарвы** - нарва",
    "date": "1581",
    "description": "* ** 1581 , 13 декабря** - **Падение Нарвы** - Нарва",
    "location": {
      "name": "Нарва",
      "lat": 64.595949944534,
      "lng": 40.57127410593906
    },
    "category": "Научные достижения"
  },
  {
    "title": "Января** - **ям-запольский мир** - ям-запольский, близ",
    "date": "1582",
    "description": "* ** 1582 , 15 января** - **Ям-Запольский мир** - Ям-Запольский, близ Запольского Яма",
    "location": {
      "name": "Ям-Запольский, близ Запольского Яма",
      "lat": 62.130652941655086,
      "lng": 29.964155752746485
    },
    "category": "Дипломатические события"
  },
  {
    "title": "Плюсское перемирие",
    "date": "1583",
    "description": "* ** 1583 , 10 августа** - **Плюсское перемирие** - Плюсса, близ Нарвы",
    "location": {
      "name": "Плюсса",
      "lat": 59.47504340047662,
      "lng": 33.470919321455604
    },
    "category": "Дипломатические события"
  },
  {
    "title": "Русско-шведская война",
    "date": "1590-1595",
    "description": "* ** 1590-1595 ** - **Русско-шведская война (после Ливонской войны)** - Различные районы Прибалтики и северо-запада России",
    "location": {
      "name": "Прибалтика и северо-запад России",
      "lat": 52.98813820397304,
      "lng": 41.269555746763416
    },
    "category": "Войны и сражения"
  }
]