[
  {
    "title": "Год ** - **основание шведской крепости ландскрона**",
    "date": "1300 год",
    "description": "* ** 1300 год ** - **Основание шведской крепости Ландскрона** - Устье реки Охты, Нева",
    "location": {
      "name": "Устье реки Охты, Нева",
      "lat": 56.19043799617087,
      "lng": 33.48525748985391
    },
    "category": "Дипломатические события"
  },
  {
    "title": "Год ** - **разрушение ландскроны новгородцами** -",
    "date": "1301 год",
    "description": "* ** 1301 год ** - **Разрушение Ландскроны новгородцами** - Устье реки Охты, Нева",
    "location": {
      "name": "Устье реки Охты, Нева",
      "lat": 49.99657789359817,
      "lng": 46.038001503879435
    },
    "category": "Военные кампании"
  },
  {
    "title": "Год ** - **основание ивангорода** - нарва",
    "date": "1492 год",
    "description": "* ** 1492 год ** - **Основание Ивангорода** - Нарва (Ивангород)",
    "location": {
      "name": "Ивангород",
      "lat": 62.635678513912524,
      "lng": 41.99635615099628
    },
    "category": "Территориальные приобретения"
  },
  {
    "title": "Год ** - **захват ниена шведами** -",
    "date": "1611 год",
    "description": "* ** 1611 год ** - **Захват Ниена шведами** - Устье реки Охты, Нева",
    "location": {
      "name": "Устье реки Охты, Нева",
      "lat": 57.26889690568517,
      "lng": 34.54055192435466
    },
    "category": "Территориальные приобретения"
  },
  {
    "title": "Столбовский мирный договор",
    "date": "1617 год",
    "description": "* ** 1617 год ** - **Столбовский мирный договор** - Столбово",
    "location": {
      "name": "Столбово",
      "lat": 56.22132802463686,
      "lng": 32.9831536666734
    },
    "category": "Дипломатические события"
  },
  {
    "title": "Год , 30 августа** - **битва при",
    "date": "1700 год",
    "description": "* ** 1700 год , 30 августа** - **Битва при Нарве** - Нарва",
    "location": {
      "name": "Нарва",
      "lat": 48.89723941951951,
      "lng": 30.85838592400306
    },
    "category": "Войны и сражения"
  },
  {
    "title": "Год , 11 октября** - **взятие нотебурга",
    "date": "1702 год",
    "description": "* ** 1702 год , 11 октября** - **Взятие Нотебурга (Орешка)** - Орешек (Шлиссельбург)",
    "location": {
      "name": "Шлиссельбург",
      "lat": 62.63067035367648,
      "lng": 46.554261162347686
    },
    "category": "Изменения границ"
  },
  {
    "title": "Год , 1 мая** - **взятие ниеншанца**",
    "date": "1703 год",
    "description": "* ** 1703 год , 1 мая** - **Взятие Ниеншанца** - Устье реки Охты, Нева",
    "location": {
      "name": "Устье реки Охты, Нева",
      "lat": 55.33435088851996,
      "lng": 48.797960565435176
    },
    "category": "Социальные реформы"
  },
  {
    "title": "Год , 16 (27) мая** - **основание",
    "date": "1703 год",
    "description": "* ** 1703 год , 16 (27) мая** - **Основание Санкт-Петербурга** - Заячий остров, Нева",
    "location": {
      "name": "Заячий остров, Нева",
      "lat": 52.95041613664531,
      "lng": 36.76745330074385
    },
    "category": "Научные достижения"
  },
  {
    "title": "Год , 29 июня** - **освящение петропавловского",
    "date": "1703 год",
    "description": "* ** 1703 год , 29 июня** - **Освящение Петропавловского собора** - Петропавловская крепость, Санкт-Петербург",
    "location": {
      "name": "Петропавловская крепость, Санкт-Петербург",
      "lat": 59.94,
      "lng": 30.31
    },
    "category": "Культура и религия"
  },
  {
    "title": "Начало строительства адмиралтейской верфи",
    "date": "1703 год",
    "description": "* ** 1703 год , осень** - **Начало строительства Адмиралтейской верфи** - Берег Невы, Санкт-Петербург",
    "location": {
      "name": "Санкт-Петербург",
      "lat": 59.94,
      "lng": 30.31
    },
    "category": "Дипломатические события"
  },
  {
    "title": "Год , май** - **основание кронштадта** -",
    "date": "1704 год",
    "description": "* ** 1704 год , май** - **Основание Кронштадта** - Остров Котлин, Финский залив",
    "location": {
      "name": "Остров Котлин",
      "lat": 54.60054935360738,
      "lng": 36.22471850784323
    },
    "category": "Войны и сражения"
  },
  {
    "title": "Год , июнь** - **перенос столицы в",
    "date": "1704 год",
    "description": "* ** 1704 год , июнь** - **Перенос столицы в Санкт-Петербург (фактически)** - Санкт-Петербург",
    "location": {
      "name": "Санкт-Петербург",
      "lat": 59.94,
      "lng": 30.31
    },
    "category": "Революции и перевороты"
  },
  {
    "title": "Год ** - **начало строительства летнего дворца",
    "date": "1706 год",
    "description": "* ** 1706 год ** - **Начало строительства Летнего дворца Петра I** - Летний сад, Санкт-Петербург",
    "location": {
      "name": "Летний сад, Санкт-Петербург",
      "lat": 59.94,
      "lng": 30.31
    },
    "category": "Территориальные приобретения"
  },
  {
    "title": "Год ** - **основание александро-невской лавры** -",
    "date": "1710 год",
    "description": "* ** 1710 год ** - **Основание Александро-Невской лавры** - Берег реки Монастырки, Санкт-Петербург",
    "location": {
      "name": "Берег реки Монастырки, Санкт-Петербург",
      "lat": 59.94,
      "lng": 30.31
    },
    "category": "Культура и религия"
  },
  {
    "title": "Год ** - **официальный перенос столицы из",
    "date": "1712 год",
    "description": "* ** 1712 год ** - **Официальный перенос столицы из Москвы в Санкт-Петербург** - Санкт-Петербург",
    "location": {
      "name": "Санкт-Петербург",
      "lat": 59.94,
      "lng": 30.31
    },
    "category": "Научные достижения"
  },
  {
    "title": "Год ** - **указ о запрете каменного",
    "date": "1714 год",
    "description": "* ** 1714 год ** - **Указ о запрете каменного строительства по всей России, кроме Санкт-Петербурга** - Санкт-Петербург, Россия",
    "location": {
      "name": "Санкт-Петербург",
      "lat": 59.94,
      "lng": 30.31
    },
    "category": "Изменения границ"
  },
  {
    "title": "Год ** - **основание морской академии** -",
    "date": "1715 год",
    "description": "* ** 1715 год ** - **Основание Морской академии** - Санкт-Петербург",
    "location": {
      "name": "Санкт-Петербург",
      "lat": 59.94,
      "lng": 30.31
    },
    "category": "Территориальные приобретения"
  },
  {
    "title": "Год ** - **начало строительства кунсткамеры** -",
    "date": "1718 год",
    "description": "* ** 1718 год ** - **Начало строительства Кунсткамеры** - Санкт-Петербург",
    "location": {
      "name": "Санкт-Петербург",
      "lat": 59.94,
      "lng": 30.31
    },
    "category": "Войны и сражения"
  },
  {
    "title": "Год ** - **открытие кунсткамеры для публики**",
    "date": "1719 год",
    "description": "* ** 1719 год ** - **Открытие Кунсткамеры для публики** - Санкт-Петербург",
    "location": {
      "name": "Санкт-Петербург",
      "lat": 59.94,
      "lng": 30.31
    },
    "category": "Научные достижения"
  },
  {
    "title": "Ништадтский мирный договор",
    "date": "1721 год",
    "description": "* ** 1721 год ** - **Ништадтский мирный договор** - Ништадт (Уусикаупунки)",
    "location": {
      "name": "Ништадт (Уусикаупунки)",
      "lat": 60.83412917560814,
      "lng": 40.168940598132664
    },
    "category": "Дипломатические события"
  },
  {
    "title": "Год ** - **перенос мощей александра невского",
    "date": "1723 год",
    "description": "* ** 1723 год ** - **Перенос мощей Александра Невского в Александро-Невскую лавру** - Санкт-Петербург",
    "location": {
      "name": "Санкт-Петербург",
      "lat": 59.94,
      "lng": 30.31
    },
    "category": "Культура и религия"
  },
  {
    "title": "Год ** - **основание академии наук** -",
    "date": "1724 год",
    "description": "* ** 1724 год ** - **Основание Академии наук** - Санкт-Петербург",
    "location": {
      "name": "Санкт-Петербург",
      "lat": 59.94,
      "lng": 30.31
    },
    "category": "Научные достижения"
  },
  {
    "title": "Год , 28 января (8 февраля)** -",
    "date": "1725 год",
    "description": "* ** 1725 год , 28 января (8 февраля)** - **Смерть Петра I** - Санкт-Петербург",
    "location": {
      "name": "Санкт-Петербург",
      "lat": 59.94,
      "lng": 30.31
    },
    "category": "Научные достижения"
  },
  {
    "title": "Год ** - **основание академии художеств** -",
    "date": "1725 год",
    "description": "* ** 1725 год ** - **Основание Академии художеств** - Санкт-Петербург",
    "location": {
      "name": "Санкт-Петербург",
      "lat": 59.94,
      "lng": 30.31
    },
    "category": "Основание городов"
  },
  {
    "title": "Год ** - **большой санкт-петербургский пожар** -",
    "date": "1737 год",
    "description": "* ** 1737 год ** - **Большой Санкт-Петербургский пожар** - Санкт-Петербург",
    "location": {
      "name": "Санкт-Петербург",
      "lat": 59.94,
      "lng": 30.31
    },
    "category": "Экономические события"
  },
  {
    "title": "Годы** - **правление екатерины ii** - санкт-петербург",
    "date": "1762-1796",
    "description": "* ** 1762-1796 годы** - **Правление Екатерины II** - Санкт-Петербург",
    "location": {
      "name": "Санкт-Петербург",
      "lat": 59.94,
      "lng": 30.31
    },
    "category": "Основание городов"
  },
  {
    "title": "Год ** - **открытие памятника петру i",
    "date": "1782 год",
    "description": "* ** 1782 год ** - **Открытие памятника Петру I (\"Медный всадник\")** - Сенатская площадь, Санкт-Петербург",
    "location": {
      "name": "Сенатская площадь, Санкт-Петербург",
      "lat": 59.94,
      "lng": 30.31
    },
    "category": "Научные достижения"
  },
  {
    "title": "Год ** - **указ павла i о",
    "date": "1796 год",
    "description": "* ** 1796 год ** - **Указ Павла I о возвращении столицы в Москву (не реализован)** - Санкт-Петербург",
    "location": {
      "name": "Санкт-Петербург",
      "lat": 59.94,
      "lng": 30.31
    },
    "category": "Социальные реформы"
  },
  {
    "title": "Год ** - **завершение строительства михайловского замка**",
    "date": "1800 год",
    "description": "* ** 1800 год ** - **Завершение строительства Михайловского замка** - Санкт-Петербург",
    "location": {
      "name": "Санкт-Петербург",
      "lat": 59.94,
      "lng": 30.31
    },
    "category": "Экономические события"
  },
  {
    "title": "Год ** - **убийство павла i в",
    "date": "1801 год",
    "description": "* ** 1801 год ** - **Убийство Павла I в Михайловском замке** - Михайловский замок, Санкт-Петербург",
    "location": {
      "name": "Михайловский замок, Санкт-Петербург",
      "lat": 59.94,
      "lng": 30.31
    },
    "category": "Основание городов"
  },
  {
    "title": "Год ** - **переименование санкт-петербурга в петроград**",
    "date": "1914 год",
    "description": "* ** 1914 год ** - **Переименование Санкт-Петербурга в Петроград** - Санкт-Петербург",
    "location": {
      "name": "Санкт-Петербург",
      "lat": 59.94,
      "lng": 30.31
    },
    "category": "Экономические события"
  },
  {
    "title": "Год ** - **перенос столицы из петрограда",
    "date": "1918 год",
    "description": "* ** 1918 год ** - **Перенос столицы из Петрограда в Москву** - Москва",
    "location": {
      "name": "Москва",
      "lat": 55.75,
      "lng": 37.62
    },
    "category": "Экономические события"
  },
  {
    "title": "Год ** - **переименование петрограда в ленинград**",
    "date": "1924 год",
    "description": "* ** 1924 год ** - **Переименование Петрограда в Ленинград** - Ленинград",
    "location": {
      "name": "Ленинград",
      "lat": 59.94,
      "lng": 30.31
    },
    "category": "Территориальные приобретения"
  },
  {
    "title": "Год ** - **возвращение городу исторического названия",
    "date": "1991 год",
    "description": "* ** 1991 год ** - **Возвращение городу исторического названия Санкт-Петербург** - Санкт-Петербург",
    "location": {
      "name": "Санкт-Петербург",
      "lat": 59.94,
      "lng": 30.31
    },
    "category": "Культура и религия"
  },
  {
    "title": "Мая - освящение места под петропавловский собор",
    "date": "1703",
    "description": "1703 , 27 мая - Освящение места под Петропавловский собор - Заячий остров",
    "location": {
      "name": "Заячий остров",
      "lat": 47.22421924467257,
      "lng": 32.929124538015046
    },
    "category": "Культура и религия"
  },
  {
    "title": "Лето - начало строительства государевой дороги -",
    "date": "1703",
    "description": "1703 , лето - Начало строительства Государевой дороги - от Петропавловской крепости в сторону будущего Петергофа",
    "location": {
      "name": "Петропавловская крепость",
      "lat": 48.57148645812894,
      "lng": 50.59218150192075
    },
    "category": "Войны и сражения"
  },
  {
    "title": "Осень - первая зимовка строителей санкт-петербурга -",
    "date": "1703",
    "description": "1703 , осень - Первая зимовка строителей Санкт-Петербурга - Заячий остров и окрестности",
    "location": {
      "name": "Заячий остров",
      "lat": 64.74427893703819,
      "lng": 43.780328524093775
    },
    "category": "Восстания и бунты"
  },
  {
    "title": "Март - основание адмиралтейской верфи - левый берег невы",
    "date": "1704",
    "description": "1704 , март - Основание Адмиралтейской верфи - Левый берег Невы, напротив Петропавловской крепости",
    "location": {
      "name": "Санкт-Петербург",
      "lat": 59.94,
      "lng": 30.31
    },
    "category": "Дипломатические события"
  },
  {
    "title": "Лето - первые иностранные корабли в санкт-петербурге",
    "date": "1704",
    "description": "1704 , лето - Первые иностранные корабли в Санкт-Петербурге - Нева",
    "location": {
      "name": "Санкт-Петербург",
      "lat": 59.94,
      "lng": 30.31
    },
    "category": "Военные кампании"
  },
  {
    "title": "Февраль - основание кунсткамеры - санкт-петербург",
    "date": "1705",
    "description": "1705 , февраль - Основание Кунсткамеры - Санкт-Петербург",
    "location": {
      "name": "Санкт-Петербург",
      "lat": 59.94,
      "lng": 30.31
    },
    "category": "Научные достижения"
  },
  {
    "title": "Весна - начало строительства летнего сада и",
    "date": "1706",
    "description": "1706 , весна - Начало строительства Летнего сада и Летнего дворца Петра I - Левый берег Невы",
    "location": {
      "name": "Левый берег Невы",
      "lat": 59.61746430129873,
      "lng": 27.349795715944623
    },
    "category": "Научные достижения"
  },
  {
    "title": "Перенос столицы из москвы в санкт-петербург (фактический",
    "date": "1707",
    "description": "1707 - Перенос столицы из Москвы в Санкт-Петербург (фактический) - Санкт-Петербург",
    "location": {
      "name": "Санкт-Петербург",
      "lat": 59.94,
      "lng": 30.31
    },
    "category": "Дипломатические события"
  },
  {
    "title": "Первая большая эпидемия в санкт-петербурге - санкт-петербург",
    "date": "1708",
    "description": "1708 - Первая большая эпидемия в Санкт-Петербурге - Санкт-Петербург",
    "location": {
      "name": "Санкт-Петербург",
      "lat": 59.94,
      "lng": 30.31
    },
    "category": "Территориальные приобретения"
  },
  {
    "title": "1709 - открытие первой типографии в санкт-петербурге - санкт-петербург",
    "date": "1709",
    "description": "1709 - Открытие первой типографии в Санкт-Петербурге - Санкт-Петербург",
    "location": {
      "name": "Санкт-Петербург",
      "lat": 59.94,
      "lng": 30.31
    },
    "category": "Научные достижения"
  },
  {
    "title": "Перенос мощей андрея первозванного в санкт-петербург -",
    "date": "1710",
    "description": "1710 - Перенос мощей Андрея Первозванного в Санкт-Петербург - Петропавловский собор",
    "location": {
      "name": "Санкт-Петербург",
      "lat": 59.94,
      "lng": 30.31
    },
    "category": "Культура и религия"
  },
  {
    "title": "Февраль - свадьба петра i и екатерины",
    "date": "1712",
    "description": "1712 , февраль - Свадьба Петра I и Екатерины Алексеевны - Санкт-Петербург",
    "location": {
      "name": "Санкт-Петербург",
      "lat": 59.94,
      "lng": 30.31
    },
    "category": "Становление государства"
  },
  {
    "title": "1714 - указ о запрете каменного строительства по всей россии",
    "date": "1714",
    "description": "1714 - Указ о запрете каменного строительства по всей России, кроме Санкт-Петербурга - Российская империя",
    "location": {
      "name": "Санкт-Петербург",
      "lat": 59.94,
      "lng": 30.31
    },
    "category": "Социальные реформы"
  },
  {
    "title": "1715 - основание морской академии - санкт-петербург",
    "date": "1715",
    "description": "1715 - Основание Морской академии - Санкт-Петербург",
    "location": {
      "name": "Санкт-Петербург",
      "lat": 59.94,
      "lng": 30.31
    },
    "category": "Социальные реформы"
  },
  {
    "title": "Перенос коллегий (министерств) из москвы в санкт-петербург",
    "date": "1718",
    "description": "1718 - Перенос коллегий (министерств) из Москвы в Санкт-Петербург - Санкт-Петербург",
    "location": {
      "name": "Санкт-Петербург",
      "lat": 59.94,
      "lng": 30.31
    },
    "category": "Военные кампании"
  },
  {
    "title": "1719 - открытие первых ассамблей - санкт-петербург",
    "date": "1719",
    "description": "1719 - Открытие первых Ассамблей - Санкт-Петербург",
    "location": {
      "name": "Санкт-Петербург",
      "lat": 59.94,
      "lng": 30.31
    },
    "category": "Научные достижения"
  },
  {
    "title": "1721 - заключение ништадтского мира - ништадт",
    "date": "1721",
    "description": "1721 - Заключение Ништадтского мира - Ништадт (Уусикаупунки, Финляндия)",
    "location": {
      "name": "Уусикаупунки",
      "lat": 45.693169580268545,
      "lng": 27.87169486063405
    },
    "category": "Дипломатические события"
  },
  {
    "title": "Перенесение мощей александра невского в санкт-петербург -",
    "date": "1723",
    "description": "1723 - Перенесение мощей Александра Невского в Санкт-Петербург - Александро-Невская лавра",
    "location": {
      "name": "Санкт-Петербург",
      "lat": 59.94,
      "lng": 30.31
    },
    "category": "Основание городов"
  },
  {
    "title": "1724 - основание академии наук - санкт-петербург",
    "date": "1724",
    "description": "1724 - Основание Академии наук - Санкт-Петербург",
    "location": {
      "name": "Санкт-Петербург",
      "lat": 59.94,
      "lng": 30.31
    },
    "category": "Научные достижения"
  },
  {
    "title": "28 января - смерть петра i - зимний дворец",
    "date": "1725",
    "description": "1725 , 28 января - Смерть Петра I - Зимний дворец, Санкт-Петербург",
    "location": {
      "name": "Санкт-Петербург",
      "lat": 59.94,
      "lng": 30.31
    },
    "category": "Научные достижения"
  }
]