[
  {
    "title": "Год ** - аккерманская конвенция - аккерман",
    "date": "1826 год",
    "description": "* ** 1826 год ** - Аккерманская конвенция - Аккерман (совр",
    "location": {
      "name": "Аккерман",
      "lat": 55.95130711286127,
      "lng": 35.718128812131475
    },
    "category": "Политические реформы"
  },
  {
    "title": "Год ** - лондонская конвенция - лондон",
    "date": "1827 год",
    "description": "* ** 1827 год ** - Лондонская конвенция - Лондон, Великобритания",
    "location": {
      "name": "Лондон",
      "lat": 51.51,
      "lng": -0.13
    },
    "category": "Изменения границ"
  },
  {
    "title": "- наваринское сражение - наваринская бухта",
    "date": "1827",
    "description": "* **20 октября 1827 года** - Наваринское сражение - Наваринская бухта, Греция",
    "location": {
      "name": "Наваринская бухта",
      "lat": 49.0792089142086,
      "lng": 33.30822344020516
    },
    "category": "Войны и сражения"
  },
  {
    "title": "- русско-турецкая война - балканы",
    "date": "1828-1829",
    "description": "* ** 1828-1829 годы** - Русско-турецкая война - Балканы, Кавказ",
    "location": {
      "name": "Балканы",
      "lat": 52.205800309870966,
      "lng": 50.53889977191966
    },
    "category": "Войны и сражения"
  },
  {
    "title": "- адрианопольский мирный договор - адрианополь",
    "date": "1829",
    "description": "* **14 сентября 1829 года** - Адрианопольский мирный договор - Адрианополь (совр",
    "location": {
      "name": "Адрианополь",
      "lat": 64.42618862134813,
      "lng": 40.854969558261736
    },
    "category": "Дипломатические события"
  },
  {
    "title": "Год ** - признание независимости греции -",
    "date": "1830 год",
    "description": "* ** 1830 год ** - Признание независимости Греции - Лондон, Великобритания",
    "location": {
      "name": "Лондон",
      "lat": 51.51,
      "lng": -0.13
    },
    "category": "Становление государства"
  },
  {
    "title": "- ункяр-искелесийский договор - ункяр-искелеси",
    "date": "1833 год",
    "description": "* ** 1833 год ** - Ункяр-Искелесийский договор - Ункяр-Искелеси (пригород Стамбула, Турция)",
    "location": {
      "name": "Ункяр-Искелеси",
      "lat": 58.581837127649194,
      "lng": 29.918551299792703
    },
    "category": "Дипломатические события"
  },
  {
    "title": "Год ** - помощь россии османской империи",
    "date": "1833 год",
    "description": "* ** 1833 год ** - Помощь России Османской империи в подавлении восстания Мухаммеда Али - Османская империя, Египет",
    "location": {
      "name": "Османская империя, Египет",
      "lat": 47.6699995096924,
      "lng": 41.43624471449543
    },
    "category": "Революции и перевороты"
  },
  {
    "title": "Годы** - второй кризис мухаммеда али -",
    "date": "1839-1841",
    "description": "* ** 1839-1841 годы** - Второй кризис Мухаммеда Али - Османская империя, Египет, Сирия",
    "location": {
      "name": "Османская империя, Египет, Сирия",
      "lat": 55.647380759864866,
      "lng": 50.405076359295784
    },
    "category": "Экономические события"
  },
  {
    "title": "Год ** - лондонская конвенция о проливах",
    "date": "1841 год",
    "description": "* ** 1841 год ** - Лондонская конвенция о проливах - Лондон, Великобритания",
    "location": {
      "name": "Лондон",
      "lat": 51.51,
      "lng": -0.13
    },
    "category": "Политические реформы"
  },
  {
    "title": "Год ** - визит николая i в",
    "date": "1844 год",
    "description": "* ** 1844 год ** - Визит Николая I в Великобританию - Лондон, Великобритания",
    "location": {
      "name": "Лондон",
      "lat": 51.51,
      "lng": -0.13
    },
    "category": "Дипломатические события"
  },
  {
    "title": "Годы** - подавление революции в валахии и",
    "date": "1848-1849",
    "description": "* ** 1848-1849 годы** - Подавление революции в Валахии и Молдавии - Валахия, Молдавия",
    "location": {
      "name": "Валахия, Молдавия",
      "lat": 47.01,
      "lng": 28.86
    },
    "category": "Революции и перевороты"
  },
  {
    "title": "Год ** - помощь австрии в подавлении",
    "date": "1849 год",
    "description": "* ** 1849 год ** - Помощь Австрии в подавлении Венгерской революции - Венгрия",
    "location": {
      "name": "Венгрия",
      "lat": 56.428006909188866,
      "lng": 46.83963696889121
    },
    "category": "Революции и перевороты"
  },
  {
    "title": "Год ** - конфликт из-за святых мест",
    "date": "1850 год",
    "description": "* ** 1850 год ** - Конфликт из-за Святых мест в Палестине - Палестина, Иерусалим",
    "location": {
      "name": "Палестина, Иерусалим",
      "lat": 49.72755639423979,
      "lng": 29.769125323462383
    },
    "category": "Культура и религия"
  },
  {
    "title": "Год ** - миссия князя меншикова в",
    "date": "1853 год",
    "description": "* ** 1853 год ** - Миссия князя Меншикова в Константинополь - Константинополь (Стамбул, Турция)",
    "location": {
      "name": "Константинополь",
      "lat": 41.01,
      "lng": 28.97
    },
    "category": "Революции и перевороты"
  },
  {
    "title": "Июнь 1853 года** - ввод русских войск",
    "date": "1853",
    "description": "* **Июнь 1853 года** - Ввод русских войск в Молдавию и Валахию - Молдавия, Валахия",
    "location": {
      "name": "Молдавия, Валахия",
      "lat": 47.01,
      "lng": 28.86
    },
    "category": "Территориальные приобретения"
  },
  {
    "title": "Октября 1853 года** - объявление османской империей",
    "date": "1853",
    "description": "* **4 октября 1853 года** - Объявление Османской империей войны России - Константинополь (Стамбул, Турция)",
    "location": {
      "name": "Константинополь",
      "lat": 41.01,
      "lng": 28.97
    },
    "category": "Научные достижения"
  },
  {
    "title": "Октября 1853 год а** - объявление османской",
    "date": "4 октября 1853 год",
    "description": "* ** 4 октября 1853 год а** - Объявление Османской империей войны России - Константинополь (Стамбул, Турция)",
    "location": {
      "name": "Константинополь",
      "lat": 41.01,
      "lng": 28.97
    },
    "category": "Научные достижения"
  },
  {
    "title": "- синопское сражение - синопская бухта",
    "date": "1853",
    "description": "* **18 ноября 1853 года** - Синопское сражение - Синопская бухта, Турция",
    "location": {
      "name": "Синопская бухта",
      "lat": 55.38845745508918,
      "lng": 27.846988792672537
    },
    "category": "Войны и сражения"
  },
  {
    "title": "Год ** - вступление в войну англии",
    "date": "1854 год",
    "description": "* ** 1854 год ** - Вступление в войну Англии и Франции на стороне Османской империи - Черное море, Крым",
    "location": {
      "name": "Крым",
      "lat": 45.3,
      "lng": 34.2
    },
    "category": "Социальные реформы"
  },
  {
    "title": "Годы** - осада севастополя - севастополь, крым",
    "date": "1854-1855",
    "description": "* ** 1854-1855 годы** - Осада Севастополя - Севастополь, Крым",
    "location": {
      "name": "Севастополь, Крым",
      "lat": 44.62,
      "lng": 33.53
    },
    "category": "Войны и сражения"
  },
  {
    "title": "- смерть николая i - санкт-петербург",
    "date": "1855 год",
    "description": "* ** 1855 год ** - Смерть Николая I - Санкт-Петербург, Россия",
    "location": {
      "name": "Санкт-Петербург",
      "lat": 59.94,
      "lng": 30.31
    },
    "category": "Военные кампании"
  },
  {
    "title": "Сентября 1855 года** - падение севастополя -",
    "date": "1855",
    "description": "* **8 сентября 1855 года** - Падение Севастополя - Севастополь, Крым",
    "location": {
      "name": "Севастополь, Крым",
      "lat": 44.62,
      "lng": 33.53
    },
    "category": "Восстания и бунты"
  },
  {
    "title": "Сентября 1855 год а** - падение севастополя",
    "date": "8 сентября 1855 год",
    "description": "* ** 8 сентября 1855 год а** - Падение Севастополя - Севастополь, Крым",
    "location": {
      "name": "Севастополь",
      "lat": 44.62,
      "lng": 33.53
    },
    "category": "Социальные реформы"
  },
  {
    "title": "- парижский мирный договор - париж",
    "date": "1856 год",
    "description": "* ** 1856 год ** - Парижский мирный договор - Париж, Франция",
    "location": {
      "name": "Париж",
      "lat": 48.86,
      "lng": 2.35
    },
    "category": "Дипломатические события"
  },
  {
    "title": "Он охватывает период с 1826 по 1856",
    "date": "1826",
    "description": "Он охватывает период с 1826 по 1856 год и отражает основные этапы развития этого сложного и многогранного вопроса",
    "location": {
      "name": "Санкт-Петербург",
      "lat": 59.94,
      "lng": 30.31
    },
    "category": "Становление государства"
  },
  {
    "title": "Адрианопольский мирный договор",
    "date": "1829",
    "description": "* ** 1829 ** - **Адрианопольский мирный договор** - **Адрианополь (Эдирне), Османская империя**",
    "location": {
      "name": "Адрианополь (Эдирне)",
      "lat": 45.59100836939735,
      "lng": 30.394693873248148
    },
    "category": "Дипломатические события"
  },
  {
    "title": "Завершение русско-турецкой войны 1828-1829 гг",
    "date": "1828-1829 гг",
    "description": "* Завершение Русско-турецкой войны 1828-1829 гг",
    "location": {
      "name": "Адрианополь",
      "lat": 62.97056653031075,
      "lng": 43.14437309770246
    },
    "category": "Социальные реформы"
  },
  {
    "title": "Основание русского поселения в босфоре** - **босфор",
    "date": "1830",
    "description": "* ** 1830 ** - **Основание русского поселения в Босфоре** - **Босфор, Османская империя**",
    "location": {
      "name": "Босфор",
      "lat": 64.51277324873014,
      "lng": 40.06033492443101
    },
    "category": "Дипломатические события"
  },
  {
    "title": "Первое правление каподистрии в греции** - **греция**",
    "date": "1831-1833",
    "description": "* ** 1831-1833 ** - **Первое правление Каподистрии в Греции** - **Греция**",
    "location": {
      "name": "Греция",
      "lat": 58.260394607721324,
      "lng": 28.87220788695316
    },
    "category": "Социальные реформы"
  },
  {
    "title": "Прибытие русской эскадры в смирну",
    "date": "1832",
    "description": "* ** 1832 ** - **Прибытие русской эскадры в Смирну** - **Смирна (Измир), Османская империя**",
    "location": {
      "name": "Смирна (Измир)",
      "lat": 52.64752950204642,
      "lng": 31.54776387632908
    },
    "category": "Дипломатические события"
  },
  {
    "title": "Ункяр-искелесийский договор** - **ункяр-искелеси (хюнкяр искелеси), османская",
    "date": "1833",
    "description": "* ** 1833 ** - **Ункяр-Искелесийский договор** - **Ункяр-Искелеси (Хюнкяр Искелеси), Османская империя**",
    "location": {
      "name": "Ункяр-Искелеси",
      "lat": 46.191232131680266,
      "lng": 41.25466443050668
    },
    "category": "Дипломатические события"
  },
  {
    "title": "Санкт-петербургская конвенция** - **санкт-петербург, российская империя**",
    "date": "1833",
    "description": "* ** 1833 ** - **Санкт-Петербургская конвенция** - **Санкт-Петербург, Российская империя**",
    "location": {
      "name": "Санкт-Петербург",
      "lat": 59.94,
      "lng": 30.31
    },
    "category": "Войны и сражения"
  },
  {
    "title": "Визит николая i в вену и теплице**",
    "date": "1834",
    "description": "* ** 1834 ** - **Визит Николая I в Вену и Теплице** - **Вена, Австрийская империя; Теплице (Теплице-Трновани), Богемия**",
    "location": {
      "name": "Вена, Австрийская империя; Теплице (Теплице-Трновани), Богемия",
      "lat": 48.21,
      "lng": 16.37
    },
    "category": "Дипломатические события"
  },
  {
    "title": "Восточный кризис (первая турецко-египетская война)** - **османская",
    "date": "1839-1841",
    "description": "* ** 1839-1841 ** - **Восточный кризис (Первая турецко-египетская война)** - **Османская империя, Египет, Сирия**",
    "location": {
      "name": "Сирия",
      "lat": 46.83744250961204,
      "lng": 49.16156412464362
    },
    "category": "Войны и сражения"
  },
  {
    "title": "Лондонская конвенция** - **лондон, великобритания**",
    "date": "1840",
    "description": "* ** 1840 ** - **Лондонская конвенция** - **Лондон, Великобритания**",
    "location": {
      "name": "Лондон, Великобритания",
      "lat": 51.51,
      "lng": -0.13
    },
    "category": "Культура и религия"
  },
  {
    "title": "Визит николая i в великобританию** - **лондон",
    "date": "1844",
    "description": "* ** 1844 ** - **Визит Николая I в Великобританию** - **Лондон, Великобритания**",
    "location": {
      "name": "Лондон",
      "lat": 51.51,
      "lng": -0.13
    },
    "category": "Дипломатические события"
  },
  {
    "title": "Учреждение русского археологического института в константинополе** -",
    "date": "1847",
    "description": "* ** 1847 ** - **Учреждение Русского Археологического Института в Константинополе** - **Константинополь, Османская империя**",
    "location": {
      "name": "Константинополь",
      "lat": 41.01,
      "lng": 28.97
    },
    "category": "Становление государства"
  },
  {
    "title": "Венгерская революция** - **венгрия, австрийская империя**",
    "date": "1848-1849",
    "description": "* ** 1848-1849 ** - **Венгерская революция** - **Венгрия, Австрийская империя**",
    "location": {
      "name": "Венгрия",
      "lat": 61.75344079276824,
      "lng": 48.88718202395376
    },
    "category": "Революции и перевороты"
  },
  {
    "title": "Бегство лайоша кошута в османскую империю** -",
    "date": "1849",
    "description": "* ** 1849 ** - **Бегство Лайоша Кошута в Османскую империю** - **Османская империя**",
    "location": {
      "name": "Османская империя",
      "lat": 63.32182225103193,
      "lng": 39.81984638646229
    },
    "category": "Научные достижения"
  },
  {
    "title": "Конфликт из-за святых мест в палестине** -",
    "date": "1850",
    "description": "* ** 1850 ** - **Конфликт из-за Святых мест в Палестине** - **Палестина, Османская империя**",
    "location": {
      "name": "Палестина",
      "lat": 47.354474973193405,
      "lng": 42.41853332786632
    },
    "category": "Научные достижения"
  },
  {
    "title": "Миссия князя меншикова в константинополь** - **константинополь",
    "date": "1853",
    "description": "* ** 1853 ** - **Миссия князя Меншикова в Константинополь** - **Константинополь, Османская империя**",
    "location": {
      "name": "Константинополь",
      "lat": 41.01,
      "lng": 28.97
    },
    "category": "Основание городов"
  },
  {
    "title": "Оккупация молдавии и валахии русскими войсками** -",
    "date": "1853",
    "description": "* ** 1853 ** - **Оккупация Молдавии и Валахии русскими войсками** - **Молдавия и Валахия (современная Румыния)**",
    "location": {
      "name": "Молдавия и Валахия",
      "lat": 47.01,
      "lng": 28.86
    },
    "category": "Изменения границ"
  },
  {
    "title": "Синопское сражение** - **синоп, османская империя**",
    "date": "1853",
    "description": "* ** 1853 ** - **Синопское сражение** - **Синоп, Османская империя**",
    "location": {
      "name": "Синоп",
      "lat": 58.85534154963639,
      "lng": 51.82883486463591
    },
    "category": "Войны и сражения"
  },
  {
    "title": "Вступление в крымскую войну великобритании и франции**",
    "date": "1854",
    "description": "* ** 1854 ** - **Вступление в Крымскую войну Великобритании и Франции** - **Крым, Российская империя**",
    "location": {
      "name": "Крым",
      "lat": 45.3,
      "lng": 34.2
    },
    "category": "Становление государства"
  },
  {
    "title": "Смерть николая i** - **санкт-петербург, российская империя**",
    "date": "1855",
    "description": "* ** 1855 ** - **Смерть Николая I** - **Санкт-Петербург, Российская империя**",
    "location": {
      "name": "Санкт-Петербург",
      "lat": 59.94,
      "lng": 30.31
    },
    "category": "Дипломатические события"
  }
]