[
  {
    "title": "Год ** - **смерть ивана iv грозного**",
    "date": "1584 год",
    "description": "* ** 1584 год ** - **Смерть Ивана IV Грозного** - Москва",
    "location": {
      "name": "Москва",
      "lat": 55.75,
      "lng": 37.62
    },
    "category": "Территориальные приобретения"
  },
  {
    "title": "Год , 15 мая** - **гибель царевича",
    "date": "1591 год",
    "description": "* ** 1591 год , 15 мая** - **Гибель царевича Дмитрия** - Углич",
    "location": {
      "name": "Углич",
      "lat": 60.0156378026216,
      "lng": 43.446655835473024
    },
    "category": "Экономические события"
  },
  {
    "title": "Год , 24 ноября** - **указ об",
    "date": "1597 год",
    "description": "* ** 1597 год , 24 ноября** - **Указ об \"урочных летах\"** - Москва",
    "location": {
      "name": "Москва",
      "lat": 55.75,
      "lng": 37.62
    },
    "category": "Войны и сражения"
  },
  {
    "title": "Год , 7 января** - **смерть царя",
    "date": "1598 год",
    "description": "* ** 1598 год , 7 января** - **Смерть царя Федора Иоанновича** - Москва",
    "location": {
      "name": "Москва",
      "lat": 55.75,
      "lng": 37.62
    },
    "category": "Территориальные приобретения"
  },
  {
    "title": "Год , февраль** - **избрание бориса годунова",
    "date": "1598 год",
    "description": "* ** 1598 год , февраль** - **Избрание Бориса Годунова на царство** - Москва",
    "location": {
      "name": "Москва",
      "lat": 55.75,
      "lng": 37.62
    },
    "category": "Становление государства"
  },
  {
    "title": "Годы** - **великий голод** - россия",
    "date": "1601-1603",
    "description": "* ** 1601-1603 годы** - **Великий голод** - Россия",
    "location": {
      "name": "Центральная Россия",
      "lat": 55.75,
      "lng": 37.62
    },
    "category": "Дипломатические события"
  },
  {
    "title": "Год , осень** - **появление лжедмитрия i**",
    "date": "1603 год",
    "description": "* ** 1603 год , осень** - **Появление Лжедмитрия I** - Речь Посполитая",
    "location": {
      "name": "Речь Посполитая",
      "lat": 56.61399089107448,
      "lng": 27.266064193086464
    },
    "category": "Основание городов"
  },
  {
    "title": "Год , октябрь** - **вторжение лжедмитрия i",
    "date": "1604 год",
    "description": "* ** 1604 год , октябрь** - **Вторжение Лжедмитрия I в Россию** - Юго-западные земли России",
    "location": {
      "name": "Юго-западные земли России",
      "lat": 55.307760722745556,
      "lng": 38.14114837514792
    },
    "category": "Экономические события"
  },
  {
    "title": "Год , 13 апреля** - **смерть бориса",
    "date": "1605 год",
    "description": "* ** 1605 год , 13 апреля** - **Смерть Бориса Годунова** - Москва",
    "location": {
      "name": "Москва",
      "lat": 55.75,
      "lng": 37.62
    },
    "category": "Экономические события"
  },
  {
    "title": "Год , июнь** - **вступление лжедмитрия i",
    "date": "1605 год",
    "description": "* ** 1605 год , июнь** - **Вступление Лжедмитрия I в Москву** - Москва",
    "location": {
      "name": "Москва",
      "lat": 55.75,
      "lng": 37.62
    },
    "category": "Изменения границ"
  },
  {
    "title": "Год , 17 мая** - **убийство лжедмитрия",
    "date": "1606 год",
    "description": "* ** 1606 год , 17 мая** - **Убийство Лжедмитрия I** - Москва",
    "location": {
      "name": "Москва",
      "lat": 55.75,
      "lng": 37.62
    },
    "category": "Территориальные приобретения"
  },
  {
    "title": "Год , 19 мая** - **избрание василия",
    "date": "1606 год",
    "description": "* ** 1606 год , 19 мая** - **Избрание Василия Шуйского царем** - Москва",
    "location": {
      "name": "Москва",
      "lat": 55.75,
      "lng": 37.62
    },
    "category": "Военные кампании"
  },
  {
    "title": "Годы** - **восстание ивана болотникова** - юг",
    "date": "1606-1607",
    "description": "* ** 1606-1607 годы** - **Восстание Ивана Болотникова** - Юг России, Москва",
    "location": {
      "name": "Юг России",
      "lat": 59.483502537165656,
      "lng": 27.78973395705736
    },
    "category": "Революции и перевороты"
  },
  {
    "title": "Год , осень** - **появление лжедмитрия ii**",
    "date": "1607 год",
    "description": "* ** 1607 год , осень** - **Появление Лжедмитрия II** - Стародуб",
    "location": {
      "name": "Стародуб",
      "lat": 55.1548028306772,
      "lng": 27.77796361479202
    },
    "category": "Культура и религия"
  },
  {
    "title": "Год ** - **осада троице-сергиева монастыря** -",
    "date": "1608 год",
    "description": "* ** 1608 год ** - **Осада Троице-Сергиева монастыря** - Троице-Сергиев монастырь",
    "location": {
      "name": "Троице-Сергиев монастырь",
      "lat": 52.606562682570264,
      "lng": 29.35782362316137
    },
    "category": "Войны и сражения"
  },
  {
    "title": "Год , февраль** - **выборгский трактат** -",
    "date": "1609 год",
    "description": "* ** 1609 год , февраль** - **Выборгский трактат** - Выборг",
    "location": {
      "name": "Выборг",
      "lat": 52.73740943124552,
      "lng": 41.53850773532846
    },
    "category": "Военные кампании"
  },
  {
    "title": "Год , сентябрь** - **открытая польская интервенция**",
    "date": "1609 год",
    "description": "* ** 1609 год , сентябрь** - **Открытая польская интервенция** - Россия",
    "location": {
      "name": "Смоленск",
      "lat": 54.78,
      "lng": 32.05
    },
    "category": "Научные достижения"
  },
  {
    "title": "Год , 24 июня** - **битва при",
    "date": "1610 год",
    "description": "* ** 1610 год , 24 июня** - **Битва при Клушине** - Клушино",
    "location": {
      "name": "Клушино",
      "lat": 63.44776183219729,
      "lng": 38.875951844128856
    },
    "category": "Войны и сражения"
  },
  {
    "title": "Год , июль** - **свержение василия шуйского**",
    "date": "1610 год",
    "description": "* ** 1610 год , июль** - **Свержение Василия Шуйского** - Москва",
    "location": {
      "name": "Москва",
      "lat": 55.75,
      "lng": 37.62
    },
    "category": "Революции и перевороты"
  },
  {
    "title": "Годы** - **семибоярщина** - москва",
    "date": "1610-1612",
    "description": "* ** 1610-1612 годы** - **Семибоярщина** - Москва",
    "location": {
      "name": "Москва",
      "lat": 55.75,
      "lng": 37.62
    },
    "category": "Изменения границ"
  },
  {
    "title": "Год , март** - **первое народное ополчение**",
    "date": "1611 год",
    "description": "* ** 1611 год , март** - **Первое народное ополчение** - Рязань",
    "location": {
      "name": "Рязань",
      "lat": 61.870696404969884,
      "lng": 31.424527195161453
    },
    "category": "Основание городов"
  },
  {
    "title": "Год , июнь** - **падение смоленска** -",
    "date": "1611 год",
    "description": "* ** 1611 год , июнь** - **Падение Смоленска** - Смоленск",
    "location": {
      "name": "Смоленск",
      "lat": 54.78,
      "lng": 32.05
    },
    "category": "Научные достижения"
  },
  {
    "title": "Год , июль** - **убийство прокопия ляпунова**",
    "date": "1611 год",
    "description": "* ** 1611 год , июль** - **Убийство Прокопия Ляпунова** - Под Москвой",
    "location": {
      "name": "Под Москвой",
      "lat": 49.7503992076807,
      "lng": 33.9587762738368
    },
    "category": "Культура и религия"
  },
  {
    "title": "Год , сентябрь** - **второе народное ополчение**",
    "date": "1611 год",
    "description": "* ** 1611 год , сентябрь** - **Второе народное ополчение** - Нижний Новгород",
    "location": {
      "name": "Нижний Новгород",
      "lat": 56.32,
      "lng": 44.0
    },
    "category": "Войны и сражения"
  },
  {
    "title": "Год , август** - **битва за москву**",
    "date": "1612 год",
    "description": "* ** 1612 год , август** - **Битва за Москву** - Москва",
    "location": {
      "name": "Москва",
      "lat": 55.75,
      "lng": 37.62
    },
    "category": "Войны и сражения"
  },
  {
    "title": "Год , октябрь** - **освобождение москвы** -",
    "date": "1612 год",
    "description": "* ** 1612 год , октябрь** - **Освобождение Москвы** - Москва",
    "location": {
      "name": "Москва",
      "lat": 55.75,
      "lng": 37.62
    },
    "category": "Военные кампании"
  },
  {
    "title": "Год , 21 февраля** - **избрание михаила",
    "date": "1613 год",
    "description": "* ** 1613 год , 21 февраля** - **Избрание Михаила Романова на царство** - Москва",
    "location": {
      "name": "Москва",
      "lat": 55.75,
      "lng": 37.62
    },
    "category": "Становление государства"
  },
  {
    "title": "Год , 27 февраля** - **столбовский мир**",
    "date": "1617 год",
    "description": "* ** 1617 год , 27 февраля** - **Столбовский мир** - Столбово",
    "location": {
      "name": "Столбово",
      "lat": 58.27476755159644,
      "lng": 44.78192424049639
    },
    "category": "Дипломатические события"
  },
  {
    "title": "Деулинское перемирие",
    "date": "1618 год",
    "description": "* ** 1618 год , 1 декабря** - **Деулинское перемирие** - Деулино",
    "location": {
      "name": "Деулино",
      "lat": 50.41269457677717,
      "lng": 33.48756548934904
    },
    "category": "Дипломатические события"
  },
  {
    "title": "Мая] - **убийство лжедмитрия i** - москва",
    "date": "1606",
    "description": "[ 1606 , 17 мая] - **Убийство Лжедмитрия I** - Москва, Кремль",
    "location": {
      "name": "Москва",
      "lat": 55.75,
      "lng": 37.62
    },
    "category": "Изменения границ"
  },
  {
    "title": "Мая] - **воцарение василия шуйского** - москва",
    "date": "1606",
    "description": "[ 1606 , 19 мая] - **Воцарение Василия Шуйского** - Москва, Красная площадь",
    "location": {
      "name": "Москва",
      "lat": 55.75,
      "lng": 37.62
    },
    "category": "Политические реформы"
  },
  {
    "title": "Восстание ивана болотникова** - юг и юго-запад",
    "date": "1606",
    "description": "[ 1606 - 1607] - **Восстание Ивана Болотникова** - Юг и юго-запад России",
    "location": {
      "name": "Юг и юго-запад России",
      "lat": 54.81108447989157,
      "lng": 32.36704589885465
    },
    "category": "Революции и перевороты"
  },
  {
    "title": "Декабря] - **битва под ельцом** - елец",
    "date": "1606",
    "description": "[ 1606 , 2 декабря] - **Битва под Ельцом** - Елец",
    "location": {
      "name": "Елец",
      "lat": 51.61290748706284,
      "lng": 31.99679773962869
    },
    "category": "Войны и сражения"
  },
  {
    "title": "Октября] - **взятие тулы войсками василия шуйского**",
    "date": "1607",
    "description": "[ 1607 , 10 октября] - **Взятие Тулы войсками Василия Шуйского** - Тула",
    "location": {
      "name": "Тула",
      "lat": 54.19,
      "lng": 37.62
    },
    "category": "Изменения границ"
  },
  {
    "title": "Появление лжедмитрия ii (\"тушинский вор\")** - стародуб",
    "date": "1607",
    "description": "[ 1607 - 1610] - **Появление Лжедмитрия II (\"Тушинский вор\")** - Стародуб, затем Тушинский лагерь",
    "location": {
      "name": "Стародуб",
      "lat": 47.66717731441088,
      "lng": 37.62665849790113
    },
    "category": "Территориальные приобретения"
  },
  {
    "title": "Апреля] - **битва под зарайском** - зарайск",
    "date": "1608",
    "description": "[ 1608 , 30 апреля] - **Битва под Зарайском** - Зарайск",
    "location": {
      "name": "Зарайск",
      "lat": 51.469168713922684,
      "lng": 49.50421789467978
    },
    "category": "Войны и сражения"
  },
  {
    "title": "Осада троице-сергиева монастыря** - троице-сергиев монастырь",
    "date": "1608",
    "description": "[ 1608 - 1610] - **Осада Троице-Сергиева монастыря** - Троице-Сергиев монастырь",
    "location": {
      "name": "Троице-Сергиев монастырь",
      "lat": 49.40883782125114,
      "lng": 40.972453733529505
    },
    "category": "Войны и сражения"
  },
  {
    "title": "Февраль] - **выборгский трактат** - выборг",
    "date": "1609",
    "description": "[ 1609 , февраль] - **Выборгский трактат** - Выборг",
    "location": {
      "name": "Выборг",
      "lat": 52.73727842433972,
      "lng": 40.24896965982863
    },
    "category": "Революции и перевороты"
  },
  {
    "title": "Сентябрь] - **начало польской интервенции** - россия",
    "date": "1609",
    "description": "[ 1609 , сентябрь] - **Начало польской интервенции** - Россия",
    "location": {
      "name": "Смоленск",
      "lat": 54.78,
      "lng": 32.05
    },
    "category": "Изменения границ"
  },
  {
    "title": "Октябрь] - **осада смоленска** - смоленск",
    "date": "1609",
    "description": "[ 1609 , октябрь] - **Осада Смоленска** - Смоленск",
    "location": {
      "name": "Смоленск",
      "lat": 54.78,
      "lng": 32.05
    },
    "category": "Войны и сражения"
  },
  {
    "title": "Июня] - **битва при клушине** - клушино",
    "date": "1610",
    "description": "[ 1610 , 24 июня] - **Битва при Клушине** - Клушино",
    "location": {
      "name": "Клушино",
      "lat": 59.19268962030252,
      "lng": 43.78927412924746
    },
    "category": "Войны и сражения"
  },
  {
    "title": "Июля] - **свержение василия шуйского** - москва",
    "date": "1610",
    "description": "[ 1610 , 17 июля] - **Свержение Василия Шуйского** - Москва",
    "location": {
      "name": "Москва",
      "lat": 55.75,
      "lng": 37.62
    },
    "category": "Революции и перевороты"
  },
  {
    "title": "Семибоярщина** - москва",
    "date": "1610",
    "description": "[ 1610 - 1612] - **Семибоярщина** - Москва",
    "location": {
      "name": "Москва",
      "lat": 55.75,
      "lng": 37.62
    },
    "category": "Научные достижения"
  },
  {
    "title": "Март] - **первое народное ополчение** - рязань",
    "date": "1611",
    "description": "[ 1611 , март] - **Первое народное ополчение** - Рязань",
    "location": {
      "name": "Рязань",
      "lat": 57.17007629461173,
      "lng": 46.74767138226437
    },
    "category": "Экономические события"
  },
  {
    "title": "Июнь] - **распад первого ополчения** - под",
    "date": "1611",
    "description": "[ 1611 , июнь] - **Распад Первого ополчения** - Под Москвой",
    "location": {
      "name": "Под Москвой",
      "lat": 51.00966954990364,
      "lng": 28.33936718930315
    },
    "category": "Научные достижения"
  },
  {
    "title": "Июня] - **падение смоленска** - смоленск",
    "date": "1611",
    "description": "[ 1611 , 3 июня] - **Падение Смоленска** - Смоленск",
    "location": {
      "name": "Смоленск",
      "lat": 54.78,
      "lng": 32.05
    },
    "category": "Военные кампании"
  },
  {
    "title": "Начало формирования второго народного ополчения",
    "date": "1611",
    "description": "[ 1611 , сентябрь] - **Начало формирования Второго народного ополчения** - Нижний Новгород",
    "location": {
      "name": "Нижний Новгород",
      "lat": 56.32,
      "lng": 44.0
    },
    "category": "Дипломатические события"
  },
  {
    "title": "Август] - **битва за москву** - москва",
    "date": "1612",
    "description": "[ 1612 , август] - **Битва за Москву** - Москва",
    "location": {
      "name": "Москва",
      "lat": 55.75,
      "lng": 37.62
    },
    "category": "Войны и сражения"
  },
  {
    "title": "Октября] - **капитуляция польского гарнизона в кремле**",
    "date": "1612",
    "description": "[ 1612 , 26 октября] - **Капитуляция польского гарнизона в Кремле** - Москва, Кремль",
    "location": {
      "name": "Москва, Кремль",
      "lat": 55.75,
      "lng": 37.62
    },
    "category": "Основание городов"
  }
]