[
  {
    "title": "Год ** - начало русско-польской войны (смутное",
    "date": "1605 год",
    "description": "** 1605 год ** - Начало русско-польской войны (Смутное время) - Русское государство",
    "location": {
      "name": "Москва",
      "lat": 55.75,
      "lng": 37.62
    },
    "category": "Становление государства"
  },
  {
    "title": "Год ** - начало открытой польской интервенции",
    "date": "1609 год",
    "description": "** 1609 год ** - Начало открытой польской интервенции - Русское государство",
    "location": {
      "name": "Смоленск",
      "lat": 54.78,
      "lng": 32.05
    },
    "category": "Становление государства"
  },
  {
    "title": "- битва при клушине - клушино",
    "date": "1610 год",
    "description": "** 1610 год ** - Битва при Клушине - Клушино, Смоленская область",
    "location": {
      "name": "Клушино, Смоленская область",
      "lat": 54.78,
      "lng": 32.05
    },
    "category": "Войны и сражения"
  },
  {
    "title": "Год ** - семибоярщина - москва",
    "date": "1610 год",
    "description": "** 1610 год ** - Семибоярщина - Москва",
    "location": {
      "name": "Москва",
      "lat": 55.75,
      "lng": 37.62
    },
    "category": "Социальные реформы"
  },
  {
    "title": "Год ** - освобождение москвы народным ополчением",
    "date": "1612 год",
    "description": "** 1612 год ** - Освобождение Москвы народным ополчением - Москва",
    "location": {
      "name": "Москва",
      "lat": 55.75,
      "lng": 37.62
    },
    "category": "Становление государства"
  },
  {
    "title": "- столбовский мир - столбово",
    "date": "1617 год",
    "description": "** 1617 год ** - Столбовский мир - Столбово, Новгородская земля",
    "location": {
      "name": "Столбово",
      "lat": 45.85643795593235,
      "lng": 30.16110184461146
    },
    "category": "Дипломатические события"
  },
  {
    "title": "- деулинское перемирие - деулино",
    "date": "1618 год",
    "description": "** 1618 год ** - Деулинское перемирие - Деулино, близ Троице-Сергиева монастыря",
    "location": {
      "name": "Деулино",
      "lat": 64.36087448127284,
      "lng": 33.76416472780515
    },
    "category": "Культура и религия"
  },
  {
    "title": "- смоленская война - западные регионы россии",
    "date": "1632-1634",
    "description": "** 1632-1634 годы** - Смоленская война - Западные регионы России",
    "location": {
      "name": "Смоленск",
      "lat": 54.78,
      "lng": 32.05
    },
    "category": "Войны и сражения"
  },
  {
    "title": "- поляновский мир - река поляновка",
    "date": "1634 год",
    "description": "** 1634 год ** - Поляновский мир - Река Поляновка, между Вязьмой и Дорогобужем",
    "location": {
      "name": "Река Поляновка, между Вязьмой и Дорогобужем",
      "lat": 63.75788505006156,
      "lng": 42.96275077033852
    },
    "category": "Дипломатические события"
  },
  {
    "title": "Год ** - захват азова донскими казаками",
    "date": "1637 год",
    "description": "** 1637 год ** - Захват Азова донскими казаками - Азов",
    "location": {
      "name": "Азов",
      "lat": 50.28447803307269,
      "lng": 35.091801157642635
    },
    "category": "Основание городов"
  },
  {
    "title": "Годы** - азовское сидение - азов",
    "date": "1637-1642",
    "description": "** 1637-1642 годы** - Азовское сидение - Азов",
    "location": {
      "name": "Азов",
      "lat": 56.18855679413524,
      "lng": 31.636989334502843
    },
    "category": "Экономические события"
  },
  {
    "title": "Год ** - земский собор о судьбе",
    "date": "1642 год",
    "description": "** 1642 год ** - Земский собор о судьбе Азова - Москва",
    "location": {
      "name": "Москва",
      "lat": 55.75,
      "lng": 37.62
    },
    "category": "Культура и религия"
  },
  {
    "title": "Год ** - начало восстания богдана хмельницкого",
    "date": "1648 год",
    "description": "** 1648 год ** - Начало восстания Богдана Хмельницкого - Украина",
    "location": {
      "name": "Украина",
      "lat": 50.45,
      "lng": 30.52
    },
    "category": "Революции и перевороты"
  },
  {
    "title": "Год ** - переяславская рада - переяслав",
    "date": "1654 год",
    "description": "** 1654 год ** - Переяславская рада - Переяслав",
    "location": {
      "name": "Переяслав",
      "lat": 45.59011825259237,
      "lng": 45.701813470521834
    },
    "category": "Революции и перевороты"
  },
  {
    "title": "- русско-польская война - территория современной украины",
    "date": "1654-1667",
    "description": "** 1654-1667 годы** - Русско-польская война - Территория современной Украины, Белоруссии, западные регионы России",
    "location": {
      "name": "Украина",
      "lat": 50.45,
      "lng": 30.52
    },
    "category": "Войны и сражения"
  },
  {
    "title": "- русско-шведская война - прибалтика",
    "date": "1656-1658",
    "description": "** 1656-1658 годы** - Русско-шведская война - Прибалтика",
    "location": {
      "name": "Прибалтика",
      "lat": 57.57438975478267,
      "lng": 29.276382793116426
    },
    "category": "Войны и сражения"
  },
  {
    "title": "- кардисский мир - кардис",
    "date": "1661 год",
    "description": "** 1661 год ** - Кардисский мир - Кардис (Кярде), Эстония",
    "location": {
      "name": "Кардис",
      "lat": 51.87066403499343,
      "lng": 41.93674232680092
    },
    "category": "Дипломатические события"
  },
  {
    "title": "- андрусовское перемирие - андрусово",
    "date": "1667 год",
    "description": "** 1667 год ** - Андрусовское перемирие - Андрусово, близ Смоленска",
    "location": {
      "name": "Андрусово",
      "lat": 64.64339922995771,
      "lng": 30.68579162057751
    },
    "category": "Дипломатические события"
  },
  {
    "title": "- русско-турецкая война - украина",
    "date": "1676-1681",
    "description": "** 1676-1681 годы** - Русско-турецкая война - Украина, Крым",
    "location": {
      "name": "Украина, Крым",
      "lat": 45.3,
      "lng": 34.2
    },
    "category": "Войны и сражения"
  },
  {
    "title": "- бахчисарайский мир - бахчисарай",
    "date": "1681 год",
    "description": "** 1681 год ** - Бахчисарайский мир - Бахчисарай",
    "location": {
      "name": "Бахчисарай",
      "lat": 64.82188403208704,
      "lng": 37.425251072796634
    },
    "category": "Дипломатические события"
  },
  {
    "title": "- вечный мир с польшей - москва",
    "date": "1686 год",
    "description": "** 1686 год ** - Вечный мир с Польшей - Москва",
    "location": {
      "name": "Москва",
      "lat": 55.75,
      "lng": 37.62
    },
    "category": "Дипломатические события"
  },
  {
    "title": "Год ** - первый крымский поход -",
    "date": "1687 год",
    "description": "** 1687 год ** - Первый Крымский поход - Крым",
    "location": {
      "name": "Крым",
      "lat": 45.3,
      "lng": 34.2
    },
    "category": "Культура и религия"
  },
  {
    "title": "Год ** - второй крымский поход -",
    "date": "1689 год",
    "description": "** 1689 год ** - Второй Крымский поход - Крым",
    "location": {
      "name": "Крым",
      "lat": 45.3,
      "lng": 34.2
    },
    "category": "Политические реформы"
  },
  {
    "title": "- нерчинский договор с китаем - нерчинск",
    "date": "1689 год",
    "description": "** 1689 год ** - Нерчинский договор с Китаем - Нерчинск",
    "location": {
      "name": "Нерчинск",
      "lat": 57.447259577151506,
      "lng": 51.862680144430264
    },
    "category": "Дипломатические события"
  },
  {
    "title": "Годы** - азовские походы петра i -",
    "date": "1695-1696",
    "description": "** 1695-1696 годы** - Азовские походы Петра I - Азов",
    "location": {
      "name": "Азов",
      "lat": 58.49602494343537,
      "lng": 28.834436947869648
    },
    "category": "Военные кампании"
  },
  {
    "title": "Год ** - взятие азова - азов",
    "date": "1696 год",
    "description": "** 1696 год ** - Взятие Азова - Азов",
    "location": {
      "name": "Азов",
      "lat": 53.15149189668228,
      "lng": 51.846145556531425
    },
    "category": "Политические реформы"
  },
  {
    "title": "1610 - 1618 - русско-шведская война - северо-западные земли россии",
    "date": "1610",
    "description": "* 1610 - 1618 - Русско-шведская война - Северо-Западные земли России",
    "location": {
      "name": "Северо-Западные земли России",
      "lat": 49.70987736285988,
      "lng": 36.47564328508159
    },
    "category": "Войны и сражения"
  },
  {
    "title": "Поход лисовского на москву - московское государство",
    "date": "1615",
    "description": "* 1615 - Поход Лисовского на Москву - Московское государство",
    "location": {
      "name": "Москва",
      "lat": 55.75,
      "lng": 37.62
    },
    "category": "Становление государства"
  },
  {
    "title": "1632 - 1634 - смоленская война - западные земли россии",
    "date": "1632",
    "description": "* 1632 - 1634 - Смоленская война - Западные земли России, Смоленск",
    "location": {
      "name": "Смоленск",
      "lat": 54.78,
      "lng": 32.05
    },
    "category": "Войны и сражения"
  },
  {
    "title": "Азовское сидение донских казаков - азов",
    "date": "1637",
    "description": "* 1637 - 1642 - Азовское сидение донских казаков - Азов",
    "location": {
      "name": "Азов",
      "lat": 54.61835802267589,
      "lng": 49.040389813286076
    },
    "category": "Основание городов"
  },
  {
    "title": "Начало русско-польской войны (1654-1667) - украина, белоруссия",
    "date": "1654",
    "description": "* 1654 - Начало Русско-польской войны (1654-1667) - Украина, Белоруссия, Россия",
    "location": {
      "name": "Украина, Белоруссия",
      "lat": 50.45,
      "lng": 30.52
    },
    "category": "Территориальные приобретения"
  },
  {
    "title": "Начало русско-польской войны ( 1654-1667 ) -",
    "date": "1654-1667",
    "description": "* 1654 - Начало Русско-польской войны ( 1654-1667 ) - Украина, Белоруссия, Россия",
    "location": {
      "name": "Украина",
      "lat": 50.45,
      "lng": 30.52
    },
    "category": "Изменения границ"
  },
  {
    "title": "1655 - битва под охматовом - охматов",
    "date": "1655",
    "description": "* 1655 - Битва под Охматовом - Охматов, Украина",
    "location": {
      "name": "Охматов",
      "lat": 57.638219830699434,
      "lng": 42.11790559152664
    },
    "category": "Войны и сражения"
  },
  {
    "title": "1656 - 1658 - русско-шведская война - прибалтика",
    "date": "1656",
    "description": "* 1656 - 1658 - Русско-шведская война - Прибалтика",
    "location": {
      "name": "Прибалтика",
      "lat": 56.598958656623765,
      "lng": 47.8203412849731
    },
    "category": "Войны и сражения"
  },
  {
    "title": "1661 - кардисский мир - кардис",
    "date": "1661",
    "description": "* 1661 - Кардисский мир - Кардис (Кярде), Эстляндия",
    "location": {
      "name": "Кярде",
      "lat": 54.63078395309981,
      "lng": 28.92855502108484
    },
    "category": "Дипломатические события"
  },
  {
    "title": "Мирный договор между россией и швецией",
    "date": "1656-1658",
    "description": "Мирный договор между Россией и Швецией, завершивший Русско-шведскую войну 1656-1658 годов",
    "location": {
      "name": "Валиесар",
      "lat": 60.718871836556474,
      "lng": 34.8969066434054
    },
    "category": "Дипломатические события"
  },
  {
    "title": "Подтвердил условия столбовского мира 1617 года",
    "date": "1617",
    "description": "Подтвердил условия Столбовского мира 1617 года",
    "location": {
      "name": "Столбово",
      "lat": 48.83420975671819,
      "lng": 43.526030335005785
    },
    "category": "Дипломатические события"
  },
  {
    "title": "Московские статьи - москва",
    "date": "1665",
    "description": "* 1665 - Московские статьи - Москва",
    "location": {
      "name": "Москва",
      "lat": 55.75,
      "lng": 37.62
    },
    "category": "Экономические события"
  },
  {
    "title": "1667 - андрусовское перемирие - андрусово",
    "date": "1667",
    "description": "* 1667 - Андрусовское перемирие - Андрусово, Смоленская область",
    "location": {
      "name": "Андрусово",
      "lat": 49.10676255224051,
      "lng": 48.5590702982731
    },
    "category": "Дипломатические события"
  },
  {
    "title": "Перемирие между россией и речью посполитой",
    "date": "1654-1667",
    "description": "Перемирие между Россией и Речью Посполитой, завершившее Русско-польскую войну 1654-1667 годов",
    "location": {
      "name": "Андрусово",
      "lat": 60.57198875878857,
      "lng": 33.21704264606345
    },
    "category": "Дипломатические события"
  },
  {
    "title": "1670 - 1671 - восстание степана разина - юг россии",
    "date": "1670",
    "description": "* 1670 - 1671 - Восстание Степана Разина - Юг России, Поволжье",
    "location": {
      "name": "Поволжье",
      "lat": 56.77367166206988,
      "lng": 36.645147483841654
    },
    "category": "Революции и перевороты"
  },
  {
    "title": "1672 - бучачский мир - бучач",
    "date": "1672",
    "description": "* 1672 - Бучачский мир - Бучач, Польша",
    "location": {
      "name": "Бучач",
      "lat": 46.59836138266098,
      "lng": 47.528829332453185
    },
    "category": "Дипломатические события"
  },
  {
    "title": "Начало русско-турецкой войны (1676-1681) - украина",
    "date": "1676",
    "description": "* 1676 - Начало Русско-турецкой войны (1676-1681) - Украина",
    "location": {
      "name": "Украина",
      "lat": 50.45,
      "lng": 30.52
    },
    "category": "Экономические события"
  },
  {
    "title": "Начало русско-турецкой войны ( 1676-1681 ) -",
    "date": "1676-1681",
    "description": "* 1676 - Начало Русско-турецкой войны ( 1676-1681 ) - Украина",
    "location": {
      "name": "Украина",
      "lat": 50.45,
      "lng": 30.52
    },
    "category": "Становление государства"
  },
  {
    "title": "Осада чигирина - чигирин, украина",
    "date": "1677",
    "description": "* 1677 - Осада Чигирина - Чигирин, Украина",
    "location": {
      "name": "Чигирин",
      "lat": 57.98481533849723,
      "lng": 35.84063236894353
    },
    "category": "Войны и сражения"
  },
  {
    "title": "Взятие чигирина турками - чигирин, украина",
    "date": "1678",
    "description": "* 1678 - Взятие Чигирина турками - Чигирин, Украина",
    "location": {
      "name": "Чигирин, Украина",
      "lat": 50.45,
      "lng": 30.52
    },
    "category": "Территориальные приобретения"
  },
  {
    "title": "1681 - бахчисарайский мир - бахчисарай",
    "date": "1681",
    "description": "* 1681 - Бахчисарайский мир - Бахчисарай, Крым",
    "location": {
      "name": "Бахчисарай",
      "lat": 46.55006088735625,
      "lng": 45.78169086455689
    },
    "category": "Дипломатические события"
  },
  {
    "title": "Мирный договор между россией и османской империей",
    "date": "1676-1681",
    "description": "Мирный договор между Россией и Османской империей, завершивший Русско-турецкую войну 1676-1681 годов",
    "location": {
      "name": "Бахчисарай",
      "lat": 61.313364409942494,
      "lng": 45.766622453196106
    },
    "category": "Дипломатические события"
  },
  {
    "title": "1686 - вечный мир с польшей - москва",
    "date": "1686",
    "description": "* 1686 - Вечный мир с Польшей - Москва",
    "location": {
      "name": "Москва",
      "lat": 55.75,
      "lng": 37.62
    },
    "category": "Дипломатические события"
  },
  {
    "title": "И 1689 - крымские походы голицына -",
    "date": "1687",
    "description": "* 1687 и 1689 - Крымские походы Голицына - Крымское ханство",
    "location": {
      "name": "Крымское ханство",
      "lat": 45.3,
      "lng": 34.2
    },
    "category": "Социальные реформы"
  },
  {
    "title": "1689 - нерчинский договор - нерчинск",
    "date": "1689",
    "description": "* 1689 - Нерчинский договор - Нерчинск, Забайкалье",
    "location": {
      "name": "Нерчинск",
      "lat": 64.10119878550879,
      "lng": 41.62918888917958
    },
    "category": "Дипломатические события"
  }
]