[
  {
    "title": "- рождение федора иоанновича - москва",
    "date": "1557 год",
    "description": "* ** 1557 год ** - Рождение Федора Иоанновича - Москва",
    "location": {
      "name": "Москва",
      "lat": 55.75,
      "lng": 37.62
    },
    "category": "Революции и перевороты"
  },
  {
    "title": "Год ** - венчание федора иоанновича на",
    "date": "1575 год",
    "description": "* ** 1575 год ** - Венчание Федора Иоанновича на царство (как соправителя) - Москва",
    "location": {
      "name": "Москва",
      "lat": 55.75,
      "lng": 37.62
    },
    "category": "Экономические события"
  },
  {
    "title": "Год ** - убийство царевича ивана ивановича",
    "date": "1581 год",
    "description": "* ** 1581 год ** - Убийство царевича Ивана Ивановича - Александровская слобода",
    "location": {
      "name": "Александровская слобода",
      "lat": 56.715383543943275,
      "lng": 41.147235009169464
    },
    "category": "Культура и религия"
  },
  {
    "title": "- смерть ивана iv грозного - москва",
    "date": "1584",
    "description": "* **18 марта 1584 года** - Смерть Ивана IV Грозного - Москва",
    "location": {
      "name": "Москва",
      "lat": 55.75,
      "lng": 37.62
    },
    "category": "Научные достижения"
  },
  {
    "title": "Мая 1584 года** - венчание федора иоанновича",
    "date": "1584",
    "description": "* **31 мая 1584 года** - Венчание Федора Иоанновича на царство - Москва, Успенский собор",
    "location": {
      "name": "Москва",
      "lat": 55.75,
      "lng": 37.62
    },
    "category": "Культура и религия"
  },
  {
    "title": "Мая 1584 год а** - венчание федора",
    "date": "31 мая 1584 год",
    "description": "* ** 31 мая 1584 год а** - Венчание Федора Иоанновича на царство - Москва, Успенский собор",
    "location": {
      "name": "Москва",
      "lat": 55.75,
      "lng": 37.62
    },
    "category": "Культура и религия"
  },
  {
    "title": "Год ** - учреждение регентского совета при",
    "date": "1584 год",
    "description": "* ** 1584 год ** - Учреждение регентского совета при Федоре Иоанновиче - Москва",
    "location": {
      "name": "Москва",
      "lat": 55.75,
      "lng": 37.62
    },
    "category": "Территориальные приобретения"
  },
  {
    "title": "Год ** - начало борьбы за власть",
    "date": "1584 год",
    "description": "* ** 1584 год ** - Начало борьбы за власть между членами регентского совета - Москва",
    "location": {
      "name": "Москва",
      "lat": 55.75,
      "lng": 37.62
    },
    "category": "Социальные реформы"
  },
  {
    "title": "Год ** - ссылка бориса годунова в",
    "date": "1586 год",
    "description": "* ** 1586 год ** - Ссылка Бориса Годунова в село Вязьма - Москва",
    "location": {
      "name": "Вязьма",
      "lat": 54.10373455463959,
      "lng": 36.62112428642859
    },
    "category": "Научные достижения"
  },
  {
    "title": "Год ** - женитьба федора иоанновича на",
    "date": "1586 год",
    "description": "* ** 1586 год ** - Женитьба Федора Иоанновича на Ирине Годуновой - Москва",
    "location": {
      "name": "Москва",
      "lat": 55.75,
      "lng": 37.62
    },
    "category": "Экономические события"
  },
  {
    "title": "Год ** - возвращение бориса годунова к",
    "date": "1587 год",
    "description": "* ** 1587 год ** - Возвращение Бориса Годунова к власти - Москва",
    "location": {
      "name": "Москва",
      "lat": 55.75,
      "lng": 37.62
    },
    "category": "Территориальные приобретения"
  },
  {
    "title": "Января 1589 года** - учреждение московского патриархата",
    "date": "1589",
    "description": "* **26 января 1589 года** - Учреждение Московского патриархата - Москва",
    "location": {
      "name": "Москва",
      "lat": 55.75,
      "lng": 37.62
    },
    "category": "Культура и религия"
  },
  {
    "title": "Января 1589 год а** - учреждение московского",
    "date": "26 января 1589 год",
    "description": "* ** 26 января 1589 год а** - Учреждение Московского патриархата - Москва",
    "location": {
      "name": "Москва",
      "lat": 55.75,
      "lng": 37.62
    },
    "category": "Культура и религия"
  },
  {
    "title": "- русско-шведская война - прибалтика",
    "date": "1590-1595",
    "description": "* ** 1590-1595 годы** - Русско-шведская война - Прибалтика, Карелия",
    "location": {
      "name": "Прибалтика",
      "lat": 45.32645685242263,
      "lng": 30.91588290717102
    },
    "category": "Войны и сражения"
  },
  {
    "title": "- смерть царевича дмитрия ивановича - углич",
    "date": "1591",
    "description": "* **15 мая 1591 года** - Смерть царевича Дмитрия Ивановича - Углич",
    "location": {
      "name": "Углич",
      "lat": 48.24454054135248,
      "lng": 27.328051717713954
    },
    "category": "Научные достижения"
  },
  {
    "title": "Год ** - нашествие крымского хана газы",
    "date": "1591 год",
    "description": "* ** 1591 год ** - Нашествие крымского хана Газы II Герая на Москву - Москва",
    "location": {
      "name": "Москва",
      "lat": 55.75,
      "lng": 37.62
    },
    "category": "Становление государства"
  },
  {
    "title": "- указ о прикреплении крестьян к земле",
    "date": "1592 год",
    "description": "* ** 1592 год ** - Указ о прикреплении крестьян к земле (фактическое начало крепостного права) - Россия",
    "location": {
      "name": "Москва",
      "lat": 55.75,
      "lng": 37.62
    },
    "category": "Становление государства"
  },
  {
    "title": "- тявзинский мирный договор - деревня тявзино",
    "date": "1595",
    "description": "* **18 мая 1595 года** - Тявзинский мирный договор - Деревня Тявзино (между Ивангородом и Ямбургом)",
    "location": {
      "name": "Деревня Тявзино",
      "lat": 54.582273491330625,
      "lng": 51.136765232542544
    },
    "category": "Дипломатические события"
  },
  {
    "title": "- указ об",
    "date": "1597 год",
    "description": "* ** 1597 год ** - Указ об \"урочных летах\" - Россия",
    "location": {
      "name": "Москва",
      "lat": 55.75,
      "lng": 37.62
    },
    "category": "Экономические события"
  },
  {
    "title": "- смерть федора иоанновича - москва",
    "date": "1598",
    "description": "* **7 января 1598 года** - Смерть Федора Иоанновича - Москва",
    "location": {
      "name": "Москва",
      "lat": 55.75,
      "lng": 37.62
    },
    "category": "Становление государства"
  },
  {
    "title": "Января 1598 года** - пресечение династии рюриковичей",
    "date": "1598",
    "description": "* **7 января 1598 года** - Пресечение династии Рюриковичей - Москва",
    "location": {
      "name": "Москва",
      "lat": 55.75,
      "lng": 37.62
    },
    "category": "Территориальные приобретения"
  },
  {
    "title": "Января 1598 год а** - пресечение династии",
    "date": "7 января 1598 год",
    "description": "* ** 7 января 1598 год а** - Пресечение династии Рюриковичей - Москва",
    "location": {
      "name": "Москва",
      "lat": 55.75,
      "lng": 37.62
    },
    "category": "Экономические события"
  },
  {
    "title": "Со смертью федора иоанновича пресеклась московская ветвь династии рюриковичей",
    "date": "700",
    "description": "* Со смертью Федора Иоанновича пресеклась московская ветвь династии Рюриковичей, правившая Русью/Россией более 700 лет",
    "location": {
      "name": "Москва",
      "lat": 55.75,
      "lng": 37.62
    },
    "category": "Экономические события"
  },
  {
    "title": "Февраля 1598 года** - избрание бориса годунова",
    "date": "1598",
    "description": "* **17 февраля 1598 года** - Избрание Бориса Годунова на царство Земским собором - Москва",
    "location": {
      "name": "Москва",
      "lat": 55.75,
      "lng": 37.62
    },
    "category": "Культура и религия"
  },
  {
    "title": "Февраля 1598 год а** - избрание бориса",
    "date": "17 февраля 1598 год",
    "description": "* ** 17 февраля 1598 год а** - Избрание Бориса Годунова на царство Земским собором - Москва",
    "location": {
      "name": "Москва",
      "lat": 55.75,
      "lng": 37.62
    },
    "category": "Культура и религия"
  },
  {
    "title": "После 1598 года (события, связанные с последствиями",
    "date": "1598",
    "description": "**После 1598 года (События, связанные с последствиями пресечения династии)**",
    "location": {
      "name": "Москва",
      "lat": 55.75,
      "lng": 37.62
    },
    "category": "Военные кампании"
  },
  {
    "title": "Годы** - великий голод - россия",
    "date": "1601-1603",
    "description": "* ** 1601-1603 годы** - Великий голод - Россия",
    "location": {
      "name": "Центральная Россия",
      "lat": 55.75,
      "lng": 37.62
    },
    "category": "Восстания и бунты"
  },
  {
    "title": "Год ** - появление лжедмитрия i -",
    "date": "1603 год",
    "description": "* ** 1603 год ** - Появление Лжедмитрия I - Польша",
    "location": {
      "name": "Польша",
      "lat": 58.787017302093446,
      "lng": 49.538891864597836
    },
    "category": "Политические реформы"
  },
  {
    "title": "- смерть бориса годунова - москва",
    "date": "1605 год",
    "description": "* ** 1605 год ** - Смерть Бориса Годунова - Москва",
    "location": {
      "name": "Москва",
      "lat": 55.75,
      "lng": 37.62
    },
    "category": "Социальные реформы"
  },
  {
    "title": "Год ** - вступление лжедмитрия i на",
    "date": "1605 год",
    "description": "* ** 1605 год ** - Вступление Лжедмитрия I на престол - Москва",
    "location": {
      "name": "Москва",
      "lat": 55.75,
      "lng": 37.62
    },
    "category": "Научные достижения"
  },
  {
    "title": "Год ** - свержение и убийство лжедмитрия",
    "date": "1606 год",
    "description": "* ** 1606 год ** - Свержение и убийство Лжедмитрия I - Москва",
    "location": {
      "name": "Москва",
      "lat": 55.75,
      "lng": 37.62
    },
    "category": "Революции и перевороты"
  },
  {
    "title": "Год ** - избрание василия шуйского на",
    "date": "1606 год",
    "description": "* ** 1606 год ** - Избрание Василия Шуйского на царство - Москва",
    "location": {
      "name": "Москва",
      "lat": 55.75,
      "lng": 37.62
    },
    "category": "Основание городов"
  },
  {
    "title": "Год ** - свержение василия шуйского -",
    "date": "1610 год",
    "description": "* ** 1610 год ** - Свержение Василия Шуйского - Москва",
    "location": {
      "name": "Москва",
      "lat": 55.75,
      "lng": 37.62
    },
    "category": "Революции и перевороты"
  },
  {
    "title": "Год ** - избрание михаила романова на",
    "date": "1613 год",
    "description": "* ** 1613 год ** - Избрание Михаила Романова на царство - Москва",
    "location": {
      "name": "Москва",
      "lat": 55.75,
      "lng": 37.62
    },
    "category": "Дипломатические события"
  },
  {
    "title": "Май] - **назначение бориса годунова правителем государства**",
    "date": "1584",
    "description": "* [ 1584 , май] - **Назначение Бориса Годунова правителем государства** - Москва",
    "location": {
      "name": "Москва",
      "lat": 55.75,
      "lng": 37.62
    },
    "category": "Становление государства"
  },
  {
    "title": "Политическая борьба между борисом годуновым и родственниками",
    "date": "1584-1587",
    "description": "* [ 1584-1587 ] - **Политическая борьба между Борисом Годуновым и родственниками царя Федора** - Москва",
    "location": {
      "name": "Москва",
      "lat": 55.75,
      "lng": 37.62
    },
    "category": "Культура и религия"
  },
  {
    "title": "Начало переговоров об учреждении патриаршества в москве**",
    "date": "1586",
    "description": "* [ 1586 ] - **Начало переговоров об учреждении патриаршества в Москве** - Константинополь, Москва",
    "location": {
      "name": "Москва",
      "lat": 55.75,
      "lng": 37.62
    },
    "category": "Военные кампании"
  },
  {
    "title": "Приезд английского посла джерома горсея в москву**",
    "date": "1586",
    "description": "* [ 1586 ] - **Приезд английского посла Джерома Горсея в Москву** - Москва",
    "location": {
      "name": "Москва",
      "lat": 55.75,
      "lng": 37.62
    },
    "category": "Культура и религия"
  },
  {
    "title": "Попытка свержения бориса годунова** - москва",
    "date": "1587",
    "description": "* [ 1587 ] - **Попытка свержения Бориса Годунова** - Москва",
    "location": {
      "name": "Москва",
      "lat": 55.75,
      "lng": 37.62
    },
    "category": "Революции и перевороты"
  },
  {
    "title": "Прибытие в москву австрийского посла николая варкоча**",
    "date": "1587",
    "description": "* [ 1587 ] - **Прибытие в Москву австрийского посла Николая Варкоча** - Москва",
    "location": {
      "name": "Москва",
      "lat": 55.75,
      "lng": 37.62
    },
    "category": "Военные кампании"
  },
  {
    "title": "Прибытие и освящение иконы тихвинской божьей матери**",
    "date": "1588",
    "description": "* [ 1588 ] - **Прибытие и освящение иконы Тихвинской Божьей Матери** - Тихвин",
    "location": {
      "name": "Тихвин",
      "lat": 56.36833822730119,
      "lng": 27.819027821206298
    },
    "category": "Экономические события"
  },
  {
    "title": "Января] - **учреждение московского патриархата** - москва",
    "date": "1589",
    "description": "* [ 1589 , 26 января] - **Учреждение Московского патриархата** - Москва",
    "location": {
      "name": "Москва",
      "lat": 55.75,
      "lng": 37.62
    },
    "category": "Культура и религия"
  },
  {
    "title": "Русско-шведская война** - прибалтика, россия",
    "date": "1590-1595",
    "description": "* [ 1590-1595 ] - **Русско-шведская война** - Прибалтика, Россия",
    "location": {
      "name": "Прибалтика",
      "lat": 51.44330227238271,
      "lng": 44.730643378276675
    },
    "category": "Войны и сражения"
  },
  {
    "title": "Мая] - **гибель царевича дмитрия ивановича в",
    "date": "1591",
    "description": "* [ 1591 , 15 мая] - **Гибель царевича Дмитрия Ивановича в Угличе** - Углич",
    "location": {
      "name": "Углич",
      "lat": 53.719738745739456,
      "lng": 48.39471102467111
    },
    "category": "Военные кампании"
  },
  {
    "title": "Нашествие крымского хана казы-гирея на москву** -",
    "date": "1591",
    "description": "* [ 1591 ] - **Нашествие крымского хана Казы-Гирея на Москву** - Москва",
    "location": {
      "name": "Москва",
      "lat": 55.75,
      "lng": 37.62
    },
    "category": "Революции и перевороты"
  },
  {
    "title": "Указ о прикреплении крестьян к земле** -",
    "date": "1592",
    "description": "* [ 1592 ] - **Указ о прикреплении крестьян к земле** - Россия",
    "location": {
      "name": "Москва",
      "lat": 55.75,
      "lng": 37.62
    },
    "category": "Территориальные приобретения"
  },
  {
    "title": "Тявзинский мирный договор со швецией",
    "date": "1595",
    "description": "* [ 1595 , 18 мая] - **Тявзинский мирный договор со Швецией** - Тявзино (между Ивангородом и Нарвой)",
    "location": {
      "name": "Тявзино",
      "lat": 59.78112068407118,
      "lng": 35.18134014844584
    },
    "category": "Дипломатические события"
  },
  {
    "title": "Указ об \"урочных летах\"** - россия",
    "date": "1597",
    "description": "* [ 1597 ] - **Указ об \"урочных летах\"** - Россия",
    "location": {
      "name": "Москва",
      "lat": 55.75,
      "lng": 37.62
    },
    "category": "Политические реформы"
  },
  {
    "title": "Посольство императора рудольфа ii в москву** -",
    "date": "1597",
    "description": "* [ 1597 ] - **Посольство императора Рудольфа II в Москву** - Москва",
    "location": {
      "name": "Москва",
      "lat": 55.75,
      "lng": 37.62
    },
    "category": "Войны и сражения"
  },
  {
    "title": "Января] - **смерть царя федора иоанновича** -",
    "date": "1598",
    "description": "* [ 1598 , 7 января] - **Смерть царя Федора Иоанновича** - Москва",
    "location": {
      "name": "Москва",
      "lat": 55.75,
      "lng": 37.62
    },
    "category": "Войны и сражения"
  },
  {
    "title": "Февраля] - **избрание бориса годунова царем земским",
    "date": "1598",
    "description": "* [ 1598 , 21 февраля] - **Избрание Бориса Годунова царем Земским собором** - Москва",
    "location": {
      "name": "Москва",
      "lat": 55.75,
      "lng": 37.62
    },
    "category": "Культура и религия"
  }
]