[
  {
    "title": "Год ** - **основание шведской крепости ландскрона**",
    "date": "1300 год",
    "description": "* ** 1300 год ** - **Основание шведской крепости Ландскрона** - Устье реки Охты, Нева",
    "location": {
      "name": "Устье реки Охты, Нева",
      "lat": 55.75764244828315,
      "lng": 29.05078889277867
    },
    "category": "Становление государства"
  },
  {
    "title": "Год ** - **взятие ландскроны новгородцами** -",
    "date": "1301 год",
    "description": "* ** 1301 год ** - **Взятие Ландскроны новгородцами** - Устье реки Охты, Нева",
    "location": {
      "name": "Устье реки Охты, Нева",
      "lat": 51.46954900584572,
      "lng": 34.04025836097959
    },
    "category": "Основание городов"
  },
  {
    "title": "Год ** - **основание ивангорода** - нарва",
    "date": "1492 год",
    "description": "* ** 1492 год ** - **Основание Ивангорода** - Нарва (современная Эстония)",
    "location": {
      "name": "Нарва",
      "lat": 46.05140556941505,
      "lng": 48.18568005422007
    },
    "category": "Социальные реформы"
  },
  {
    "title": "Год ** - **захват ниена шведами** -",
    "date": "1611 год",
    "description": "* ** 1611 год ** - **Захват Ниена шведами** - Ниеншанц, устье Охты",
    "location": {
      "name": "Ниеншанц",
      "lat": 54.7387232975677,
      "lng": 35.68257995920275
    },
    "category": "Войны и сражения"
  },
  {
    "title": "Год ** - **столбовский мир** - деревня",
    "date": "1617 год",
    "description": "* ** 1617 год ** - **Столбовский мир** - Деревня Столбово, близ Тихвина",
    "location": {
      "name": "Деревня Столбово, близ Тихвина",
      "lat": 64.72136093623048,
      "lng": 34.750949027408495
    },
    "category": "Дипломатические события"
  },
  {
    "title": "Год ** - **переименование ниена в ниеншанц**",
    "date": "1642 год",
    "description": "* ** 1642 год ** - **Переименование Ниена в Ниеншанц** - Ниеншанц, устье Охты",
    "location": {
      "name": "Устье Охты",
      "lat": 46.61637419553262,
      "lng": 28.50136909130749
    },
    "category": "Военные кампании"
  },
  {
    "title": "Год , 30 ноября** - **битва при",
    "date": "1700 год",
    "description": "* ** 1700 год , 30 ноября** - **Битва при Нарве** - Нарва",
    "location": {
      "name": "Нарва",
      "lat": 53.96328083025038,
      "lng": 42.882822859874324
    },
    "category": "Войны и сражения"
  },
  {
    "title": "Год , 11 октября** - **взятие нотебурга",
    "date": "1702 год",
    "description": "* ** 1702 год , 11 октября** - **Взятие Нотебурга (Орешка)** - Орешек (Шлиссельбург)",
    "location": {
      "name": "Шлиссельбург",
      "lat": 57.37873779363495,
      "lng": 51.35573978064063
    },
    "category": "Научные достижения"
  },
  {
    "title": "Год , 1 мая** - **взятие ниеншанца**",
    "date": "1703 год",
    "description": "* ** 1703 год , 1 мая** - **Взятие Ниеншанца** - Ниеншанц, устье Охты",
    "location": {
      "name": "Ниеншанц, устье Охты",
      "lat": 46.22237472160001,
      "lng": 27.827467618783203
    },
    "category": "Изменения границ"
  },
  {
    "title": "Год , 16 (27) мая** - **основание",
    "date": "1703 год",
    "description": "* ** 1703 год , 16 (27) мая** - **Основание Санкт-Петербурга** - Заячий остров, дельта Невы",
    "location": {
      "name": "Заячий остров, дельта Невы",
      "lat": 56.946025305344044,
      "lng": 39.31239174171418
    },
    "category": "Экономические события"
  },
  {
    "title": "Год , 29 июня** - **освящение петропавловского",
    "date": "1703 год",
    "description": "* ** 1703 год , 29 июня** - **Освящение Петропавловского собора** - Петропавловская крепость",
    "location": {
      "name": "Петропавловская крепость",
      "lat": 57.67019091118317,
      "lng": 30.427425127990936
    },
    "category": "Культура и религия"
  },
  {
    "title": "Начало строительства адмиралтейской верфи",
    "date": "1703 год",
    "description": "* ** 1703 год , осень** - **Начало строительства Адмиралтейской верфи** - Левый берег Невы, напротив Петропавловской крепости",
    "location": {
      "name": "Левый берег Невы, напротив Петропавловской крепости",
      "lat": 48.42375521788647,
      "lng": 38.10787736444116
    },
    "category": "Дипломатические события"
  },
  {
    "title": "Год , 16 мая** - **основание кронштадта**",
    "date": "1704 год",
    "description": "* ** 1704 год , 16 мая** - **Основание Кронштадта** - Остров Котлин, Финский залив",
    "location": {
      "name": "Остров Котлин, Финский залив",
      "lat": 60.0,
      "lng": 28.0
    },
    "category": "Восстания и бунты"
  },
  {
    "title": "Год , лето** - **перенос столицы из",
    "date": "1704 год",
    "description": "* ** 1704 год , лето** - **Перенос столицы из Москвы в Санкт-Петербург (фактический)** - Санкт-Петербург",
    "location": {
      "name": "Санкт-Петербург",
      "lat": 59.94,
      "lng": 30.31
    },
    "category": "Становление государства"
  },
  {
    "title": "Год , июль** - **взятие нарвы** -",
    "date": "1704 год",
    "description": "* ** 1704 год , июль** - **Взятие Нарвы** - Нарва",
    "location": {
      "name": "Нарва",
      "lat": 52.383231246460724,
      "lng": 37.22312896751488
    },
    "category": "Социальные реформы"
  },
  {
    "title": "Год , август** - **взятие дерпта (тарту)**",
    "date": "1704 год",
    "description": "* ** 1704 год , август** - **Взятие Дерпта (Тарту)** - Дерпт (Тарту)",
    "location": {
      "name": "Тарту",
      "lat": 61.15509922748057,
      "lng": 46.76937301210372
    },
    "category": "Культура и религия"
  },
  {
    "title": "Год ** - **начало строительства летнего дворца",
    "date": "1706 год",
    "description": "* ** 1706 год ** - **Начало строительства Летнего дворца Петра I** - Летний сад, Санкт-Петербург",
    "location": {
      "name": "Летний сад, Санкт-Петербург",
      "lat": 59.94,
      "lng": 30.31
    },
    "category": "Военные кампании"
  },
  {
    "title": "Год ** - **основание александро-невской лавры** -",
    "date": "1710 год",
    "description": "* ** 1710 год ** - **Основание Александро-Невской лавры** - Левый берег Невы, Санкт-Петербург",
    "location": {
      "name": "Левый берег Невы, Санкт-Петербург",
      "lat": 59.94,
      "lng": 30.31
    },
    "category": "Военные кампании"
  },
  {
    "title": "Год ** - **официальный перенос столицы из",
    "date": "1712 год",
    "description": "* ** 1712 год ** - **Официальный перенос столицы из Москвы в Санкт-Петербург** - Санкт-Петербург",
    "location": {
      "name": "Санкт-Петербург",
      "lat": 59.94,
      "lng": 30.31
    },
    "category": "Становление государства"
  },
  {
    "title": "Морское сражение при гангуте",
    "date": "1714 год",
    "description": "* ** 1714 год ** - **Морское сражение при Гангуте** - Полуостров Ханко (Гангут), Финский залив",
    "location": {
      "name": "Полуостров Ханко (Гангут)",
      "lat": 61.3996876537136,
      "lng": 29.059406277721553
    },
    "category": "Войны и сражения"
  },
  {
    "title": "Год ** - **основание морской академии** -",
    "date": "1715 год",
    "description": "* ** 1715 год ** - **Основание Морской академии** - Санкт-Петербург",
    "location": {
      "name": "Санкт-Петербург",
      "lat": 59.94,
      "lng": 30.31
    },
    "category": "Культура и религия"
  },
  {
    "title": "Год ** - **казнь царевича алексея** -",
    "date": "1718 год",
    "description": "* ** 1718 год ** - **Казнь царевича Алексея** - Петропавловская крепость, Санкт-Петербург",
    "location": {
      "name": "Петропавловская крепость, Санкт-Петербург",
      "lat": 59.94,
      "lng": 30.31
    },
    "category": "Культура и религия"
  },
  {
    "title": "Год ** - **открытие кунсткамеры** - санкт-петербург",
    "date": "1719 год",
    "description": "* ** 1719 год ** - **Открытие Кунсткамеры** - Санкт-Петербург",
    "location": {
      "name": "Санкт-Петербург",
      "lat": 59.94,
      "lng": 30.31
    },
    "category": "Научные достижения"
  },
  {
    "title": "Год ** - **ништадтский мир** - ништадт",
    "date": "1721 год",
    "description": "* ** 1721 год ** - **Ништадтский мир** - Ништадт (Уусикаупунки), Финляндия",
    "location": {
      "name": "Ништадт (Уусикаупунки)",
      "lat": 59.14900446629306,
      "lng": 27.093434328378745
    },
    "category": "Дипломатические события"
  },
  {
    "title": "Год ** - **основание академии наук** -",
    "date": "1724 год",
    "description": "* ** 1724 год ** - **Основание Академии наук** - Санкт-Петербург",
    "location": {
      "name": "Санкт-Петербург",
      "lat": 59.94,
      "lng": 30.31
    },
    "category": "Научные достижения"
  },
  {
    "title": "Год , 28 января (8 февраля)** -",
    "date": "1725 год",
    "description": "* ** 1725 год , 28 января (8 февраля)** - **Смерть Петра I** - Зимний дворец, Санкт-Петербург",
    "location": {
      "name": "Зимний дворец, Санкт-Петербург",
      "lat": 59.94,
      "lng": 30.31
    },
    "category": "Экономические события"
  },
  {
    "title": "Год ** - **переименование санкт-петербурга в петроград**",
    "date": "1725 год",
    "description": "* ** 1725 год ** - **Переименование Санкт-Петербурга в Петроград** - Санкт-Петербург",
    "location": {
      "name": "Санкт-Петербург",
      "lat": 59.94,
      "lng": 30.31
    },
    "category": "Военные кампании"
  },
  {
    "title": "Год ** - **возвращение столицы в москву**",
    "date": "1728 год",
    "description": "* ** 1728 год ** - **Возвращение столицы в Москву** - Москва",
    "location": {
      "name": "Москва",
      "lat": 55.75,
      "lng": 37.62
    },
    "category": "Политические реформы"
  },
  {
    "title": "Год ** - **возвращение столицы в санкт-петербург**",
    "date": "1732 год",
    "description": "* ** 1732 год ** - **Возвращение столицы в Санкт-Петербург** - Санкт-Петербург",
    "location": {
      "name": "Санкт-Петербург",
      "lat": 59.94,
      "lng": 30.31
    },
    "category": "Дипломатические события"
  },
  {
    "title": "Год ** - **создание комиссии о санкт-петербургском",
    "date": "1737 год",
    "description": "* ** 1737 год ** - **Создание Комиссии о Санкт-Петербургском строении** - Санкт-Петербург",
    "location": {
      "name": "Санкт-Петербург",
      "lat": 59.94,
      "lng": 30.31
    },
    "category": "Войны и сражения"
  },
  {
    "title": "Годы** - **правление екатерины ii** - санкт-петербург",
    "date": "1762-1796",
    "description": "* ** 1762-1796 годы** - **Правление Екатерины II** - Санкт-Петербург",
    "location": {
      "name": "Санкт-Петербург",
      "lat": 59.94,
      "lng": 30.31
    },
    "category": "Восстания и бунты"
  },
  {
    "title": "Год ** - **открытие михайловского замка** -",
    "date": "1800 год",
    "description": "* ** 1800 год ** - **Открытие Михайловского замка** - Санкт-Петербург",
    "location": {
      "name": "Санкт-Петербург",
      "lat": 59.94,
      "lng": 30.31
    },
    "category": "Научные достижения"
  },
  {
    "title": "Год , 14 декабря** - **восстание декабристов**",
    "date": "1825 год",
    "description": "* ** 1825 год , 14 декабря** - **Восстание декабристов** - Сенатская площадь, Санкт-Петербург",
    "location": {
      "name": "Сенатская площадь, Санкт-Петербург",
      "lat": 59.94,
      "lng": 30.31
    },
    "category": "Революции и перевороты"
  },
  {
    "title": "Год , февральская революция** - петроград",
    "date": "1917 год",
    "description": "* ** 1917 год , Февральская революция** - Петроград",
    "location": {
      "name": "Петроград",
      "lat": 59.94,
      "lng": 30.31
    },
    "category": "Революции и перевороты"
  },
  {
    "title": "Год , октябрьская революция** - петроград",
    "date": "1917 год",
    "description": "* ** 1917 год , Октябрьская революция** - Петроград",
    "location": {
      "name": "Петроград",
      "lat": 59.94,
      "lng": 30.31
    },
    "category": "Революции и перевороты"
  },
  {
    "title": "Год ** - **перенос столицы в москву**",
    "date": "1918 год",
    "description": "* ** 1918 год ** - **Перенос столицы в Москву** - Москва",
    "location": {
      "name": "Москва",
      "lat": 55.75,
      "lng": 37.62
    },
    "category": "Экономические события"
  },
  {
    "title": "Год ** - **переименование петрограда в ленинград**",
    "date": "1924 год",
    "description": "* ** 1924 год ** - **Переименование Петрограда в Ленинград** -",
    "location": {
      "name": "Петроград",
      "lat": 59.94,
      "lng": 30.31
    },
    "category": "Военные кампании"
  },
  {
    "title": "Мая] - [основание петропавловской крепости] - [заячий",
    "date": "1703",
    "description": "1703 , 27 мая] - [Основание Петропавловской крепости] - [Заячий остров]",
    "location": {
      "name": "Заячий остров",
      "lat": 61.179666911007224,
      "lng": 35.6383780816371
    },
    "category": "Территориальные приобретения"
  },
  {
    "title": "Осень] - [начало строительства первого деревянного храма",
    "date": "1703",
    "description": "1703 , осень] - [Начало строительства первого деревянного храма - церкви Святого Петра и Павла] - [Петропавловская крепость]",
    "location": {
      "name": "Петропавловская крепость",
      "lat": 63.65974510547514,
      "lng": 36.78452246663868
    },
    "category": "Культура и религия"
  },
  {
    "title": "Основание адмиралтейской верфи",
    "date": "1704",
    "description": "1704 , май] - [Основание Адмиралтейской верфи] - [Левый берег Невы, напротив Петропавловской крепости]",
    "location": {
      "name": "Левый берег Невы, напротив Петропавловской крепости",
      "lat": 58.2844689449642,
      "lng": 40.68198165827046
    },
    "category": "Дипломатические события"
  },
  {
    "title": "Август] - [основание кроншлота (форта кроншлот)] -",
    "date": "1704",
    "description": "1704 , август] - [Основание Кроншлота (форта Кроншлот)] - [Остров Котлин]",
    "location": {
      "name": "Остров Котлин",
      "lat": 53.165406831857965,
      "lng": 46.16217401438212
    },
    "category": "Изменения границ"
  },
  {
    "title": "Март] - [основание первого госпиталя] - [выборгская",
    "date": "1705",
    "description": "1705 , март] - [Основание первого госпиталя] - [Выборгская сторона]",
    "location": {
      "name": "Выборгская сторона",
      "lat": 57.450936251113696,
      "lng": 49.62453973800908
    },
    "category": "Территориальные приобретения"
  },
  {
    "title": "Май] - [начало строительства летнего дворца петра",
    "date": "1706",
    "description": "1706 , май] - [Начало строительства Летнего дворца Петра I] - [Летний сад]",
    "location": {
      "name": "Санкт-Петербург",
      "lat": 59.94,
      "lng": 30.31
    },
    "category": "Территориальные приобретения"
  },
  {
    "title": "Июня] - [закладка каменной петропавловской церкви] -",
    "date": "1706",
    "description": "1706 , 29 июня] - [Закладка каменной Петропавловской церкви] - [Петропавловская крепость]",
    "location": {
      "name": "Петропавловская крепость",
      "lat": 54.44250476075488,
      "lng": 40.92862883511582
    },
    "category": "Войны и сражения"
  },
  {
    "title": "Основание александро-невского монастыря] - [место слияния реки",
    "date": "1710",
    "description": "1710 ] - [Основание Александро-Невского монастыря] - [Место слияния реки Монастырки с Невой]",
    "location": {
      "name": "Место слияния реки Монастырки с Невой",
      "lat": 52.44105977406258,
      "lng": 44.11277558673169
    },
    "category": "Культура и религия"
  },
  {
    "title": "Перенос столицы из москвы в санкт-петербург] -",
    "date": "1712",
    "description": "1712 ] - [Перенос столицы из Москвы в Санкт-Петербург] - [Санкт-Петербург]",
    "location": {
      "name": "Санкт-Петербург",
      "lat": 59.94,
      "lng": 30.31
    },
    "category": "Социальные реформы"
  },
  {
    "title": "Указ о запрете каменного строительства по всей",
    "date": "1714",
    "description": "1714 ] - [Указ о запрете каменного строительства по всей России, кроме Санкт-Петербурга] - [Россия]",
    "location": {
      "name": "Санкт-Петербург",
      "lat": 59.94,
      "lng": 30.31
    },
    "category": "Научные достижения"
  },
  {
    "title": "Основание кунсткамеры] - [санкт-петербург]",
    "date": "1715",
    "description": "1715 ] - [Основание Кунсткамеры] - [Санкт-Петербург]",
    "location": {
      "name": "Санкт-Петербург",
      "lat": 59.94,
      "lng": 30.31
    },
    "category": "Социальные реформы"
  },
  {
    "title": "Открытие первой типографии] - [санкт-петербург]",
    "date": "1718",
    "description": "1718 ] - [Открытие первой типографии] - [Санкт-Петербург]",
    "location": {
      "name": "Санкт-Петербург",
      "lat": 59.94,
      "lng": 30.31
    },
    "category": "Научные достижения"
  },
  {
    "title": "Открытие первых публичных библиотек] - [санкт-петербург]",
    "date": "1719",
    "description": "1719 ] - [Открытие первых публичных библиотек] - [Санкт-Петербург]",
    "location": {
      "name": "Санкт-Петербург",
      "lat": 59.94,
      "lng": 30.31
    },
    "category": "Научные достижения"
  },
  {
    "title": "Учреждение главного магистрата] - [санкт-петербург]",
    "date": "1721",
    "description": "1721 ] - [Учреждение Главного магистрата] - [Санкт-Петербург]",
    "location": {
      "name": "Санкт-Петербург",
      "lat": 59.94,
      "lng": 30.31
    },
    "category": "Научные достижения"
  },
  {
    "title": "Освящение летнего дворца петра i] - [летний",
    "date": "1723",
    "description": "1723 ] - [Освящение летнего дворца Петра I] - [Летний сад]",
    "location": {
      "name": "Санкт-Петербург",
      "lat": 59.94,
      "lng": 30.31
    },
    "category": "Изменения границ"
  },
  {
    "title": "Основание академии наук] - [санкт-петербург]",
    "date": "1724",
    "description": "1724 ] - [Основание Академии наук] - [Санкт-Петербург]",
    "location": {
      "name": "Санкт-Петербург",
      "lat": 59.94,
      "lng": 30.31
    },
    "category": "Научные достижения"
  },
  {
    "title": "Январь] - [смерть петра i] - [зимний",
    "date": "1725",
    "description": "1725 , январь] - [Смерть Петра I] - [Зимний дворец]",
    "location": {
      "name": "Санкт-Петербург",
      "lat": 59.94,
      "lng": 30.31
    },
    "category": "Восстания и бунты"
  },
  {
    "title": "Май] - [открытие академии наук] - [санкт-петербург]",
    "date": "1725",
    "description": "1725 , май] - [Открытие Академии наук] - [Санкт-Петербург]",
    "location": {
      "name": "Санкт-Петербург",
      "lat": 59.94,
      "lng": 30.31
    },
    "category": "Научные достижения"
  },
  {
    "title": "Перенос столицы обратно в москву] - [москва]",
    "date": "1727",
    "description": "1727 ] - [Перенос столицы обратно в Москву] - [Москва]",
    "location": {
      "name": "Москва",
      "lat": 55.75,
      "lng": 37.62
    },
    "category": "Военные кампании"
  },
  {
    "title": "Окончательное возвращение столицы в санкт-петербург] - [санкт-петербург]",
    "date": "1732",
    "description": "1732 ] - [Окончательное возвращение столицы в Санкт-Петербург] - [Санкт-Петербург]",
    "location": {
      "name": "Санкт-Петербург",
      "lat": 59.94,
      "lng": 30.31
    },
    "category": "Становление государства"
  }
]