[
  {
    "title": "- смерть бориса годунова - москва",
    "date": "1605",
    "description": "* ** 1605 , 13 апреля** - Смерть Бориса Годунова - Москва",
    "location": {
      "name": "Москва",
      "lat": 55.75,
      "lng": 37.62
    },
    "category": "Научные достижения"
  },
  {
    "title": "Июнь** - вступление лжедмитрия i на престол",
    "date": "1605",
    "description": "* ** 1605 , июнь** - Вступление Лжедмитрия I на престол - Москва",
    "location": {
      "name": "Москва",
      "lat": 55.75,
      "lng": 37.62
    },
    "category": "Изменения границ"
  },
  {
    "title": "Мая** - убийство лжедмитрия i - москва",
    "date": "1606",
    "description": "* ** 1606 , 17 мая** - Убийство Лжедмитрия I - Москва",
    "location": {
      "name": "Москва",
      "lat": 55.75,
      "lng": 37.62
    },
    "category": "Культура и религия"
  },
  {
    "title": "Мая** - воцарение василия шуйского - москва",
    "date": "1606",
    "description": "* ** 1606 , 19 мая** - Воцарение Василия Шуйского - Москва",
    "location": {
      "name": "Москва",
      "lat": 55.75,
      "lng": 37.62
    },
    "category": "Социальные реформы"
  },
  {
    "title": "- восстание ивана болотникова - юг россии",
    "date": "1606-1607",
    "description": "* ** 1606-1607 ** - Восстание Ивана Болотникова - Юг России, Московское государство",
    "location": {
      "name": "Юг России",
      "lat": 53.13985555551582,
      "lng": 45.26016702840275
    },
    "category": "Становление государства"
  },
  {
    "title": "Июля** - свержение василия шуйского - москва",
    "date": "1610",
    "description": "* ** 1610 , 17 июля** - Свержение Василия Шуйского - Москва",
    "location": {
      "name": "Москва",
      "lat": 55.75,
      "lng": 37.62
    },
    "category": "Революции и перевороты"
  },
  {
    "title": "Август** - семибоярщина - москва",
    "date": "1610",
    "description": "* ** 1610 , август** - Семибоярщина - Москва",
    "location": {
      "name": "Москва",
      "lat": 55.75,
      "lng": 37.62
    },
    "category": "Дипломатические события"
  },
  {
    "title": "Октября** - освобождение москвы от польских интервентов",
    "date": "1612",
    "description": "* ** 1612 , 26 октября** - Освобождение Москвы от польских интервентов - Москва",
    "location": {
      "name": "Москва",
      "lat": 55.75,
      "lng": 37.62
    },
    "category": "Дипломатические события"
  },
  {
    "title": "Февраля** - избрание михаила романова на царство",
    "date": "1613",
    "description": "* ** 1613 , 21 февраля** - Избрание Михаила Романова на царство - Москва",
    "location": {
      "name": "Москва",
      "lat": 55.75,
      "lng": 37.62
    },
    "category": "Научные достижения"
  },
  {
    "title": "- столбовский мир - столбово",
    "date": "1617",
    "description": "* ** 1617 , 27 февраля** - Столбовский мир - Столбово (близ Тихвина)",
    "location": {
      "name": "Столбово",
      "lat": 57.03884683867267,
      "lng": 44.66602995620825
    },
    "category": "Дипломатические события"
  },
  {
    "title": "Мирный договор между россией и швецией",
    "date": "1614-1617",
    "description": "* Мирный договор между Россией и Швецией, завершивший русско-шведскую войну 1614-1617 годов",
    "location": {
      "name": "Столбово",
      "lat": 46.03213489615062,
      "lng": 28.53592327081514
    },
    "category": "Дипломатические события"
  },
  {
    "title": "- деулинское перемирие - деулино",
    "date": "1618",
    "description": "* ** 1618 , 1 декабря** - Деулинское перемирие - Деулино (близ Троице-Сергиева монастыря)",
    "location": {
      "name": "Деулино",
      "lat": 63.371553009449,
      "lng": 43.977980315343835
    },
    "category": "Культура и религия"
  },
  {
    "title": "Перемирие между россией и речью посполитой",
    "date": "1609-1618",
    "description": "* Перемирие между Россией и Речью Посполитой, завершившее русско-польскую войну 1609-1618 годов",
    "location": {
      "name": "Деулино",
      "lat": 60.67988228066002,
      "lng": 48.51794911272927
    },
    "category": "Дипломатические события"
  },
  {
    "title": "Соборное уложение - москва",
    "date": "1649",
    "description": "* ** 1649 ** - Соборное уложение - Москва",
    "location": {
      "name": "Москва",
      "lat": 55.75,
      "lng": 37.62
    },
    "category": "Культура и религия"
  },
  {
    "title": "- русско-польская война - территория современной украины",
    "date": "1654-1667",
    "description": "* ** 1654-1667 ** - Русско-польская война - Территория современной Украины, Белоруссии, России",
    "location": {
      "name": "Украина",
      "lat": 50.45,
      "lng": 30.52
    },
    "category": "Войны и сражения"
  },
  {
    "title": "Медный бунт - москва",
    "date": "1662",
    "description": "* ** 1662 ** - Медный бунт - Москва",
    "location": {
      "name": "Москва",
      "lat": 55.75,
      "lng": 37.62
    },
    "category": "Революции и перевороты"
  },
  {
    "title": "Новоторговый устав - москва",
    "date": "1667",
    "description": "* ** 1667 ** - Новоторговый устав - Москва",
    "location": {
      "name": "Москва",
      "lat": 55.75,
      "lng": 37.62
    },
    "category": "Социальные реформы"
  },
  {
    "title": "- восстание степана разина - юг россии",
    "date": "1667-1671",
    "description": "* ** 1667-1671 ** - Восстание Степана Разина - Юг России, Поволжье",
    "location": {
      "name": "Юг России, Поволжье",
      "lat": 57.41003182004988,
      "lng": 33.686825474017205
    },
    "category": "Революции и перевороты"
  },
  {
    "title": "- отмена местничества - москва",
    "date": "1682",
    "description": "* ** 1682 ** - Отмена местничества - Москва",
    "location": {
      "name": "Москва",
      "lat": 55.75,
      "lng": 37.62
    },
    "category": "Изменения границ"
  },
  {
    "title": "- вечный мир с речью посполитой - москва",
    "date": "1686",
    "description": "* ** 1686 ** - Вечный мир с Речью Посполитой - Москва",
    "location": {
      "name": "Москва",
      "lat": 55.75,
      "lng": 37.62
    },
    "category": "Дипломатические события"
  },
  {
    "title": "Азовские походы петра i - азов",
    "date": "1695-1696",
    "description": "* ** 1695-1696 ** - Азовские походы Петра I - Азов",
    "location": {
      "name": "Азов",
      "lat": 49.98124663838108,
      "lng": 28.146315582766466
    },
    "category": "Становление государства"
  },
  {
    "title": "- северная война - прибалтика",
    "date": "1700-1721",
    "description": "* ** 1700-1721 ** - Северная война - Прибалтика, Россия, Швеция",
    "location": {
      "name": "Прибалтика",
      "lat": 46.57871394537608,
      "lng": 39.89647605658502
    },
    "category": "Войны и сражения"
  },
  {
    "title": "- основание санкт-петербурга - санкт-петербург",
    "date": "1703",
    "description": "* ** 1703 , 16 мая (27 мая по новому стилю)** - Основание Санкт-Петербурга - Санкт-Петербург",
    "location": {
      "name": "Санкт-Петербург",
      "lat": 59.94,
      "lng": 30.31
    },
    "category": "Дипломатические события"
  },
  {
    "title": "- полтавская битва - полтава",
    "date": "1709",
    "description": "* ** 1709 , 27 июня (8 июля по новому стилю)** - Полтавская битва - Полтава",
    "location": {
      "name": "Полтава",
      "lat": 49.59,
      "lng": 34.55
    },
    "category": "Войны и сражения"
  },
  {
    "title": "Учреждение сената - санкт-петербург",
    "date": "1711",
    "description": "* ** 1711 ** - Учреждение Сената - Санкт-Петербург",
    "location": {
      "name": "Санкт-Петербург",
      "lat": 59.94,
      "lng": 30.31
    },
    "category": "Территориальные приобретения"
  },
  {
    "title": "- ништадтский мир - ништадт",
    "date": "1721",
    "description": "* ** 1721 ** - Ништадтский мир - Ништадт (Уусикаупунки, Финляндия)",
    "location": {
      "name": "Ништадт",
      "lat": 50.11589284799052,
      "lng": 47.66474760884428
    },
    "category": "Дипломатические события"
  },
  {
    "title": "Провозглашение россии империей - санкт-петербург",
    "date": "1721",
    "description": "* ** 1721 ** - Провозглашение России империей - Санкт-Петербург",
    "location": {
      "name": "Санкт-Петербург",
      "lat": 59.94,
      "lng": 30.31
    },
    "category": "Культура и религия"
  },
  {
    "title": "Табель о рангах - санкт-петербург",
    "date": "1722",
    "description": "* ** 1722 ** - Табель о рангах - Санкт-Петербург",
    "location": {
      "name": "Санкт-Петербург",
      "lat": 59.94,
      "lng": 30.31
    },
    "category": "Становление государства"
  },
  {
    "title": "- открытие академии наук - санкт-петербург",
    "date": "1725",
    "description": "* ** 1725 ** - Открытие Академии наук - Санкт-Петербург",
    "location": {
      "name": "Санкт-Петербург",
      "lat": 59.94,
      "lng": 30.31
    },
    "category": "Научные достижения"
  },
  {
    "title": "- манифест о вольности дворянства - санкт-петербург",
    "date": "1762",
    "description": "* ** 1762 ** - Манифест о вольности дворянства - Санкт-Петербург",
    "location": {
      "name": "Санкт-Петербург",
      "lat": 59.94,
      "lng": 30.31
    },
    "category": "Экономические события"
  },
  {
    "title": "- русско-турецкая война - территория современной украины",
    "date": "1768-1774",
    "description": "* ** 1768-1774 ** - Русско-турецкая война - Территория современной Украины, России, Турции",
    "location": {
      "name": "Крым",
      "lat": 45.3,
      "lng": 34.2
    },
    "category": "Войны и сражения"
  },
  {
    "title": "- восстание емельяна пугачева - поволжье",
    "date": "1773-1775",
    "description": "* ** 1773-1775 ** - Восстание Емельяна Пугачева - Поволжье, Урал",
    "location": {
      "name": "Поволжье",
      "lat": 46.733163495164405,
      "lng": 51.691265908106075
    },
    "category": "Революции и перевороты"
  },
  {
    "title": "- губернская реформа - российская империя",
    "date": "1775",
    "description": "* ** 1775 ** - Губернская реформа - Российская империя",
    "location": {
      "name": "Российская империя",
      "lat": 52.57128543974035,
      "lng": 40.850861012759
    },
    "category": "Социальные реформы"
  },
  {
    "title": "Присоединение крыма к россии - крым",
    "date": "1783",
    "description": "* ** 1783 ** - Присоединение Крыма к России - Крым",
    "location": {
      "name": "Крым",
      "lat": 45.3,
      "lng": 34.2
    },
    "category": "Изменения границ"
  },
  {
    "title": "Жалованная грамота дворянству - санкт-петербург",
    "date": "1785",
    "description": "* ** 1785 ** - Жалованная грамота дворянству - Санкт-Петербург",
    "location": {
      "name": "Санкт-Петербург",
      "lat": 59.94,
      "lng": 30.31
    },
    "category": "Восстания и бунты"
  },
  {
    "title": "Жалованная грамота городам - санкт-петербург",
    "date": "1785",
    "description": "* ** 1785 ** - Жалованная грамота городам - Санкт-Петербург",
    "location": {
      "name": "Санкт-Петербург",
      "lat": 59.94,
      "lng": 30.31
    },
    "category": "Дипломатические события"
  },
  {
    "title": "- указ о трехдневной барщине - российская империя",
    "date": "1796",
    "description": "* ** 1796 ** - Указ о трехдневной барщине - Российская империя",
    "location": {
      "name": "Российская империя",
      "lat": 49.61962429606987,
      "lng": 30.44831125355498
    },
    "category": "Политические реформы"
  },
  {
    "title": "Убийство павла i - санкт-петербург",
    "date": "1801",
    "description": "* ** 1801 ** - Убийство Павла I - Санкт-Петербург",
    "location": {
      "name": "Санкт-Петербург",
      "lat": 59.94,
      "lng": 30.31
    },
    "category": "Революции и перевороты"
  },
  {
    "title": "Кронштадтское восстание** - кронштадт, рсфср",
    "date": "1921",
    "description": "* ** 1921 ** - **Кронштадтское восстание** - Кронштадт, РСФСР",
    "location": {
      "name": "Кронштадт",
      "lat": 63.56860153259272,
      "lng": 28.830586924574252
    },
    "category": "Революции и перевороты"
  },
  {
    "title": "Конференция в генуе** - генуя, италия",
    "date": "1922",
    "description": "* ** 1922 ** - **Конференция в Генуе** - Генуя, Италия",
    "location": {
      "name": "Генуя",
      "lat": 58.12169720488431,
      "lng": 46.63934624909889
    },
    "category": "Культура и религия"
  },
  {
    "title": "Кризис с репарациями\"** - германия",
    "date": "1923",
    "description": "* ** 1923 ** - **\"Кризис с репарациями\"** - Германия",
    "location": {
      "name": "Германия",
      "lat": 60.61916243748025,
      "lng": 39.24162535371007
    },
    "category": "Экономические события"
  },
  {
    "title": "План дауэса** - лондон, великобритания",
    "date": "1924",
    "description": "* ** 1924 ** - **План Дауэса** - Лондон, Великобритания",
    "location": {
      "name": "Лондон",
      "lat": 51.51,
      "lng": -0.13
    },
    "category": "Экономические события"
  },
  {
    "title": "Локарнские договоры",
    "date": "1925",
    "description": "* ** 1925 ** - **Локарнские договоры** - Локарно, Швейцария",
    "location": {
      "name": "Локарно",
      "lat": 49.562621300358224,
      "lng": 41.551615773816124
    },
    "category": "Дипломатические события"
  },
  {
    "title": "Пилсудский совершает майский переворот** - варшава, польша",
    "date": "1926",
    "description": "* ** 1926 ** - **Пилсудский совершает майский переворот** - Варшава, Польша",
    "location": {
      "name": "Варшава",
      "lat": 55.53160634301345,
      "lng": 39.683719136575654
    },
    "category": "Революции и перевороты"
  },
  {
    "title": "Шанхайская резня** - шанхай, китай",
    "date": "1927",
    "description": "* ** 1927 ** - **Шанхайская резня** - Шанхай, Китай",
    "location": {
      "name": "Шанхай",
      "lat": 49.066442148539785,
      "lng": 41.70992027182166
    },
    "category": "Политические реформы"
  },
  {
    "title": "Пакт келлога-бриана** - париж, франция",
    "date": "1928",
    "description": "* ** 1928 ** - **Пакт Келлога-Бриана** - Париж, Франция",
    "location": {
      "name": "Париж",
      "lat": 48.86,
      "lng": 2.35
    },
    "category": "Становление государства"
  },
  {
    "title": "Начало великой депрессии** - нью-йорк, сша",
    "date": "1929",
    "description": "* ** 1929 ** - **Начало Великой депрессии** - Нью-Йорк, США",
    "location": {
      "name": "Нью-Йорк",
      "lat": 49.670827329660725,
      "lng": 27.715119803265097
    },
    "category": "Революции и перевороты"
  },
  {
    "title": "Соляной поход\" ганди** - индия",
    "date": "1930",
    "description": "* ** 1930 ** - **\"Соляной поход\" Ганди** - Индия",
    "location": {
      "name": "Индия",
      "lat": 45.6538063514302,
      "lng": 45.77656617593158
    },
    "category": "Экономические события"
  },
  {
    "title": "Японская интервенция в маньчжурию** - маньчжурия, китай",
    "date": "1931",
    "description": "* ** 1931 ** - **Японская интервенция в Маньчжурию** - Маньчжурия, Китай",
    "location": {
      "name": "Маньчжурия",
      "lat": 52.75775089614495,
      "lng": 37.06442271580447
    },
    "category": "Восстания и бунты"
  },
  {
    "title": "Конференция в лозанне** - лозанна, швейцария",
    "date": "1932",
    "description": "* ** 1932 ** - **Конференция в Лозанне** - Лозанна, Швейцария",
    "location": {
      "name": "Лозанна",
      "lat": 47.08720552800711,
      "lng": 46.429776866779235
    },
    "category": "Политические реформы"
  },
  {
    "title": "Приход гитлера к власти** - берлин, германия",
    "date": "1933",
    "description": "* ** 1933 ** - **Приход Гитлера к власти** - Берлин, Германия",
    "location": {
      "name": "Берлин",
      "lat": 52.52,
      "lng": 13.4
    },
    "category": "Политические реформы"
  },
  {
    "title": "Ночь длинных ножей\"** - германия",
    "date": "1934",
    "description": "* ** 1934 ** - **\"Ночь длинных ножей\"** - Германия",
    "location": {
      "name": "Германия",
      "lat": 52.29817868111348,
      "lng": 47.51681794526773
    },
    "category": "Культура и религия"
  },
  {
    "title": "Нюрнбергские расовые законы** - нюрнберг, германия",
    "date": "1935",
    "description": "* ** 1935 ** - **Нюрнбергские расовые законы** - Нюрнберг, Германия",
    "location": {
      "name": "Нюрнберг",
      "lat": 52.139780863435846,
      "lng": 30.86460668934142
    },
    "category": "Социальные реформы"
  },
  {
    "title": "Начало гражданской войны в испании** - испания",
    "date": "1936",
    "description": "* ** 1936 ** - **Начало гражданской войны в Испании** - Испания",
    "location": {
      "name": "Испания",
      "lat": 52.76402128810547,
      "lng": 28.529792410326195
    },
    "category": "Войны и сражения"
  },
  {
    "title": "Нанкинская резня\"** - нанкин, китай",
    "date": "1937",
    "description": "* ** 1937 ** - **\"Нанкинская резня\"** - Нанкин, Китай",
    "location": {
      "name": "Нанкин",
      "lat": 61.87710145419132,
      "lng": 32.73639545324707
    },
    "category": "Революции и перевороты"
  },
  {
    "title": "Аншлюс австрии** - австрия",
    "date": "1938",
    "description": "* ** 1938 ** - **Аншлюс Австрии** - Австрия",
    "location": {
      "name": "Вена",
      "lat": 48.21,
      "lng": 16.37
    },
    "category": "Экономические события"
  },
  {
    "title": "Пакт молотова-риббентропа** - москва, ссср",
    "date": "1939",
    "description": "* ** 1939 ** - **Пакт Молотова-Риббентропа** - Москва, СССР",
    "location": {
      "name": "Москва",
      "lat": 55.75,
      "lng": 37.62
    },
    "category": "Политические реформы"
  }
]