[
  {
    "title": "Год ** - захват олегом киева -",
    "date": "882 год",
    "description": "* ** 882 год ** - Захват Олегом Киева - Киев",
    "location": {
      "name": "Киев",
      "lat": 50.45,
      "lng": 30.52
    },
    "category": "Экономические события"
  },
  {
    "title": "Год ** - поход олега на константинополь",
    "date": "907 год",
    "description": "* ** 907 год ** - Поход Олега на Константинополь - Константинополь (Царьград)",
    "location": {
      "name": "Константинополь",
      "lat": 41.01,
      "lng": 28.97
    },
    "category": "Культура и религия"
  },
  {
    "title": "- договор руси с византией - константинополь",
    "date": "911 год",
    "description": "* ** 911 год ** - Договор Руси с Византией - Константинополь",
    "location": {
      "name": "Константинополь",
      "lat": 41.01,
      "lng": 28.97
    },
    "category": "Дипломатические события"
  },
  {
    "title": "- договор игоря с византией - константинополь",
    "date": "944 год",
    "description": "* ** 944 год ** - Договор Игоря с Византией - Константинополь",
    "location": {
      "name": "Константинополь",
      "lat": 41.01,
      "lng": 28.97
    },
    "category": "Дипломатические события"
  },
  {
    "title": "Год ** - убийство князя игоря древлянами",
    "date": "945 год",
    "description": "* ** 945 год ** - Убийство князя Игоря древлянами - Около Искоростеня (современный Коростень, Украина)",
    "location": {
      "name": "Около Искоростеня (современный Коростень, Украина)",
      "lat": 50.45,
      "lng": 30.52
    },
    "category": "Экономические события"
  },
  {
    "title": "Год ** - месть княгини ольги древлянам",
    "date": "946 год",
    "description": "* ** 946 год ** - Месть княгини Ольги древлянам - Искоростень и другие поселения древлян",
    "location": {
      "name": "Искоростень",
      "lat": 64.04180988219704,
      "lng": 33.35231920238386
    },
    "category": "Становление государства"
  },
  {
    "title": "Годы** - походы князя святослава - волжская",
    "date": "964",
    "description": "* ** 964 -972 годы** - Походы князя Святослава - Волжская Булгария, Хазарский каганат, Византия, Балканы",
    "location": {
      "name": "Волжская Булгария",
      "lat": 56.09756990750874,
      "lng": 40.701050514192495
    },
    "category": "Экономические события"
  },
  {
    "title": "- правление князя владимира святославича - киев",
    "date": "980-1015",
    "description": "* ** 980-1015 годы** - Правление князя Владимира Святославича - Киев",
    "location": {
      "name": "Киев",
      "lat": 50.45,
      "lng": 30.52
    },
    "category": "Дипломатические события"
  },
  {
    "title": "- крещение руси - киев",
    "date": "988 год",
    "description": "* ** 988 год ** - Крещение Руси - Киев, Херсонес (Корсунь)",
    "location": {
      "name": "Киев",
      "lat": 50.45,
      "lng": 30.52
    },
    "category": "Революции и перевороты"
  },
  {
    "title": "- междоусобная борьба за власть после смерти владимира святославича - киев",
    "date": "1015-1019",
    "description": "* ** 1015-1019 годы** - Междоусобная борьба за власть после смерти Владимира Святославича - Киев, Русь",
    "location": {
      "name": "Киев",
      "lat": 50.45,
      "lng": 30.52
    },
    "category": "Дипломатические события"
  },
  {
    "title": "Годы** - правление ярослава мудрого - киев",
    "date": "1019-1054",
    "description": "* ** 1019-1054 годы** - Правление Ярослава Мудрого - Киев",
    "location": {
      "name": "Киев",
      "lat": 50.45,
      "lng": 30.52
    },
    "category": "Территориальные приобретения"
  },
  {
    "title": "Год ** - разгром печенегов ярославом мудрым",
    "date": "1036 год",
    "description": "* ** 1036 год ** - Разгром печенегов Ярославом Мудрым - Около Киева",
    "location": {
      "name": "Киев",
      "lat": 50.45,
      "lng": 30.52
    },
    "category": "Военные кампании"
  },
  {
    "title": "- основание киево-печерского монастыря - около киева",
    "date": "1051 год",
    "description": "* ** 1051 год ** - Основание Киево-Печерского монастыря - Около Киева",
    "location": {
      "name": "Около Киева",
      "lat": 50.45,
      "lng": 30.52
    },
    "category": "Культура и религия"
  },
  {
    "title": "- смерть ярослава мудрого и начало периода раздробленности - киев",
    "date": "1054 год",
    "description": "* ** 1054 год ** - Смерть Ярослава Мудрого и начало периода раздробленности - Киев",
    "location": {
      "name": "Киев",
      "lat": 50.45,
      "lng": 30.52
    },
    "category": "Изменения границ"
  },
  {
    "title": "Год ** - нашествие половцев на русь",
    "date": "1068 год",
    "description": "* ** 1068 год ** - Нашествие половцев на Русь - Русь",
    "location": {
      "name": "Переяславль",
      "lat": 54.07735385598446,
      "lng": 36.14588060082114
    },
    "category": "Научные достижения"
  },
  {
    "title": "Год ** - любечский съезд князей -",
    "date": "1097 год",
    "description": "* ** 1097 год ** - Любечский съезд князей - Любеч",
    "location": {
      "name": "Любеч",
      "lat": 53.03166562574508,
      "lng": 51.780293881611044
    },
    "category": "Становление государства"
  },
  {
    "title": "Год ** - первое упоминание о москве",
    "date": "1147 год",
    "description": "* ** 1147 год ** - Первое упоминание о Москве в летописи - Москва",
    "location": {
      "name": "Москва",
      "lat": 55.75,
      "lng": 37.62
    },
    "category": "Изменения границ"
  },
  {
    "title": "Год ** - взятие киева войсками андрея",
    "date": "1169 год",
    "description": "* ** 1169 год ** - Взятие Киева войсками Андрея Боголюбского - Киев",
    "location": {
      "name": "Киев",
      "lat": 50.45,
      "lng": 30.52
    },
    "category": "Военные кампании"
  },
  {
    "title": "Год ** - неудачный поход князя игоря",
    "date": "1185 год",
    "description": "* ** 1185 год ** - Неудачный поход князя Игоря Святославича против половцев - Река Каяла (предположительно)",
    "location": {
      "name": "Река Каяла",
      "lat": 56.745535240511956,
      "lng": 27.8318232646559
    },
    "category": "Революции и перевороты"
  },
  {
    "title": "- битва на реке калке - река калка",
    "date": "1223 год",
    "description": "* ** 1223 год ** - Битва на реке Калке - Река Калка (современ",
    "location": {
      "name": "Река Калка",
      "lat": 49.45877382785788,
      "lng": 29.44546053464472
    },
    "category": "Войны и сражения"
  },
  {
    "title": "Е годы] - **поход русов на аморий**",
    "date": "830",
    "description": "[~ 830 -е годы] - **Поход русов на Аморий** - Малая Азия (Византийская империя)",
    "location": {
      "name": "Аморий",
      "lat": 48.09149262279614,
      "lng": 48.632160604123065
    },
    "category": "Дипломатические события"
  },
  {
    "title": "Год ] - **поход аскольда и дира",
    "date": "860 год",
    "description": "[~ 860 год ] - **Поход Аскольда и Дира на Константинополь** - Константинополь",
    "location": {
      "name": "Константинополь",
      "lat": 41.01,
      "lng": 28.97
    },
    "category": "Основание городов"
  },
  {
    "title": "Год ] - **захват киева олегом** -",
    "date": "882 год",
    "description": "[~ 882 год ] - **Захват Киева Олегом** - Киев",
    "location": {
      "name": "Киев",
      "lat": 50.45,
      "lng": 30.52
    },
    "category": "Становление государства"
  },
  {
    "title": "Год ] - **путешествие ибн фадлана к",
    "date": "921 год",
    "description": "[~ 921 год ] - **Путешествие Ибн Фадлана к волжским булгарам** - Волжская Булгария",
    "location": {
      "name": "Волжская Булгария",
      "lat": 48.941048829822066,
      "lng": 43.81953269132478
    },
    "category": "Основание городов"
  },
  {
    "title": "Год ] - **договор игоря с византией**",
    "date": "944 год",
    "description": "[~ 944 год ] - **Договор Игоря с Византией** - Киев, Константинополь",
    "location": {
      "name": "Киев",
      "lat": 50.45,
      "lng": 30.52
    },
    "category": "Дипломатические события"
  },
  {
    "title": "Годы] - **походы святослава против хазар** -",
    "date": "964",
    "description": "[~ 964 -966 годы] - **Походы Святослава против хазар** - Поволжье, Северный Кавказ",
    "location": {
      "name": "Поволжье",
      "lat": 50.3002082616779,
      "lng": 38.05212998291425
    },
    "category": "Основание городов"
  },
  {
    "title": "Языческая реформа владимира",
    "date": "980 год",
    "description": "[~ 980 год ] - **Языческая реформа Владимира** - Киев",
    "location": {
      "name": "Киев",
      "lat": 50.45,
      "lng": 30.52
    },
    "category": "Социальные реформы"
  },
  {
    "title": "Год ] - **битва на реке трубеж**",
    "date": "992 год",
    "description": "[~ 992 год ] - **Битва на реке Трубеж** - Переяславль",
    "location": {
      "name": "Переяславль",
      "lat": 64.1711415750688,
      "lng": 46.02254110602513
    },
    "category": "Войны и сражения"
  },
  {
    "title": "Междоусобная война между сыновьями владимира",
    "date": "1015-1019",
    "description": "[ 1015-1019 годы] - **Междоусобная война между сыновьями Владимира** - Киевская Русь",
    "location": {
      "name": "Киев",
      "lat": 50.45,
      "lng": 30.52
    },
    "category": "Войны и сражения"
  },
  {
    "title": "Год ] - **восстание в киеве** -",
    "date": "1068 год",
    "description": "[ 1068 год ] - **Восстание в Киеве** - Киев",
    "location": {
      "name": "Киев",
      "lat": 50.45,
      "lng": 30.52
    },
    "category": "Революции и перевороты"
  },
  {
    "title": "Год ] - **вышгородский съезд князей** -",
    "date": "1072 год",
    "description": "[ 1072 год ] - **Вышгородский съезд князей** - Вышгород",
    "location": {
      "name": "Вышгород",
      "lat": 51.16763249323874,
      "lng": 33.55642825195094
    },
    "category": "Дипломатические события"
  },
  {
    "title": "Год ] - **любечский съезд князей** -",
    "date": "1097 год",
    "description": "[ 1097 год ] - **Любечский съезд князей** - Любеч",
    "location": {
      "name": "Любеч",
      "lat": 62.85270669138424,
      "lng": 47.29423585665259
    },
    "category": "Территориальные приобретения"
  },
  {
    "title": "Год ] - **поход игоря святославича на",
    "date": "1185 год",
    "description": "[ 1185 год ] - **Поход Игоря Святославича на половцев** - Половецкая степь",
    "location": {
      "name": "Половецкая степь",
      "lat": 61.279465788989874,
      "lng": 33.59856970404714
    },
    "category": "Культура и религия"
  },
  {
    "title": "Год ] - **битва на реке калке**",
    "date": "1223 год",
    "description": "[ 1223 год ] - **Битва на реке Калке** - Река Калка (современная Донецкая область)",
    "location": {
      "name": "Донецкая область",
      "lat": 52.925035902576326,
      "lng": 51.42312110218603
    },
    "category": "Войны и сражения"
  },
  {
    "title": "Год ] - **оборона козельска** - козельск",
    "date": "1238 год",
    "description": "[ 1238 год ] - **Оборона Козельска** - Козельск",
    "location": {
      "name": "Козельск",
      "lat": 55.08889234526302,
      "lng": 29.392136629475388
    },
    "category": "Войны и сражения"
  },
  {
    "title": "Год ] - **взятие киева батыем** -",
    "date": "1240 год",
    "description": "[ 1240 год ] - **Взятие Киева Батыем** - Киев",
    "location": {
      "name": "Киев",
      "lat": 50.45,
      "lng": 30.52
    },
    "category": "Экономические события"
  },
  {
    "title": "Год ] - **ледовое побоище** - чудское",
    "date": "1242 год",
    "description": "[ 1242 год ] - **Ледовое побоище** - Чудское озеро",
    "location": {
      "name": "Чудское озеро",
      "lat": 60.28091714864377,
      "lng": 47.872718636629116
    },
    "category": "Дипломатические события"
  }
]