[
  {
    "title": "Год ** - **провозглашение тэмуджина чингисханом** -",
    "date": "1206 год",
    "description": "* ** 1206 год ** - **Провозглашение Тэмуджина Чингисханом** - **Река Онон, Монголия**",
    "location": {
      "name": "Река Онон, Монголия",
      "lat": 49.713126347525886,
      "lng": 39.73863009639569
    },
    "category": "Политические реформы"
  },
  {
    "title": "Год ** - **битва на реке калке**",
    "date": "1221 год",
    "description": "* ** 1221 год ** - **Битва на реке Калке** - **Река Калка (современная Донецкая область, Украина)**",
    "location": {
      "name": "Река Калка (современная Донецкая область, Украина)",
      "lat": 50.45,
      "lng": 30.52
    },
    "category": "Войны и сражения"
  },
  {
    "title": "Год ** - **возвращение монгольских войск после",
    "date": "1223 год",
    "description": "* ** 1223 год ** - **Возвращение монгольских войск после битвы на Калке** - **Монголия**",
    "location": {
      "name": "Монголия",
      "lat": 51.666334351942,
      "lng": 41.436809375627554
    },
    "category": "Социальные реформы"
  },
  {
    "title": "Год ** - **курултай в каракоруме** -",
    "date": "1235 год",
    "description": "* ** 1235 год ** - **Курултай в Каракоруме** - **Каракорум, Монголия**",
    "location": {
      "name": "Каракорум, Монголия",
      "lat": 52.803511291495546,
      "lng": 27.20440157583927
    },
    "category": "Территориальные приобретения"
  },
  {
    "title": "Год , зима** - **начало батыева нашествия",
    "date": "1237 год",
    "description": "* ** 1237 год , зима** - **Начало Батыева нашествия на Русь** - **Рязанское княжество**",
    "location": {
      "name": "Рязанское княжество",
      "lat": 46.41971502040584,
      "lng": 29.164972952596013
    },
    "category": "Становление государства"
  },
  {
    "title": "Декабрь 1237 года** - **осада и взятие",
    "date": "1237",
    "description": "* **Декабрь 1237 года** - **Осада и взятие Рязани** - **Рязань**",
    "location": {
      "name": "Рязань",
      "lat": 64.65323901124131,
      "lng": 37.36580084258164
    },
    "category": "Войны и сражения"
  },
  {
    "title": "Январь 1238 года** - **битва под коломной**",
    "date": "1238",
    "description": "* **Январь 1238 года** - **Битва под Коломной** - **Окрестности Коломны**",
    "location": {
      "name": "Окрестности Коломны",
      "lat": 53.74752374909959,
      "lng": 33.29658747520164
    },
    "category": "Войны и сражения"
  },
  {
    "title": "Январь 1238 года** - **взятие москвы** -",
    "date": "1238",
    "description": "* **Январь 1238 года** - **Взятие Москвы** - **Москва**",
    "location": {
      "name": "Москва",
      "lat": 55.75,
      "lng": 37.62
    },
    "category": "Культура и религия"
  },
  {
    "title": "Осада и взятие владимира",
    "date": "1238",
    "description": "* **Февраль 1238 года** - **Осада и взятие Владимира** - **Владимир**",
    "location": {
      "name": "Владимир",
      "lat": 56.13,
      "lng": 40.42
    },
    "category": "Войны и сражения"
  },
  {
    "title": "Марта 1238 года** - **битва на реке",
    "date": "1238",
    "description": "* **4 марта 1238 года** - **Битва на реке Сить** - **Река Сить (Ярославская область)**",
    "location": {
      "name": "Река Сить (Ярославская область)",
      "lat": 64.20073319971367,
      "lng": 41.85395490354154
    },
    "category": "Войны и сражения"
  },
  {
    "title": "Марта 1238 год а** - **битва на",
    "date": "4 марта 1238 год",
    "description": "* ** 4 марта 1238 год а** - **Битва на реке Сить** - **Река Сить (Ярославская область)**",
    "location": {
      "name": "Река Сить (Ярославская область)",
      "lat": 56.17997995637561,
      "lng": 51.79987280592101
    },
    "category": "Войны и сражения"
  },
  {
    "title": "Март 1238 года** - **осада торжка** -",
    "date": "1238",
    "description": "* **Март 1238 года** - **Осада Торжка** - **Торжок**",
    "location": {
      "name": "Торжок",
      "lat": 47.928181023012534,
      "lng": 36.33743302461751
    },
    "category": "Войны и сражения"
  },
  {
    "title": "Март-апрель 1238 года** - **осада козельска** -",
    "date": "1238",
    "description": "* **Март-апрель 1238 года** - **Осада Козельска** - **Козельск**",
    "location": {
      "name": "Козельск",
      "lat": 58.82392961314099,
      "lng": 27.689709181210496
    },
    "category": "Войны и сражения"
  },
  {
    "title": "Год ** - **поход монголов на новгород**",
    "date": "1238 год",
    "description": "* ** 1238 год ** - **Поход монголов на Новгород** - **Новгородская земля**",
    "location": {
      "name": "Новгородская земля",
      "lat": 58.52,
      "lng": 31.27
    },
    "category": "Войны и сражения"
  },
  {
    "title": "Год ** - **разорение переяславля** - **переяславль-залесский**",
    "date": "1239 год",
    "description": "* ** 1239 год ** - **Разорение Переяславля** - **Переяславль-Залесский**",
    "location": {
      "name": "Переяславль-Залесский",
      "lat": 47.51234201789977,
      "lng": 45.243797277087545
    },
    "category": "Социальные реформы"
  },
  {
    "title": "Год ** - **разорение чернигова** - **чернигов**",
    "date": "1239 год",
    "description": "* ** 1239 год ** - **Разорение Чернигова** - **Чернигов**",
    "location": {
      "name": "Чернигов",
      "lat": 57.31779993543032,
      "lng": 45.660389260691815
    },
    "category": "Территориальные приобретения"
  },
  {
    "title": "Год ** - **взятие киева** - **киев**",
    "date": "1240 год",
    "description": "* ** 1240 год ** - **Взятие Киева** - **Киев**",
    "location": {
      "name": "Киев",
      "lat": 50.45,
      "lng": 30.52
    },
    "category": "Территориальные приобретения"
  },
  {
    "title": "Год ** - **разорение галицко-волынской руси** -",
    "date": "1240 год",
    "description": "* ** 1240 год ** - **Разорение Галицко-Волынской Руси** - **Галицко-Волынское княжество**",
    "location": {
      "name": "Галицко-Волынское княжество",
      "lat": 59.55601478911438,
      "lng": 36.322710147636336
    },
    "category": "Становление государства"
  },
  {
    "title": "Год ** - **вторжение в польшу и",
    "date": "1241 год",
    "description": "* ** 1241 год ** - **Вторжение в Польшу и Венгрию** - **Польша, Венгрия**",
    "location": {
      "name": "Польша, Венгрия",
      "lat": 48.43801726772842,
      "lng": 46.622138680758525
    },
    "category": "Восстания и бунты"
  },
  {
    "title": "Апреля 1241 года** - **битва при легнице**",
    "date": "1241",
    "description": "* **9 апреля 1241 года** - **Битва при Легнице** - **Легница, Польша**",
    "location": {
      "name": "Легница, Польша",
      "lat": 63.15440193145781,
      "lng": 45.328571552666716
    },
    "category": "Войны и сражения"
  },
  {
    "title": "Апреля 1241 год а** - **битва при",
    "date": "9 апреля 1241 год",
    "description": "* ** 9 апреля 1241 год а** - **Битва при Легнице** - **Легница, Польша**",
    "location": {
      "name": "Легница",
      "lat": 58.65778999221691,
      "lng": 29.353352694425478
    },
    "category": "Войны и сражения"
  },
  {
    "title": "Апреля 1241 года** - **битва на реке",
    "date": "1241",
    "description": "* **11 апреля 1241 года** - **Битва на реке Шайо** - **Река Шайо, Венгрия**",
    "location": {
      "name": "Река Шайо, Венгрия",
      "lat": 52.965616950863875,
      "lng": 44.06612791888315
    },
    "category": "Войны и сражения"
  },
  {
    "title": "Апреля 1241 год а** - **битва на",
    "date": "11 апреля 1241 год",
    "description": "* ** 11 апреля 1241 год а** - **Битва на реке Шайо** - **Река Шайо, Венгрия**",
    "location": {
      "name": "Река Шайо, Венгрия",
      "lat": 60.957405856869556,
      "lng": 47.05761831579785
    },
    "category": "Войны и сражения"
  },
  {
    "title": "Год ** - **возвращение батыя в поволжье**",
    "date": "1242 год",
    "description": "* ** 1242 год ** - **Возвращение Батыя в Поволжье** - **Поволжье**",
    "location": {
      "name": "Поволжье",
      "lat": 50.1371900661293,
      "lng": 38.224028516172424
    },
    "category": "Изменения границ"
  },
  {
    "title": "Год ** - **ярослав всеволодович получает ярлык",
    "date": "1243 год",
    "description": "* ** 1243 год ** - **Ярослав Всеволодович получает ярлык на великое княжение** - **Сарай-Бату, Золотая Орда**",
    "location": {
      "name": "Сарай-Бату",
      "lat": 51.49378314818823,
      "lng": 43.410957366354246
    },
    "category": "Политические реформы"
  },
  {
    "title": "Год ** - **гибель ярослава всеволодовича в",
    "date": "1246 год",
    "description": "* ** 1246 год ** - **Гибель Ярослава Всеволодовича в Каракоруме** - **Каракорум, Монголия**",
    "location": {
      "name": "Каракорум",
      "lat": 49.068253835319396,
      "lng": 49.93766798251265
    },
    "category": "Научные достижения"
  },
  {
    "title": "Владимирское княжество",
    "date": "1252 год",
    "description": "* ** 1252 год ** - **Неврюева рать** - **Владимирское княжество**",
    "location": {
      "name": "Владимир",
      "lat": 56.13,
      "lng": 40.42
    },
    "category": "Становление государства"
  },
  {
    "title": "Годы** - **перепись населения руси** - **русские",
    "date": "1257-1259",
    "description": "* ** 1257-1259 годы** - **Перепись населения Руси** - **Русские княжества**",
    "location": {
      "name": "Русские княжества",
      "lat": 55.22638766092439,
      "lng": 30.411471940656284
    },
    "category": "Становление государства"
  },
  {
    "title": "Год ** - **восстания в русских городах",
    "date": "1262 год",
    "description": "* ** 1262 год ** - **Восстания в русских городах против откупщиков дани** - **Ростов, Ярославль, Суздаль, Владимир**",
    "location": {
      "name": "Ростов, Ярославль, Суздаль, Владимир",
      "lat": 56.13,
      "lng": 40.42
    },
    "category": "Революции и перевороты"
  },
  {
    "title": "Год ** - **разорение курска** - **курск**",
    "date": "1276 год",
    "description": "* ** 1276 год ** - **Разорение Курска** - **Курск**",
    "location": {
      "name": "Курск",
      "lat": 54.206193743605354,
      "lng": 46.46727961702565
    },
    "category": "Становление государства"
  },
  {
    "title": "Год ** - **дюденева рать** - **русские",
    "date": "1281 год",
    "description": "* ** 1281 год ** - **Дюденева рать** - **Русские княжества**",
    "location": {
      "name": "Северо-Восточная Русь",
      "lat": 54.36591353085042,
      "lng": 36.75575743715035
    },
    "category": "Становление государства"
  },
  {
    "title": "Год ** - **дюденева рать (повторная)** -",
    "date": "1293 год",
    "description": "* ** 1293 год ** - **Дюденева рать (повторная)** - **Русские княжества**",
    "location": {
      "name": "Владимир",
      "lat": 56.13,
      "lng": 40.42
    },
    "category": "Становление государства"
  },
  {
    "title": "Год ** - **тверское восстание** - **тверь**",
    "date": "1327 год",
    "description": "* ** 1327 год ** - **Тверское восстание** - **Тверь**",
    "location": {
      "name": "Тверь",
      "lat": 55.53991937402236,
      "lng": 37.30931765045619
    },
    "category": "Революции и перевороты"
  },
  {
    "title": "Марта - **битва на реке сить** -",
    "date": "1238",
    "description": "* 1238 , 4 марта - **Битва на реке Сить** - Река Сить, Ярославская область",
    "location": {
      "name": "Река Сить, Ярославская область",
      "lat": 52.66842501896889,
      "lng": 46.131464174023534
    },
    "category": "Войны и сражения"
  },
  {
    "title": "Июня - **оборона торжка** - торжок, тверская",
    "date": "1238",
    "description": "* 1238 , 5 июня - **Оборона Торжка** - Торжок, Тверская область",
    "location": {
      "name": "Торжок, Тверская область",
      "lat": 59.43783237008933,
      "lng": 27.707864891784734
    },
    "category": "Войны и сражения"
  },
  {
    "title": "Взятие дмитрова** - дмитров, московская область",
    "date": "1238",
    "description": "* 1238 - **Взятие Дмитрова** - Дмитров, Московская область",
    "location": {
      "name": "Дмитров, Московская область",
      "lat": 55.75,
      "lng": 37.0
    },
    "category": "Культура и религия"
  },
  {
    "title": "Взятие козельска** - козельск, калужская область",
    "date": "1238",
    "description": "* 1238 - **Взятие Козельска** - Козельск, Калужская область",
    "location": {
      "name": "Козельск, Калужская область",
      "lat": 49.11486868139702,
      "lng": 31.936470109139947
    },
    "category": "Научные достижения"
  },
  {
    "title": "Разорение окрестностей смоленска** - смоленская земля",
    "date": "1238",
    "description": "* 1238 - **Разорение окрестностей Смоленска** - Смоленская земля",
    "location": {
      "name": "Смоленская земля",
      "lat": 54.78,
      "lng": 32.05
    },
    "category": "Изменения границ"
  },
  {
    "title": "Разорение мурома и городца** - муром, городец",
    "date": "1239",
    "description": "* 1239 - **Разорение Мурома и Городца** - Муром, Городец",
    "location": {
      "name": "Муром, Городец",
      "lat": 53.594646039909684,
      "lng": 50.802195018431824
    },
    "category": "Дипломатические события"
  },
  {
    "title": "Взятие переяславля-южного** - переяславль-южный (ныне переяслав, украина",
    "date": "1239",
    "description": "* 1239 - **Взятие Переяславля-Южного** - Переяславль-Южный (ныне Переяслав, Украина)",
    "location": {
      "name": "Переяслав",
      "lat": 49.4909527494457,
      "lng": 45.63550789766671
    },
    "category": "Политические реформы"
  },
  {
    "title": "Взятие чернигова** - чернигов, украина",
    "date": "1239",
    "description": "* 1239 - **Взятие Чернигова** - Чернигов, Украина",
    "location": {
      "name": "Чернигов, Украина",
      "lat": 50.45,
      "lng": 30.52
    },
    "category": "Дипломатические события"
  },
  {
    "title": "Осень - **осада киева** - киев, украина",
    "date": "1240",
    "description": "* 1240 , осень - **Осада Киева** - Киев, Украина",
    "location": {
      "name": "Киев",
      "lat": 50.45,
      "lng": 30.52
    },
    "category": "Войны и сражения"
  },
  {
    "title": "Декабря - **взятие киева** - киев, украина",
    "date": "1240",
    "description": "* 1240 , 6 декабря - **Взятие Киева** - Киев, Украина",
    "location": {
      "name": "Киев",
      "lat": 50.45,
      "lng": 30.52
    },
    "category": "Изменения границ"
  },
  {
    "title": "Разорение галицкой и волынской земель** - галицко-волынское",
    "date": "1240",
    "description": "* 1240 - **Разорение Галицкой и Волынской земель** - Галицко-Волынское княжество",
    "location": {
      "name": "Галицко-Волынское княжество",
      "lat": 62.16112415151101,
      "lng": 41.61431557910423
    },
    "category": "Становление государства"
  },
  {
    "title": "Битва под легницей** - легница, польша",
    "date": "1241",
    "description": "* 1241 - **Битва под Легницей** - Легница, Польша",
    "location": {
      "name": "Легница, Польша",
      "lat": 48.58487298058386,
      "lng": 51.17798586516894
    },
    "category": "Войны и сражения"
  },
  {
    "title": "Битва на реке шайо** - река шайо",
    "date": "1241",
    "description": "* 1241 - **Битва на реке Шайо** - Река Шайо, Венгрия",
    "location": {
      "name": "Река Шайо, Венгрия",
      "lat": 51.73078198358621,
      "lng": 36.12165507313692
    },
    "category": "Войны и сражения"
  },
  {
    "title": "Возвращение батыя в поволжье** - поволжье",
    "date": "1242",
    "description": "* 1242 - **Возвращение Батыя в Поволжье** - Поволжье",
    "location": {
      "name": "Поволжье",
      "lat": 50.78329166501985,
      "lng": 41.314248998185995
    },
    "category": "Экономические события"
  },
  {
    "title": "Поездка плано карпини к монголам** - каракорум",
    "date": "1246",
    "description": "* 1246 - **Поездка Плано Карпини к монголам** - Каракорум, Монголия",
    "location": {
      "name": "Каракорум",
      "lat": 53.100947119574975,
      "lng": 39.7824489026257
    },
    "category": "Военные кампании"
  },
  {
    "title": "- владимирская земля",
    "date": "1252",
    "description": "* 1252 - **Неврюева рать** - Владимирская земля",
    "location": {
      "name": "Владимир",
      "lat": 56.13,
      "lng": 40.42
    },
    "category": "Дипломатические события"
  },
  {
    "title": "Первая перепись населения руси монголами** - русские",
    "date": "1257-1259",
    "description": "* 1257-1259 - **Первая перепись населения Руси монголами** - Русские земли, подвластные Орде",
    "location": {
      "name": "Русские земли, подвластные Орде",
      "lat": 55.18688411190891,
      "lng": 31.690206072054174
    },
    "category": "Революции и перевороты"
  },
  {
    "title": "Во владимире",
    "date": "1262",
    "description": "* 1262 - **Восстания против сборщиков дани (баскаков) во Владимире, Суздале, Ростове, Ярославле и др",
    "location": {
      "name": "Владимир",
      "lat": 56.13,
      "lng": 40.42
    },
    "category": "Революции и перевороты"
  },
  {
    "title": "Поход русских князей на ясов (аланов) в",
    "date": "1277",
    "description": "* 1277 - **Поход русских князей на Ясов (аланов) в составе монгольского войска** - Северный Кавказ",
    "location": {
      "name": "Северный Кавказ",
      "lat": 43.0,
      "lng": 44.0
    },
    "category": "Политические реформы"
  }
]