[
  {
    "title": "Год ** - начало церковной реформы патриарха",
    "date": "1652 год",
    "description": "* ** 1652 год ** - Начало церковной реформы патриарха Никона - Москва",
    "location": {
      "name": "Москва",
      "lat": 55.75,
      "lng": 37.62
    },
    "category": "Культура и религия"
  },
  {
    "title": "Год ** - первые проявления несогласия на",
    "date": "1657 год",
    "description": "* ** 1657 год ** - Первые проявления несогласия на Соловках - Соловецкий монастырь",
    "location": {
      "name": "Соловецкий монастырь",
      "lat": 52.2488167911323,
      "lng": 41.5881219577826
    },
    "category": "Культура и религия"
  },
  {
    "title": "Годы** - осуждение старообрядцев на большом московском",
    "date": "1666-1667",
    "description": "* ** 1666-1667 годы** - Осуждение старообрядцев на Большом Московском соборе - Москва",
    "location": {
      "name": "Москва",
      "lat": 55.75,
      "lng": 37.62
    },
    "category": "Культура и религия"
  },
  {
    "title": "Год ** - отстранение никона от патриаршества",
    "date": "1667 год",
    "description": "* ** 1667 год ** - Отстранение Никона от патриаршества - Москва",
    "location": {
      "name": "Москва",
      "lat": 55.75,
      "lng": 37.62
    },
    "category": "Войны и сражения"
  },
  {
    "title": "Год ** - соловецкий монастырь официально отказывается",
    "date": "1668 год",
    "description": "* ** 1668 год ** - Соловецкий монастырь официально отказывается принять новые книги - Соловецкий монастырь",
    "location": {
      "name": "Соловецкий монастырь",
      "lat": 59.3538725148629,
      "lng": 40.94831990326615
    },
    "category": "Культура и религия"
  },
  {
    "title": "Год , 22 июня** - начало соловецкого",
    "date": "1668 год",
    "description": "* ** 1668 год , 22 июня** - Начало Соловецкого восстания - Соловецкий монастырь",
    "location": {
      "name": "Соловецкий монастырь",
      "lat": 50.89444191953375,
      "lng": 45.628661651384604
    },
    "category": "Культура и религия"
  },
  {
    "title": "- царь алексей михайлович отправляет войско для усмирения монастыря - москва",
    "date": "1668 год",
    "description": "* ** 1668 год ** - Царь Алексей Михайлович отправляет войско для усмирения монастыря - Москва",
    "location": {
      "name": "Москва",
      "lat": 55.75,
      "lng": 37.62
    },
    "category": "Культура и религия"
  },
  {
    "title": "Годы** - период осады соловецкого монастыря -",
    "date": "1668-1676",
    "description": "* ** 1668-1676 годы** - Период осады Соловецкого монастыря - Соловецкий монастырь",
    "location": {
      "name": "Соловецкий монастырь",
      "lat": 55.55429690888298,
      "lng": 32.80801584471527
    },
    "category": "Культура и религия"
  },
  {
    "title": "Годы** - переписка между царём и соловецким",
    "date": "1668-1676",
    "description": "* ** 1668-1676 годы** - Переписка между царём и Соловецким монастырём - Москва, Соловецкий монастырь",
    "location": {
      "name": "Москва, Соловецкий монастырь",
      "lat": 55.75,
      "lng": 37.62
    },
    "category": "Культура и религия"
  },
  {
    "title": "- восстание степана разина - юг россии",
    "date": "1671 год",
    "description": "* ** 1671 год ** - Восстание Степана Разина - Юг России",
    "location": {
      "name": "Юг России",
      "lat": 49.133111639788254,
      "lng": 44.16796934275888
    },
    "category": "Революции и перевороты"
  },
  {
    "title": "Год ** - смена воеводы, командовавшего осадой",
    "date": "1673 год",
    "description": "* ** 1673 год ** - Смена воеводы, командовавшего осадой - Соловецкий монастырь",
    "location": {
      "name": "Соловецкий монастырь",
      "lat": 54.8178041575517,
      "lng": 39.2923331793297
    },
    "category": "Культура и религия"
  },
  {
    "title": "Год ** - усиление блокады монастыря -",
    "date": "1674 год",
    "description": "* ** 1674 год ** - Усиление блокады монастыря - Соловецкий монастырь",
    "location": {
      "name": "Соловецкий монастырь",
      "lat": 49.18108015156462,
      "lng": 45.71641391029309
    },
    "category": "Культура и религия"
  },
  {
    "title": "Год ** - попытки штурма монастыря -",
    "date": "1675 год",
    "description": "* ** 1675 год ** - Попытки штурма монастыря - Соловецкий монастырь",
    "location": {
      "name": "Соловецкий монастырь",
      "lat": 46.623906026436245,
      "lng": 45.87202613828812
    },
    "category": "Войны и сражения"
  },
  {
    "title": "Год , 18 января** - взятие соловецкого",
    "date": "1676 год",
    "description": "* ** 1676 год , 18 января** - Взятие Соловецкого монастыря - Соловецкий монастырь",
    "location": {
      "name": "Соловецкий монастырь",
      "lat": 46.612124561371445,
      "lng": 34.72195508505027
    },
    "category": "Культура и религия"
  },
  {
    "title": "Год ** - расправа над участниками восстания",
    "date": "1676 год",
    "description": "* ** 1676 год ** - Расправа над участниками восстания - Соловецкий монастырь",
    "location": {
      "name": "Соловецкий монастырь",
      "lat": 47.50474580632289,
      "lng": 45.58881187982425
    },
    "category": "Культура и религия"
  },
  {
    "title": "Год ** - назначение нового игумена в",
    "date": "1676 год",
    "description": "* ** 1676 год ** - Назначение нового игумена в Соловецкий монастырь - Соловецкий монастырь",
    "location": {
      "name": "Соловецкий монастырь",
      "lat": 61.11337236177772,
      "lng": 51.900575836153585
    },
    "category": "Культура и религия"
  },
  {
    "title": "Год ** - описание событий соловецкого восстания",
    "date": "1676 год",
    "description": "* ** 1676 год ** - Описание событий Соловецкого восстания в летописях - Москва, другие города",
    "location": {
      "name": "Соловецкий монастырь",
      "lat": 64.36319089816138,
      "lng": 43.85706470949018
    },
    "category": "Революции и перевороты"
  },
  {
    "title": "- московское восстание",
    "date": "1682 год",
    "description": "* ** 1682 год ** - Московское восстание (Стрелецкий бунт) - Москва",
    "location": {
      "name": "Москва",
      "lat": 55.75,
      "lng": 37.62
    },
    "category": "Революции и перевороты"
  },
  {
    "title": "Годы** - правление царевны софьи - москва",
    "date": "1682-1689",
    "description": "* ** 1682-1689 годы** - Правление царевны Софьи - Москва",
    "location": {
      "name": "Москва",
      "lat": 55.75,
      "lng": 37.62
    },
    "category": "Дипломатические события"
  },
  {
    "title": "Год ** - закрытие соловецкого монастыря советской",
    "date": "1920 год",
    "description": "* ** 1920 год ** - Закрытие Соловецкого монастыря советской властью - Соловецкий монастырь",
    "location": {
      "name": "Соловецкие острова",
      "lat": 52.4503762328133,
      "lng": 44.00220956884152
    },
    "category": "Культура и религия"
  },
  {
    "title": "Годы** - соловецкий лагерь особого назначения (слон",
    "date": "1920-1939",
    "description": "* ** 1920-1939 годы** - Соловецкий лагерь особого назначения (СЛОН) - Соловецкий монастырь",
    "location": {
      "name": "Соловецкий монастырь",
      "lat": 63.63958190029048,
      "lng": 30.71376482078532
    },
    "category": "Культура и религия"
  },
  {
    "title": "Год ** - возвращение соловецкого монастыря русской",
    "date": "1990 год",
    "description": "* ** 1990 год ** - Возвращение Соловецкого монастыря Русской православной церкви - Соловецкий монастырь",
    "location": {
      "name": "Соловецкий монастырь",
      "lat": 53.12933233043289,
      "lng": 37.58220443308319
    },
    "category": "Культура и религия"
  },
  {
    "title": "- соловецкий монастырь включен в список всемирного наследия юнеско - соловецкий монастырь",
    "date": "1992 год",
    "description": "* ** 1992 год ** - Соловецкий монастырь включен в список Всемирного наследия ЮНЕСКО - Соловецкий монастырь",
    "location": {
      "name": "Соловецкие острова",
      "lat": 59.13729059010946,
      "lng": 37.55177152861524
    },
    "category": "Культура и религия"
  },
  {
    "title": "Переписка соловецкого монастыря с царём алексеем михайловичем**",
    "date": "1658",
    "description": "* ** 1658 - 1666** - **Переписка Соловецкого монастыря с царём Алексеем Михайловичем** - Москва, Соловецкий монастырь",
    "location": {
      "name": "Москва, Соловецкий монастырь",
      "lat": 55.75,
      "lng": 37.62
    },
    "category": "Культура и религия"
  },
  {
    "title": "Отказ соловецкого монастыря принять царских посланников** -",
    "date": "1666",
    "description": "* ** 1666 ** - **Отказ Соловецкого монастыря принять царских посланников** - Соловецкий монастырь",
    "location": {
      "name": "Соловецкий монастырь",
      "lat": 56.70134804260513,
      "lng": 35.67960384069511
    },
    "category": "Культура и религия"
  },
  {
    "title": "Соловецкий ответ на соборное деяние 1667 года**",
    "date": "1667",
    "description": "* ** 1667 ** - **Соловецкий ответ на Соборное деяние 1667 года** - Соловецкий монастырь",
    "location": {
      "name": "Соловецкий монастырь",
      "lat": 52.033555345269846,
      "lng": 46.28406006782466
    },
    "category": "Культура и религия"
  },
  {
    "title": "Соловецкие старцы составляют и отправляют в москву",
    "date": "1666-1667",
    "description": "* Соловецкие старцы составляют и отправляют в Москву ответ на решения Большого Московского Собора 1666-1667 годов, в котором аргументированно критикуют нововведения и отказываются их принимать",
    "location": {
      "name": "Соловецкий монастырь",
      "lat": 51.57972282240479,
      "lng": 36.64662926051318
    },
    "category": "Культура и религия"
  },
  {
    "title": "Февраль** - **крестьянские волнения в окрестностях соловков**",
    "date": "1668",
    "description": "* ** 1668 , февраль** - **Крестьянские волнения в окрестностях Соловков** - Поморье, окрестности Соловецкого монастыря",
    "location": {
      "name": "Поморье, окрестности Соловецкого монастыря",
      "lat": 55.05632337509862,
      "lng": 38.88284146658128
    },
    "category": "Культура и религия"
  },
  {
    "title": "Июнь** - **прибытие царских войск под командованием",
    "date": "1668",
    "description": "* ** 1668 , июнь** - **Прибытие царских войск под командованием Ивана Мещеринова к Соловкам** - Окрестности Соловецкого монастыря",
    "location": {
      "name": "Окрестности Соловецкого монастыря",
      "lat": 45.19000987387919,
      "lng": 43.46158105314998
    },
    "category": "Культура и религия"
  },
  {
    "title": "Июль-август** - **первые стычки между стрельцами и",
    "date": "1668",
    "description": "* ** 1668 , июль-август** - **Первые стычки между стрельцами и соловецкими монахами** - Окрестности Соловецкого монастыря",
    "location": {
      "name": "Окрестности Соловецкого монастыря",
      "lat": 60.77151271080094,
      "lng": 48.18089461183898
    },
    "category": "Культура и религия"
  },
  {
    "title": "Попытки штурма соловецкого монастыря** - соловецкий монастырь",
    "date": "1669",
    "description": "* ** 1669 ** - **Попытки штурма Соловецкого монастыря** - Соловецкий монастырь",
    "location": {
      "name": "Соловецкий монастырь",
      "lat": 48.52324708995252,
      "lng": 49.446166031429655
    },
    "category": "Войны и сражения"
  },
  {
    "title": "Морская блокада соловецкого монастыря** - белое море",
    "date": "1670-1673",
    "description": "* ** 1670-1673 ** - **Морская блокада Соловецкого монастыря** - Белое море, Соловецкие острова",
    "location": {
      "name": "Соловецкие острова",
      "lat": 60.77095176921217,
      "lng": 33.091965783059756
    },
    "category": "Культура и религия"
  },
  {
    "title": "Переговоры между царскими посланниками и соловецкими старцами**",
    "date": "1672",
    "description": "* ** 1672 ** - **Переговоры между царскими посланниками и соловецкими старцами** - Окрестности Соловецкого монастыря",
    "location": {
      "name": "Окрестности Соловецкого монастыря",
      "lat": 57.28268229876379,
      "lng": 32.88175203554781
    },
    "category": "Культура и религия"
  },
  {
    "title": "Осень** - **усиление блокады соловецкого монастыря** -",
    "date": "1673",
    "description": "* ** 1673 , осень** - **Усиление блокады Соловецкого монастыря** - Белое море, Соловецкие острова",
    "location": {
      "name": "Соловецкие острова",
      "lat": 51.86318212130752,
      "lng": 51.576413254234716
    },
    "category": "Культура и религия"
  },
  {
    "title": "Голод и болезни в соловецком монастыре** -",
    "date": "1674",
    "description": "* ** 1674 ** - **Голод и болезни в Соловецком монастыре** - Соловецкий монастырь",
    "location": {
      "name": "Соловецкий монастырь",
      "lat": 49.9235085851892,
      "lng": 29.902647826871288
    },
    "category": "Культура и религия"
  },
  {
    "title": "Перебежчики из числа осаждающих** - соловецкий монастырь",
    "date": "1675",
    "description": "* ** 1675 ** - **Перебежчики из числа осаждающих** - Соловецкий монастырь",
    "location": {
      "name": "Соловецкий монастырь",
      "lat": 54.07297089215959,
      "lng": 40.07460268874783
    },
    "category": "Культура и религия"
  },
  {
    "title": "Января** - **предательство монаха феоктиста** - соловецкий",
    "date": "1676",
    "description": "* ** 1676 , 18 января** - **Предательство монаха Феоктиста** - Соловецкий монастырь",
    "location": {
      "name": "Соловецкий монастырь",
      "lat": 50.61388209567029,
      "lng": 38.00071081861958
    },
    "category": "Культура и религия"
  },
  {
    "title": "Января** - **штурм и взятие соловецкого монастыря**",
    "date": "1676",
    "description": "* ** 1676 , 18-22 января** - **Штурм и взятие Соловецкого монастыря** - Соловецкий монастырь",
    "location": {
      "name": "Соловецкий монастырь",
      "lat": 47.60569936420749,
      "lng": 50.80932519162879
    },
    "category": "Войны и сражения"
  },
  {
    "title": "Январь-февраль** - **расправы над участниками восстания** -",
    "date": "1676",
    "description": "* ** 1676 , январь-февраль** - **Расправы над участниками восстания** - Соловецкий монастырь",
    "location": {
      "name": "Соловецкий монастырь",
      "lat": 60.87284661381901,
      "lng": 29.455484847685952
    },
    "category": "Культура и религия"
  },
  {
    "title": "Соловецкая чистка\"** - соловецкий монастырь",
    "date": "1676",
    "description": "* ** 1676 - 1682** - **\"Соловецкая чистка\"** - Соловецкий монастырь",
    "location": {
      "name": "Соловецкий монастырь",
      "lat": 55.657318964628,
      "lng": 42.124284583709326
    },
    "category": "Культура и религия"
  },
  {
    "title": "Казнь остатков соловецких бунтовщиков** - соловецкий монастырь",
    "date": "1682",
    "description": "* ** 1682 ** - **Казнь остатков соловецких бунтовщиков** - Соловецкий монастырь",
    "location": {
      "name": "Соловецкий монастырь",
      "lat": 64.70156991942486,
      "lng": 47.9861600035244
    },
    "category": "Культура и религия"
  },
  {
    "title": "После 1676 ** - **превращение соловецкого монастыря",
    "date": "1676",
    "description": "* **После 1676 ** - **Превращение Соловецкого монастыря в место ссылки** - Соловецкий монастырь",
    "location": {
      "name": "Соловецкий монастырь",
      "lat": 62.68055329765012,
      "lng": 48.60940317786868
    },
    "category": "Культура и религия"
  }
]