[
  {
    "title": "Год ** - образование казанского ханства -",
    "date": "1438 год",
    "description": "* ** 1438 год ** - Образование Казанского ханства - Казань",
    "location": {
      "name": "Казань",
      "lat": 55.79,
      "lng": 49.12
    },
    "category": "Становление государства"
  },
  {
    "title": "Год ** - образование астраханского ханства -",
    "date": "1459 год",
    "description": "* ** 1459 год ** - Образование Астраханского ханства - Астрахань",
    "location": {
      "name": "Астрахань",
      "lat": 46.35,
      "lng": 48.04
    },
    "category": "Становление государства"
  },
  {
    "title": "Годы** - первый казанский поход ивана iii",
    "date": "1467-1469",
    "description": "* ** 1467-1469 годы** - Первый Казанский поход Ивана III - Среднее Поволжье",
    "location": {
      "name": "Среднее Поволжье",
      "lat": 64.79203383062904,
      "lng": 46.077880335020055
    },
    "category": "Изменения границ"
  },
  {
    "title": "Год ** - взятие казани иваном iii",
    "date": "1487 год",
    "description": "* ** 1487 год ** - Взятие Казани Иваном III - Казань",
    "location": {
      "name": "Казань",
      "lat": 55.79,
      "lng": 49.12
    },
    "category": "Основание городов"
  },
  {
    "title": "- казанское восстание и свержение мухаммед-эмина - казань",
    "date": "1505 год",
    "description": "* ** 1505 год ** - Казанское восстание и свержение Мухаммед-Эмина - Казань",
    "location": {
      "name": "Казань",
      "lat": 55.79,
      "lng": 49.12
    },
    "category": "Революции и перевороты"
  },
  {
    "title": "Год ** - набег крымского хана мехмед",
    "date": "1521 год",
    "description": "* ** 1521 год ** - Набег крымского хана Мехмед I Герая на Москву при поддержке казанцев - Московское княжество",
    "location": {
      "name": "Москва",
      "lat": 55.75,
      "lng": 37.62
    },
    "category": "Становление государства"
  },
  {
    "title": "Год ** - поход василия iii на",
    "date": "1524 год",
    "description": "* ** 1524 год ** - Поход Василия III на Казань - Среднее Поволжье",
    "location": {
      "name": "Среднее Поволжье",
      "lat": 51.37402707500878,
      "lng": 51.5405610106538
    },
    "category": "Экономические события"
  },
  {
    "title": "Год ** - поход ивана iv на",
    "date": "1530 год",
    "description": "* ** 1530 год ** - Поход Ивана IV на Казань (ещё в период регентства) - Среднее Поволжье",
    "location": {
      "name": "Среднее Поволжье",
      "lat": 47.27480533813905,
      "lng": 50.75579925357149
    },
    "category": "Дипломатические события"
  },
  {
    "title": "Год ** - первый казанский поход ивана",
    "date": "1545 год",
    "description": "* ** 1545 год ** - Первый Казанский поход Ивана IV - Среднее Поволжье",
    "location": {
      "name": "Среднее Поволжье",
      "lat": 64.75940897378638,
      "lng": 44.423106903192135
    },
    "category": "Территориальные приобретения"
  },
  {
    "title": "Годы** - второй казанский поход ивана iv",
    "date": "1547-1548",
    "description": "* ** 1547-1548 годы** - Второй Казанский поход Ивана IV - Среднее Поволжье",
    "location": {
      "name": "Среднее Поволжье",
      "lat": 46.923446947220526,
      "lng": 39.19947884169555
    },
    "category": "Основание городов"
  },
  {
    "title": "- основание свияжска - место слияния рек свияги и волги",
    "date": "1549 год",
    "description": "* ** 1549 год ** - Основание Свияжска - Место слияния рек Свияги и Волги",
    "location": {
      "name": "Место слияния рек Свияги и Волги",
      "lat": 51.93690572069946,
      "lng": 48.49895334678192
    },
    "category": "Военные кампании"
  },
  {
    "title": "Год ** - третий казанский поход ивана",
    "date": "1550 год",
    "description": "* ** 1550 год ** - Третий Казанский поход Ивана IV - Среднее Поволжье",
    "location": {
      "name": "Среднее Поволжье",
      "lat": 49.16913497059957,
      "lng": 39.47314201425288
    },
    "category": "Революции и перевороты"
  },
  {
    "title": "- принятие казанцами на царство шах-али - казань",
    "date": "1551 год",
    "description": "* ** 1551 год ** - Принятие казанцами на царство Шах-Али - Казань",
    "location": {
      "name": "Казань",
      "lat": 55.79,
      "lng": 49.12
    },
    "category": "Территориальные приобретения"
  },
  {
    "title": "Год , 16 июня** - начало четвёртого",
    "date": "1552 год",
    "description": "* ** 1552 год , 16 июня** - Начало Четвёртого Казанского похода Ивана IV - Москва",
    "location": {
      "name": "Москва",
      "lat": 55.75,
      "lng": 37.62
    },
    "category": "Социальные реформы"
  },
  {
    "title": "Год , 23 августа** - начало осады",
    "date": "1552 год",
    "description": "* ** 1552 год , 23 августа** - Начало осады Казани - Казань",
    "location": {
      "name": "Казань",
      "lat": 55.79,
      "lng": 49.12
    },
    "category": "Основание городов"
  },
  {
    "title": "Год , 4 сентября** - подрыв арской",
    "date": "1552 год",
    "description": "* ** 1552 год , 4 сентября** - Подрыв Арской башни Казанского кремля - Казань",
    "location": {
      "name": "Казань",
      "lat": 55.79,
      "lng": 49.12
    },
    "category": "Революции и перевороты"
  },
  {
    "title": "Год , 2 октября** - взятие казани",
    "date": "1552 год",
    "description": "* ** 1552 год , 2 октября** - Взятие Казани - Казань",
    "location": {
      "name": "Казань",
      "lat": 55.79,
      "lng": 49.12
    },
    "category": "Социальные реформы"
  },
  {
    "title": "Годы** - казанские войны (восстания) - территория",
    "date": "1552-1556",
    "description": "* ** 1552-1556 годы** - Казанские войны (восстания) - Территория бывшего Казанского ханства",
    "location": {
      "name": "Территория бывшего Казанского ханства",
      "lat": 47.233539856450555,
      "lng": 29.94767342282161
    },
    "category": "Революции и перевороты"
  },
  {
    "title": "Год ** - первый астраханский поход -",
    "date": "1554 год",
    "description": "* ** 1554 год ** - Первый Астраханский поход - Астрахань",
    "location": {
      "name": "Астрахань",
      "lat": 46.35,
      "lng": 48.04
    },
    "category": "Дипломатические события"
  },
  {
    "title": "Год ** - второй астраханский поход и",
    "date": "1556 год",
    "description": "* ** 1556 год ** - Второй Астраханский поход и окончательное присоединение Астраханского ханства - Астрахань",
    "location": {
      "name": "Астрахань",
      "lat": 46.35,
      "lng": 48.04
    },
    "category": "Изменения границ"
  },
  {
    "title": "Год ** - присоединение чувашии и башкирии",
    "date": "1557 год",
    "description": "* ** 1557 год ** - Присоединение Чувашии и Башкирии - Среднее Поволжье и Южный Урал",
    "location": {
      "name": "Среднее Поволжье и Южный Урал",
      "lat": 58.0,
      "lng": 60.0
    },
    "category": "Изменения границ"
  },
  {
    "title": "- основание города чебоксары - чебоксары",
    "date": "1558 год",
    "description": "* ** 1558 год ** - Основание города Чебоксары - Чебоксары",
    "location": {
      "name": "Чебоксары",
      "lat": 57.21918635796026,
      "lng": 51.21168885780185
    },
    "category": "Дипломатические события"
  },
  {
    "title": "Год ** - турецкий поход на астрахань",
    "date": "1569 год",
    "description": "* ** 1569 год ** - Турецкий поход на Астрахань - Астрахань",
    "location": {
      "name": "Астрахань",
      "lat": 46.35,
      "lng": 48.04
    },
    "category": "Научные достижения"
  },
  {
    "title": "- основание самары - самара",
    "date": "1586 год",
    "description": "* ** 1586 год ** - Основание Самары - Самара",
    "location": {
      "name": "Самара",
      "lat": 53.2,
      "lng": 50.15
    },
    "category": "Войны и сражения"
  },
  {
    "title": "Год ** - учреждение казанской епархии -",
    "date": "1589 год",
    "description": "* ** 1589 год ** - Учреждение Казанской епархии - Казань",
    "location": {
      "name": "Казань",
      "lat": 55.79,
      "lng": 49.12
    },
    "category": "Изменения границ"
  },
  {
    "title": "- основание саратова - саратов",
    "date": "1590 год",
    "description": "* ** 1590 год ** - Основание Саратова - Саратов",
    "location": {
      "name": "Саратов",
      "lat": 56.45282687017211,
      "lng": 50.905343570691684
    },
    "category": "Культура и религия"
  },
  {
    "title": "Годы** - подавление последних очагов сопротивления в",
    "date": "1591-1593",
    "description": "* ** 1591-1593 годы** - Подавление последних очагов сопротивления в Поволжье - Среднее Поволжье",
    "location": {
      "name": "Среднее Поволжье",
      "lat": 51.96968455010061,
      "lng": 34.19672136791538
    },
    "category": "Основание городов"
  },
  {
    "title": "Год ** - перенос казанской иконы божией",
    "date": "1596 год",
    "description": "* ** 1596 год ** - Перенос Казанской иконы Божией Матери в Москву - Москва",
    "location": {
      "name": "Москва",
      "lat": 55.75,
      "lng": 37.62
    },
    "category": "Культура и религия"
  },
  {
    "title": "Год ** - **первый казанский поход ивана",
    "date": "1547 год",
    "description": "* ** 1547 год ** - **Первый Казанский поход Ивана IV** - **Окрестности Казани**",
    "location": {
      "name": "Окрестности Казани",
      "lat": 57.363270978391384,
      "lng": 48.53338298662389
    },
    "category": "Военные кампании"
  },
  {
    "title": "Год ** - **второй казанский поход ивана",
    "date": "1548 год",
    "description": "* ** 1548 год ** - **Второй Казанский поход Ивана IV** - **Окрестности Казани**",
    "location": {
      "name": "Окрестности Казани",
      "lat": 52.770434918550265,
      "lng": 27.469397669657752
    },
    "category": "Изменения границ"
  },
  {
    "title": "Год ** - **основание свияжска** - **место",
    "date": "1549 год",
    "description": "* ** 1549 год ** - **Основание Свияжска** - **Место слияния рек Свияги и Волги**",
    "location": {
      "name": "Место слияния рек Свияги и Волги",
      "lat": 50.6455102169698,
      "lng": 36.52627827760044
    },
    "category": "Революции и перевороты"
  },
  {
    "title": "Год ** - **третий казанский поход ивана",
    "date": "1550 год",
    "description": "* ** 1550 год ** - **Третий Казанский поход Ивана IV** - **Окрестности Казани**",
    "location": {
      "name": "Окрестности Казани",
      "lat": 53.45863326720086,
      "lng": 31.827445712149462
    },
    "category": "Научные достижения"
  },
  {
    "title": "Год ** - **принятие казанской знатью русского",
    "date": "1551 год",
    "description": "* ** 1551 год ** - **Принятие казанской знатью русского ставленника Шах-Али** - **Казань**",
    "location": {
      "name": "Казань",
      "lat": 55.79,
      "lng": 49.12
    },
    "category": "Политические реформы"
  },
  {
    "title": "Год , 16 июня** - **начало осады",
    "date": "1552 год",
    "description": "* ** 1552 год , 16 июня** - **Начало осады Казани** - **Казань**",
    "location": {
      "name": "Казань",
      "lat": 55.79,
      "lng": 49.12
    },
    "category": "Революции и перевороты"
  },
  {
    "title": "Год , 30 августа** - **взрыв арской",
    "date": "1552 год",
    "description": "* ** 1552 год , 30 августа** - **Взрыв Арской башни** - **Казань**",
    "location": {
      "name": "Казань",
      "lat": 55.79,
      "lng": 49.12
    },
    "category": "Дипломатические события"
  },
  {
    "title": "Год , 2 октября** - **штурм и",
    "date": "1552 год",
    "description": "* ** 1552 год , 2 октября** - **Штурм и взятие Казани** - **Казань**",
    "location": {
      "name": "Казань",
      "lat": 55.79,
      "lng": 49.12
    },
    "category": "Войны и сражения"
  },
  {
    "title": "Годы** - **черемисские войны** - **горная сторона",
    "date": "1552-1556",
    "description": "* ** 1552-1556 годы** - **Черемисские войны** - **Горная сторона Казанского ханства (современная Марий Эл)**",
    "location": {
      "name": "Марий Эл",
      "lat": 61.20159139109407,
      "lng": 33.303091766989766
    },
    "category": "Территориальные приобретения"
  },
  {
    "title": "Год ** - **астраханский поход** - **астрахань**",
    "date": "1554 год",
    "description": "* ** 1554 год ** - **Астраханский поход** - **Астрахань**",
    "location": {
      "name": "Астрахань",
      "lat": 46.35,
      "lng": 48.04
    },
    "category": "Экономические события"
  },
  {
    "title": "Год ** - **окончательное присоединение астраханского ханства**",
    "date": "1556 год",
    "description": "* ** 1556 год ** - **Окончательное присоединение Астраханского ханства** - **Астрахань**",
    "location": {
      "name": "Астрахань",
      "lat": 46.35,
      "lng": 48.04
    },
    "category": "Изменения границ"
  },
  {
    "title": "Год ** - **присяга казанских татар на",
    "date": "1557 год",
    "description": "* ** 1557 год ** - **Присяга казанских татар на верность русскому царю** - **Казань и окрестные земли**",
    "location": {
      "name": "Казань",
      "lat": 55.79,
      "lng": 49.12
    },
    "category": "Военные кампании"
  },
  {
    "title": "Год ** - **подавление восстания бараш-мурзы** -",
    "date": "1557 год",
    "description": "* ** 1557 год ** - **Подавление восстания Бараш-мурзы** - **Закамье (территория современного Татарстана)**",
    "location": {
      "name": "Закамье (территория современного Татарстана)",
      "lat": 54.303532861326474,
      "lng": 44.30428609298449
    },
    "category": "Революции и перевороты"
  },
  {
    "title": "Год ** - **начало строительства благовещенского собора",
    "date": "1558 год",
    "description": "* ** 1558 год ** - **Начало строительства Благовещенского собора в Казани** - **Казанский кремль**",
    "location": {
      "name": "Казанский кремль",
      "lat": 46.730233630782095,
      "lng": 46.01380479227073
    },
    "category": "Культура и религия"
  },
  {
    "title": "Е годы** - **раздача земель русским служилым",
    "date": "1560",
    "description": "* ** 1560 -е годы** - **Раздача земель русским служилым людям в Казанском крае** - **Территория бывшего Казанского ханства**",
    "location": {
      "name": "Казанский край",
      "lat": 61.98863547872267,
      "lng": 39.47344058817362
    },
    "category": "Изменения границ"
  },
  {
    "title": "Год ** - **участие казанских татар в",
    "date": "1572 год",
    "description": "* ** 1572 год ** - **Участие казанских татар в битве при Молодях** - **Молоди (близ Серпухова)**",
    "location": {
      "name": "Молоди (близ Серпухова)",
      "lat": 48.45913289881456,
      "lng": 32.33435997661726
    },
    "category": "Восстания и бунты"
  },
  {
    "title": "Е годы** - **строительство закамской засечной черты**",
    "date": "1580",
    "description": "* ** 1580 -е годы** - **Строительство Закамской засечной черты** - **Закамье (территория современного Татарстана)**",
    "location": {
      "name": "Закамье (территория современного Татарстана)",
      "lat": 52.73790494954763,
      "lng": 47.12405747461024
    },
    "category": "Изменения границ"
  },
  {
    "title": "Год ** - **указ об уничтожении мечетей",
    "date": "1593 год",
    "description": "* ** 1593 год ** - **Указ об уничтожении мечетей в Казанском крае** - **Территория бывшего Казанского ханства**",
    "location": {
      "name": "Казанский край",
      "lat": 61.25272337470293,
      "lng": 45.18420239255473
    },
    "category": "Изменения границ"
  },
  {
    "title": "Год ** - **восстание болотникова и участие",
    "date": "1606 год",
    "description": "* ** 1606 год ** - **Восстание Болотникова и участие татар** - **Территория России, включая Казанский край**",
    "location": {
      "name": "Казанский край",
      "lat": 46.843555992569705,
      "lng": 31.590605252235434
    },
    "category": "Революции и перевороты"
  }
]