[
  {
    "title": "Августа 1756 ** - **начало семилетней войны**",
    "date": "1756",
    "description": "* **29 августа 1756 ** - **Начало Семилетней войны** - Европа",
    "location": {
      "name": "Европа",
      "lat": 50.0,
      "lng": 10.0
    },
    "category": "Социальные реформы"
  },
  {
    "title": "Осень 1756 ** - **дипломатические переговоры россии",
    "date": "1756",
    "description": "* **Осень 1756 ** - **Дипломатические переговоры России и Австрии** - Санкт-Петербург",
    "location": {
      "name": "Санкт-Петербург",
      "lat": 59.94,
      "lng": 30.31
    },
    "category": "Дипломатические события"
  },
  {
    "title": "Январь 1757 ** - **подписание санкт-петербургской конвенции**",
    "date": "1757",
    "description": "* **Январь 1757 ** - **Подписание Санкт-Петербургской конвенции** - Санкт-Петербург",
    "location": {
      "name": "Санкт-Петербург",
      "lat": 59.94,
      "lng": 30.31
    },
    "category": "Становление государства"
  },
  {
    "title": "Май 1757 ** - **указ елизаветы петровны",
    "date": "1757",
    "description": "* **Май 1757 ** - **Указ Елизаветы Петровны о вступлении России в войну** - Санкт-Петербург",
    "location": {
      "name": "Санкт-Петербург",
      "lat": 59.94,
      "lng": 30.31
    },
    "category": "Войны и сражения"
  },
  {
    "title": "Июнь 1757 ** - **назначение с",
    "date": "1757",
    "description": "* **Июнь 1757 ** - **Назначение С",
    "location": {
      "name": "Санкт-Петербург",
      "lat": 59.94,
      "lng": 30.31
    },
    "category": "Экономические события"
  },
  {
    "title": "Июль 1757 ** - **начало похода русской",
    "date": "1757",
    "description": "* **Июль 1757 ** - **Начало похода русской армии в Восточную Пруссию** - Россия (район Риги)",
    "location": {
      "name": "Район Риги",
      "lat": 56.98146844989622,
      "lng": 50.620473516256865
    },
    "category": "Дипломатические события"
  },
  {
    "title": "Августа 1757 ** - **битва при гросс-егерсдорфе**",
    "date": "1757",
    "description": "* **30 августа 1757 ** - **Битва при Гросс-Егерсдорфе** - Гросс-Егерсдорф (Восточная Пруссия, ныне Калининградская область)",
    "location": {
      "name": "Гросс-Егерсдорф (Восточная Пруссия, ныне Калининградская область)",
      "lat": 54.71,
      "lng": 20.51
    },
    "category": "Войны и сражения"
  },
  {
    "title": "Сентябрь 1757 ** - **отступление русской армии",
    "date": "1757",
    "description": "* **Сентябрь 1757 ** - **Отступление русской армии из Восточной Пруссии** - Восточная Пруссия",
    "location": {
      "name": "Восточная Пруссия",
      "lat": 53.15068520018089,
      "lng": 40.2959025479345
    },
    "category": "Основание городов"
  },
  {
    "title": "Октябрь 1757 ** - **арест и отстранение",
    "date": "1757",
    "description": "* **Октябрь 1757 ** - **Арест и отстранение Апраксина от командования** - Санкт-Петербург",
    "location": {
      "name": "Санкт-Петербург",
      "lat": 59.94,
      "lng": 30.31
    },
    "category": "Восстания и бунты"
  },
  {
    "title": "Ноябрь 1757 ** - **назначение в",
    "date": "1757",
    "description": "* **Ноябрь 1757 ** - **Назначение В",
    "location": {
      "name": "Санкт-Петербург",
      "lat": 59.94,
      "lng": 30.31
    },
    "category": "Революции и перевороты"
  },
  {
    "title": "Январь 1758 ** - **взятие кенигсберга русской",
    "date": "1758",
    "description": "* **Январь 1758 ** - **Взятие Кенигсберга русской армией** - Кенигсберг (Восточная Пруссия, ныне Калининград)",
    "location": {
      "name": "Кенигсберг",
      "lat": 54.71,
      "lng": 20.51
    },
    "category": "Изменения границ"
  },
  {
    "title": "Январь 1758 ** - **присяга жителей восточной",
    "date": "1758",
    "description": "* **Январь 1758 ** - **Присяга жителей Восточной Пруссии императрице Елизавете Петровне** - Кенигсберг",
    "location": {
      "name": "Кенигсберг",
      "lat": 54.71,
      "lng": 20.51
    },
    "category": "Социальные реформы"
  },
  {
    "title": "Август 1758 ** - **битва при цорндорфе**",
    "date": "1758",
    "description": "* **Август 1758 ** - **Битва при Цорндорфе** - Цорндорф (Бранденбург, Германия)",
    "location": {
      "name": "Цорндорф (Бранденбург, Германия)",
      "lat": 55.16551553167004,
      "lng": 42.91997894509456
    },
    "category": "Войны и сражения"
  },
  {
    "title": "Осень 1758 ** - **отступление русской армии",
    "date": "1758",
    "description": "* **Осень 1758 ** - **Отступление русской армии в зимние квартиры** - Польша",
    "location": {
      "name": "Польша",
      "lat": 56.93523015692615,
      "lng": 27.60210670958513
    },
    "category": "Политические реформы"
  },
  {
    "title": "Март 1759 ** - **назначение п",
    "date": "1759",
    "description": "* **Март 1759 ** - **Назначение П",
    "location": {
      "name": "Санкт-Петербург",
      "lat": 59.94,
      "lng": 30.31
    },
    "category": "Экономические события"
  },
  {
    "title": "Июля 1759 ** - **битва при пальциге",
    "date": "1759",
    "description": "* **23 июля 1759 ** - **Битва при Пальциге (Кае)** - Пальциг (Кай) (Бранденбург, Германия)",
    "location": {
      "name": "Пальциг (Кай)",
      "lat": 61.64674727896651,
      "lng": 42.683168936711056
    },
    "category": "Войны и сражения"
  },
  {
    "title": "Августа 1759 ** - **битва при кунерсдорфе**",
    "date": "1759",
    "description": "* **12 августа 1759 ** - **Битва при Кунерсдорфе** - Кунерсдорф (Бранденбург, Германия)",
    "location": {
      "name": "Кунерсдорф",
      "lat": 63.883176312576424,
      "lng": 40.96097720430907
    },
    "category": "Войны и сражения"
  },
  {
    "title": "Осень 1759 ** - **бездействие союзников после",
    "date": "1759",
    "description": "* **Осень 1759 ** - **Бездействие союзников после Кунерсдорфа** - Бранденбург",
    "location": {
      "name": "Бранденбург",
      "lat": 54.22084337515287,
      "lng": 46.849018282705856
    },
    "category": "Дипломатические события"
  },
  {
    "title": "Сентябрь 1760 ** - **рейд русской армии",
    "date": "1760",
    "description": "* **Сентябрь 1760 ** - **Рейд русской армии на Берлин** - Берлин",
    "location": {
      "name": "Берлин",
      "lat": 52.52,
      "lng": 13.4
    },
    "category": "Основание городов"
  },
  {
    "title": "Октябрь 1760 ** - **отступление русских войск",
    "date": "1760",
    "description": "* **Октябрь 1760 ** - **Отступление русских войск из Берлина** - Берлин",
    "location": {
      "name": "Берлин",
      "lat": 52.52,
      "lng": 13.4
    },
    "category": "Военные кампании"
  },
  {
    "title": "Декабрь 1761 ** - **взятие кольберга русской",
    "date": "1761",
    "description": "* **Декабрь 1761 ** - **Взятие Кольберга русской армией** - Кольберг (Померания, ныне Колобжег, Польша)",
    "location": {
      "name": "Колобжег",
      "lat": 61.64387401300098,
      "lng": 39.07427064425015
    },
    "category": "Экономические события"
  },
  {
    "title": "Декабря 1761 ** - **смерть императрицы елизаветы",
    "date": "1761",
    "description": "* **25 декабря 1761 ** - **Смерть императрицы Елизаветы Петровны** - Санкт-Петербург",
    "location": {
      "name": "Санкт-Петербург",
      "lat": 59.94,
      "lng": 30.31
    },
    "category": "Становление государства"
  },
  {
    "title": "Заключение петербургского мирного договора",
    "date": "1762",
    "description": "* **Март 1762 ** - **Заключение Петербургского мирного договора** - Санкт-Петербург",
    "location": {
      "name": "Санкт-Петербург",
      "lat": 59.94,
      "lng": 30.31
    },
    "category": "Дипломатические события"
  },
  {
    "title": "Июнь 1762 ** - **указ петра iii",
    "date": "1762",
    "description": "* **Июнь 1762 ** - **Указ Петра III о возвращении Восточной Пруссии Пруссии** - Санкт-Петербург",
    "location": {
      "name": "Санкт-Петербург",
      "lat": 59.94,
      "lng": 30.31
    },
    "category": "Политические реформы"
  },
  {
    "title": "Дворцовый переворот и восшествие на престол екатерины ii",
    "date": "1762",
    "description": "* **9 июля 1762 ** - **Дворцовый переворот и восшествие на престол Екатерины II** - Санкт-Петербург",
    "location": {
      "name": "Санкт-Петербург",
      "lat": 59.94,
      "lng": 30.31
    },
    "category": "Революции и перевороты"
  },
  {
    "title": "Екатерина ii аннулирует союзный договор с пруссией",
    "date": "1762",
    "description": "* **Июль 1762 ** - **Екатерина II аннулирует союзный договор с Пруссией, но подтверждает мирный договор** - Санкт-Петербург",
    "location": {
      "name": "Санкт-Петербург",
      "lat": 59.94,
      "lng": 30.31
    },
    "category": "Дипломатические события"
  },
  {
    "title": "Действия русского флота в балтийском море** -",
    "date": "1757-1761",
    "description": "* ** 1757-1761 ** - **Действия русского флота в Балтийском море** - Балтийское море",
    "location": {
      "name": "Балтийское море",
      "lat": 57.0,
      "lng": 20.0
    },
    "category": "Экономические события"
  },
  {
    "title": "Июнь] - [основание магазина для снабжения армии]",
    "date": "1757",
    "description": "* [ 1757 , июнь] - [Основание магазина для снабжения армии] - [Рига]",
    "location": {
      "name": "Рига",
      "lat": 56.95,
      "lng": 24.11
    },
    "category": "Изменения границ"
  },
  {
    "title": "Июль] - [назначение фермора генерал-губернатором восточной пруссии]",
    "date": "1757",
    "description": "* [ 1757 , июль] - [Назначение Фермора генерал-губернатором Восточной Пруссии] - [Восточная Пруссия]",
    "location": {
      "name": "Восточная Пруссия",
      "lat": 50.081160055597444,
      "lng": 28.6141734011415
    },
    "category": "Войны и сражения"
  },
  {
    "title": "Январь] - [взятие кенигсберга] - [кенигсберг, восточная",
    "date": "1758",
    "description": "* [ 1758 , январь] - [Взятие Кенигсберга] - [Кенигсберг, Восточная Пруссия]",
    "location": {
      "name": "Кенигсберг",
      "lat": 54.71,
      "lng": 20.51
    },
    "category": "Революции и перевороты"
  },
  {
    "title": "Август] - [бой у цорндорфа] - [цорндорф",
    "date": "1758",
    "description": "* [ 1758 , август] - [Бой у Цорндорфа] - [Цорндорф, Бранденбург]",
    "location": {
      "name": "Цорндорф, Бранденбург",
      "lat": 64.48793021647681,
      "lng": 41.385368993206626
    },
    "category": "Войны и сражения"
  },
  {
    "title": "Сентябрь] - [рейд на берлин] - [берлин]",
    "date": "1758",
    "description": "* [ 1758 , сентябрь] - [Рейд на Берлин] - [Берлин]",
    "location": {
      "name": "Берлин",
      "lat": 52.52,
      "lng": 13.4
    },
    "category": "Военные кампании"
  },
  {
    "title": "Июль] - [битва при пальциге] - [пальциг",
    "date": "1759",
    "description": "* [ 1759 , июль] - [Битва при Пальциге] - [Пальциг, Бранденбург]",
    "location": {
      "name": "Пальциг, Бранденбург",
      "lat": 63.916960803556435,
      "lng": 40.927802523796956
    },
    "category": "Войны и сражения"
  },
  {
    "title": "Август] - [битва при кунерсдорфе] - [кунерсдорф",
    "date": "1759",
    "description": "* [ 1759 , август] - [Битва при Кунерсдорфе] - [Кунерсдорф, Бранденбург]",
    "location": {
      "name": "Кунерсдорф",
      "lat": 48.58890141039569,
      "lng": 37.00426309802806
    },
    "category": "Войны и сражения"
  },
  {
    "title": "Сентябрь] - [второй рейд на берлин] -",
    "date": "1760",
    "description": "* [ 1760 , сентябрь] - [Второй рейд на Берлин] - [Берлин]",
    "location": {
      "name": "Берлин",
      "lat": 52.52,
      "lng": 13.4
    },
    "category": "Политические реформы"
  },
  {
    "title": "Декабрь] - [взятие кольберга] - [кольберг, померания]",
    "date": "1761",
    "description": "* [ 1761 , декабрь] - [Взятие Кольберга] - [Кольберг, Померания]",
    "location": {
      "name": "Кольберг, Померания",
      "lat": 64.83195995430206,
      "lng": 43.74982894873685
    },
    "category": "Научные достижения"
  },
  {
    "title": "Февраль] - [смерть елизаветы петровны] - [санкт-петербург]",
    "date": "1762",
    "description": "* [ 1762 , февраль] - [Смерть Елизаветы Петровны] - [Санкт-Петербург]",
    "location": {
      "name": "Санкт-Петербург",
      "lat": 59.94,
      "lng": 30.31
    },
    "category": "Восстания и бунты"
  },
  {
    "title": "Петербургский мирный договор",
    "date": "1762",
    "description": "* [ 1762 , май] - [Петербургский мирный договор] - [Санкт-Петербург]",
    "location": {
      "name": "Санкт-Петербург",
      "lat": 59.94,
      "lng": 30.31
    },
    "category": "Дипломатические события"
  },
  {
    "title": "Июль] - [манифест о вольности дворянства] -",
    "date": "1762",
    "description": "* [ 1762 , июль] - [Манифест о вольности дворянства] - [Санкт-Петербург]",
    "location": {
      "name": "Санкт-Петербург",
      "lat": 59.94,
      "lng": 30.31
    },
    "category": "Культура и религия"
  },
  {
    "title": "Июль] - [переворот и воцарение екатерины ii]",
    "date": "1762",
    "description": "* [ 1762 , июль] - [Переворот и воцарение Екатерины II] - [Санкт-Петербург]",
    "location": {
      "name": "Санкт-Петербург",
      "lat": 59.94,
      "lng": 30.31
    },
    "category": "Революции и перевороты"
  },
  {
    "title": "Подписание парижского мирного договора",
    "date": "1763",
    "description": "* [ 1763 , февраль] - [Подписание Парижского мирного договора] - [Париж]",
    "location": {
      "name": "Париж",
      "lat": 48.86,
      "lng": 2.35
    },
    "category": "Дипломатические события"
  },
  {
    "title": "Ликвидация гетманства] - [глухов]",
    "date": "1764",
    "description": "* [ 1764 ] - [Ликвидация гетманства] - [Глухов]",
    "location": {
      "name": "Глухов",
      "lat": 54.50925866568809,
      "lng": 49.611345532495484
    },
    "category": "Становление государства"
  },
  {
    "title": "Учреждение вольного экономического общества] - [санкт-петербург]",
    "date": "1764",
    "description": "* [ 1764 ] - [Учреждение Вольного экономического общества] - [Санкт-Петербург]",
    "location": {
      "name": "Санкт-Петербург",
      "lat": 59.94,
      "lng": 30.31
    },
    "category": "Экономические события"
  },
  {
    "title": "Генеральное межевание] - [российская империя]",
    "date": "1765",
    "description": "* [ 1765 ] - [Генеральное межевание] - [Российская империя]",
    "location": {
      "name": "Российская империя",
      "lat": 49.73195410075055,
      "lng": 35.34284530095752
    },
    "category": "Дипломатические события"
  },
  {
    "title": "Русско-турецкая война] - [различные театры военных действий]",
    "date": "1768-1774",
    "description": "* [ 1768-1774 ] - [Русско-турецкая война] - [Различные театры военных действий]",
    "location": {
      "name": "Крым",
      "lat": 45.3,
      "lng": 34.2
    },
    "category": "Войны и сражения"
  }
]