[
  {
    "title": "Год ** - **разгром кучума** - река",
    "date": "1598 год",
    "description": "* ** 1598 год ** - **Разгром Кучума** - Река Обь",
    "location": {
      "name": "Река Обь",
      "lat": 49.92184509311546,
      "lng": 51.433276630634694
    },
    "category": "Экономические события"
  },
  {
    "title": "Год ** - **основание мангазеи** - мангазея",
    "date": "1601 год",
    "description": "* ** 1601 год ** - **Основание Мангазеи** - Мангазея (низовья реки Таз)",
    "location": {
      "name": "Низовья реки Таз",
      "lat": 63.461427495544186,
      "lng": 44.01644557889783
    },
    "category": "Военные кампании"
  },
  {
    "title": "Год ** - **основание томска** - томск",
    "date": "1604 год",
    "description": "* ** 1604 год ** - **Основание Томска** - Томск",
    "location": {
      "name": "Томск",
      "lat": 58.39929229392079,
      "lng": 30.145000370188427
    },
    "category": "Научные достижения"
  },
  {
    "title": "Год ** - **основание туруханска (новая мангазея)**",
    "date": "1607 год",
    "description": "* ** 1607 год ** - **Основание Туруханска (Новая Мангазея)** - Туруханск (устье реки Турухан)",
    "location": {
      "name": "Устье реки Турухан",
      "lat": 56.59989198800111,
      "lng": 33.60634277017439
    },
    "category": "Территориальные приобретения"
  },
  {
    "title": "Год ** - **основание кузнецкого острога** -",
    "date": "1618 год",
    "description": "* ** 1618 год ** - **Основание Кузнецкого острога** - Кузнецк (современный Новокузнецк)",
    "location": {
      "name": "Кузнецк",
      "lat": 47.328447484322744,
      "lng": 30.922683271683546
    },
    "category": "Территориальные приобретения"
  },
  {
    "title": "Год ** - **указ о запрете морского",
    "date": "1619 год",
    "description": "* ** 1619 год ** - **Указ о запрете морского пути в Мангазею** - Москва",
    "location": {
      "name": "Москва",
      "lat": 55.75,
      "lng": 37.62
    },
    "category": "Дипломатические события"
  },
  {
    "title": "Год ** - **образование тобольской епархии** -",
    "date": "1620 год",
    "description": "* ** 1620 год ** - **Образование Тобольской епархии** - Тобольск",
    "location": {
      "name": "Тобольск",
      "lat": 64.23623924155073,
      "lng": 36.77999040315394
    },
    "category": "Становление государства"
  },
  {
    "title": "Год ** - **основание енисейского острога** -",
    "date": "1621 год",
    "description": "* ** 1621 год ** - **Основание Енисейского острога** - Енисейск",
    "location": {
      "name": "Енисейск",
      "lat": 52.52907638308073,
      "lng": 43.00499228682664
    },
    "category": "Дипломатические события"
  },
  {
    "title": "Год ** - **основание красноярского острога** -",
    "date": "1628 год",
    "description": "* ** 1628 год ** - **Основание Красноярского острога** - Красноярск",
    "location": {
      "name": "Красноярск",
      "lat": 54.33960891110134,
      "lng": 41.28940843559662
    },
    "category": "Культура и религия"
  },
  {
    "title": "Год ** - **поход ивана реброва на",
    "date": "1630 год",
    "description": "* ** 1630 год ** - **Поход Ивана Реброва на Лену** - Река Лена",
    "location": {
      "name": "Река Лена",
      "lat": 62.68767736135287,
      "lng": 29.34407770157984
    },
    "category": "Становление государства"
  },
  {
    "title": "Год ** - **основание якутского острога** -",
    "date": "1632 год",
    "description": "* ** 1632 год ** - **Основание Якутского острога** - Якутск",
    "location": {
      "name": "Якутск",
      "lat": 50.450838132153436,
      "lng": 39.44317566137863
    },
    "category": "Основание городов"
  },
  {
    "title": "Год ** - **поход ивана москвитина к",
    "date": "1639 год",
    "description": "* ** 1639 год ** - **Поход Ивана Москвитина к Охотскому морю** - Охотское море",
    "location": {
      "name": "Охотское море",
      "lat": 49.044611701428735,
      "lng": 41.63649820186872
    },
    "category": "Революции и перевороты"
  },
  {
    "title": "Год ** - **поход василия пояркова в",
    "date": "1643 год",
    "description": "* ** 1643 год ** - **Поход Василия Пояркова в Даурию** - Река Амур",
    "location": {
      "name": "Река Амур",
      "lat": 46.76443375769069,
      "lng": 49.601879711011264
    },
    "category": "Политические реформы"
  },
  {
    "title": "Год ** - **экспедиция семёна дежнёва и",
    "date": "1648 год",
    "description": "* ** 1648 год ** - **Экспедиция Семёна Дежнёва и Федота Попова** - Берингов пролив",
    "location": {
      "name": "Берингов пролив",
      "lat": 58.67695356567106,
      "lng": 32.856200189570096
    },
    "category": "Научные достижения"
  },
  {
    "title": "Годы** - **походы ерофея хабарова по амуру**",
    "date": "1649-1653",
    "description": "* ** 1649-1653 годы** - **Походы Ерофея Хабарова по Амуру** - Река Амур",
    "location": {
      "name": "Река Амур",
      "lat": 61.0018623282915,
      "lng": 45.57140075835022
    },
    "category": "Становление государства"
  },
  {
    "title": "Год ** - **бой у ачанского острога**",
    "date": "1652 год",
    "description": "* ** 1652 год ** - **Бой у Ачанского острога** - Река Амур",
    "location": {
      "name": "Река Амур",
      "lat": 57.19409777496398,
      "lng": 35.4553754436174
    },
    "category": "Войны и сражения"
  },
  {
    "title": "Год ** - **основание нерчинского острога** -",
    "date": "1654 год",
    "description": "* ** 1654 год ** - **Основание Нерчинского острога** - Нерчинск",
    "location": {
      "name": "Нерчинск",
      "lat": 62.3972444187047,
      "lng": 32.915719564296325
    },
    "category": "Революции и перевороты"
  },
  {
    "title": "Год ** - **основание иркутского острога** -",
    "date": "1661 год",
    "description": "* ** 1661 год ** - **Основание Иркутского острога** - Иркутск",
    "location": {
      "name": "Иркутск",
      "lat": 51.429355197970054,
      "lng": 51.14844417174089
    },
    "category": "Дипломатические события"
  },
  {
    "title": "Год ** - **бунт в мангазее** -",
    "date": "1662 год",
    "description": "* ** 1662 год ** - **Бунт в Мангазее** - Мангазея",
    "location": {
      "name": "Мангазея",
      "lat": 51.91866561977433,
      "lng": 29.0382178434738
    },
    "category": "Революции и перевороты"
  },
  {
    "title": "Год ** - **соборное уложение (статьи о",
    "date": "1667 год",
    "description": "* ** 1667 год ** - **Соборное уложение (статьи о Сибири)** - Москва",
    "location": {
      "name": "Москва",
      "lat": 55.75,
      "lng": 37.62
    },
    "category": "Культура и религия"
  },
  {
    "title": "Год ** - **восстание в якутске** -",
    "date": "1670 год",
    "description": "* ** 1670 год ** - **Восстание в Якутске** - Якутск",
    "location": {
      "name": "Якутск",
      "lat": 56.67865036267189,
      "lng": 34.65996681429472
    },
    "category": "Революции и перевороты"
  },
  {
    "title": "Годы** - **посольство николая спафария в китай**",
    "date": "1675-1678",
    "description": "* ** 1675-1678 годы** - **Посольство Николая Спафария в Китай** - Пекин",
    "location": {
      "name": "Пекин",
      "lat": 50.14015588684943,
      "lng": 38.30555430603956
    },
    "category": "Культура и религия"
  },
  {
    "title": "Год ** - **учреждение сибирского приказа** -",
    "date": "1682 год",
    "description": "* ** 1682 год ** - **Учреждение Сибирского приказа** - Москва",
    "location": {
      "name": "Москва",
      "lat": 55.75,
      "lng": 37.62
    },
    "category": "Революции и перевороты"
  },
  {
    "title": "Год ** - **основание верхнеудинска (улан-удэ)** -",
    "date": "1686 год",
    "description": "* ** 1686 год ** - **Основание Верхнеудинска (Улан-Удэ)** - Верхнеудинск (Улан-Удэ)",
    "location": {
      "name": "Верхнеудинск (Улан-Удэ)",
      "lat": 46.25029185086718,
      "lng": 31.72648171573637
    },
    "category": "Научные достижения"
  },
  {
    "title": "Нерчинский договор с китаем",
    "date": "1689 год",
    "description": "* ** 1689 год ** - **Нерчинский договор с Китаем** - Нерчинск",
    "location": {
      "name": "Нерчинск",
      "lat": 62.91401358570735,
      "lng": 27.664897985373827
    },
    "category": "Дипломатические события"
  },
  {
    "title": "Камчатская экспедиция владимира атласова",
    "date": "1697-1699",
    "description": "* ** 1697-1699 годы** - **Камчатская экспедиция Владимира Атласова** - Камчатка",
    "location": {
      "name": "Камчатка",
      "lat": 48.148764606057505,
      "lng": 41.92004792448866
    },
    "category": "Научные достижения"
  },
  {
    "title": "Год ** - **основание селенгинска** - селенгинск",
    "date": "1698 год",
    "description": "* ** 1698 год ** - **Основание Селенгинска** - Селенгинск",
    "location": {
      "name": "Селенгинск",
      "lat": 45.8692638496175,
      "lng": 44.007749145549
    },
    "category": "Научные достижения"
  },
  {
    "title": "Основание туруханского зимовья (новая мангазея)** - **нижнее",
    "date": "1610",
    "description": "* ** 1610 ** - **Основание Туруханского зимовья (Новая Мангазея)** - **Нижнее течение реки Енисей, район современного Туруханска**",
    "location": {
      "name": "Район современного Туруханска",
      "lat": 60.44148541498765,
      "lng": 40.67398537102187
    },
    "category": "Дипломатические события"
  },
  {
    "title": "Поход дмитрия барятинского на енисей** - **енисейский",
    "date": "1618-1619",
    "description": "* ** 1618-1619 ** - **Поход Дмитрия Барятинского на Енисей** - **Енисейский уезд**",
    "location": {
      "name": "Енисейский уезд",
      "lat": 53.272192862585854,
      "lng": 51.37328386274733
    },
    "category": "Социальные реформы"
  },
  {
    "title": "Поход пянды на лену** - **река лена",
    "date": "1623-1624",
    "description": "* ** 1623-1624 ** - **Поход Пянды на Лену** - **Река Лена и ее притоки**",
    "location": {
      "name": "Река Лена",
      "lat": 62.850531118427,
      "lng": 43.87517125175917
    },
    "category": "Изменения границ"
  },
  {
    "title": "Основание красноярского острога** - **место слияния рек",
    "date": "1628",
    "description": "* ** 1628 ** - **Основание Красноярского острога** - **Место слияния рек Кача и Енисей**",
    "location": {
      "name": "Место слияния рек Кача и Енисей",
      "lat": 49.39889414898358,
      "lng": 31.600978385750885
    },
    "category": "Научные достижения"
  },
  {
    "title": "Поход ивана реброва на лену** - **река",
    "date": "1630",
    "description": "* ** 1630 ** - **Поход Ивана Реброва на Лену** - **Река Лена**",
    "location": {
      "name": "Река Лена",
      "lat": 46.65024390150471,
      "lng": 51.75864690862827
    },
    "category": "Социальные реформы"
  },
  {
    "title": "Поход василия бугорa на реку вилюй** -",
    "date": "1631-1632",
    "description": "* ** 1631-1632 ** - **Поход Василия Бугорa на реку Вилюй** - **Река Вилюй (приток Лены)**",
    "location": {
      "name": "Река Вилюй",
      "lat": 61.31625999722412,
      "lng": 38.84207895791988
    },
    "category": "Революции и перевороты"
  },
  {
    "title": "Основание якутского острога (ленский острог)** - **правый",
    "date": "1632",
    "description": "* ** 1632 ** - **Основание Якутского острога (Ленский острог)** - **Правый берег реки Лены**",
    "location": {
      "name": "Правый берег реки Лены",
      "lat": 46.96148723201361,
      "lng": 28.29217926843119
    },
    "category": "Военные кампании"
  },
  {
    "title": "Образование якутского воеводства** - **якутск и прилегающие",
    "date": "1638",
    "description": "* ** 1638 ** - **Образование Якутского воеводства** - **Якутск и прилегающие территории**",
    "location": {
      "name": "Якутск",
      "lat": 55.48716234538951,
      "lng": 51.992227410115774
    },
    "category": "Становление государства"
  },
  {
    "title": "Поход ивана москвитина к охотскому морю** -",
    "date": "1639-1641",
    "description": "* ** 1639-1641 ** - **Поход Ивана Москвитина к Охотскому морю** - **Реки Алдан, Мая, Уда, побережье Охотского моря**",
    "location": {
      "name": "Побережье Охотского моря",
      "lat": 52.1663338707804,
      "lng": 31.890128103694078
    },
    "category": "Дипломатические события"
  },
  {
    "title": "Поход василия пояркова в приамурье** - **реки",
    "date": "1643-1646",
    "description": "* ** 1643-1646 ** - **Поход Василия Пояркова в Приамурье** - **Реки Зея, Амур**",
    "location": {
      "name": "Реки Зея, Амур",
      "lat": 51.08035410167264,
      "lng": 31.206586283870685
    },
    "category": "Социальные реформы"
  },
  {
    "title": "Экспедиция семена дежнёва и федота попова** -",
    "date": "1648",
    "description": "* ** 1648 ** - **Экспедиция Семена Дежнёва и Федота Попова** - **Северный Ледовитый океан, Берингов пролив**",
    "location": {
      "name": "Берингов пролив",
      "lat": 64.79739035256037,
      "lng": 36.9778739274536
    },
    "category": "Научные достижения"
  },
  {
    "title": "Походы ерофея хабарова в приамурье** - **река",
    "date": "1649-1653",
    "description": "* ** 1649-1653 ** - **Походы Ерофея Хабарова в Приамурье** - **Река Амур**",
    "location": {
      "name": "Река Амур",
      "lat": 57.6241628311907,
      "lng": 28.377683416757993
    },
    "category": "Войны и сражения"
  },
  {
    "title": "Первое столкновение русских с маньчжурами на амуре",
    "date": "1652",
    "description": "* ** 1652 ** - **Первое столкновение русских с маньчжурами на Амуре (Ачанский бой)** - **Река Амур, район Ачанского острога**",
    "location": {
      "name": "Река Амур, район Ачанского острога",
      "lat": 54.852695150736324,
      "lng": 36.70780809244317
    },
    "category": "Войны и сражения"
  },
  {
    "title": "Основание иркутского острога** - **место слияния рек",
    "date": "1661",
    "description": "* ** 1661 ** - **Основание Иркутского острога** - **Место слияния рек Иркут и Ангара**",
    "location": {
      "name": "Место слияния рек Иркут и Ангара",
      "lat": 52.43238178704275,
      "lng": 47.49843556676966
    },
    "category": "Основание городов"
  },
  {
    "title": "Посольство николая спафария в китай** - **путь",
    "date": "1675-1678",
    "description": "* ** 1675-1678 ** - **Посольство Николая Спафария в Китай** - **Путь через Сибирь в Пекин**",
    "location": {
      "name": "Сибирь",
      "lat": 60.0,
      "lng": 90.0
    },
    "category": "Изменения границ"
  },
  {
    "title": "Нерчинский договор** - **нерчинск**",
    "date": "1689",
    "description": "* ** 1689 ** - **Нерчинский договор** - **Нерчинск**",
    "location": {
      "name": "Нерчинск",
      "lat": 52.381134447396,
      "lng": 48.24821083594708
    },
    "category": "Дипломатические события"
  },
  {
    "title": "Экспедиция владимира атласова на камчатку",
    "date": "1697-1699",
    "description": "* ** 1697-1699 ** - **Экспедиция Владимира Атласова на Камчатку** - **Камчатка**",
    "location": {
      "name": "Камчатка",
      "lat": 52.744152930223606,
      "lng": 31.14389448361574
    },
    "category": "Научные достижения"
  },
  {
    "title": "Бунт стрельцов в сибири** - **тобольск и",
    "date": "1698",
    "description": "* ** 1698 ** - **Бунт стрельцов в Сибири** - **Тобольск и другие сибирские города**",
    "location": {
      "name": "Тобольск",
      "lat": 51.52430674265903,
      "lng": 46.9979976650584
    },
    "category": "Революции и перевороты"
  }
]