[
  {
    "title": "Год ** - первое появление печенегов на",
    "date": "915 год",
    "description": "* ** 915 год ** - Первое появление печенегов на Руси - Южные границы Руси",
    "location": {
      "name": "Южные границы Руси",
      "lat": 52.87766834450839,
      "lng": 34.090861779719944
    },
    "category": "Изменения границ"
  },
  {
    "title": "- война игоря с печенегами - южные границы руси",
    "date": "920 год",
    "description": "* ** 920 год ** - Война Игоря с печенегами - Южные границы Руси",
    "location": {
      "name": "Южные границы Руси",
      "lat": 55.81602528350363,
      "lng": 33.80559029068093
    },
    "category": "Войны и сражения"
  },
  {
    "title": "Год ** - участие печенегов в походе",
    "date": "944 год",
    "description": "* ** 944 год ** - Участие печенегов в походе Игоря на Византию - Поход на Византию",
    "location": {
      "name": "Киев",
      "lat": 50.45,
      "lng": 30.52
    },
    "category": "Военные кампании"
  },
  {
    "title": "Год ** - осада киева печенегами -",
    "date": "968 год",
    "description": "* ** 968 год ** - Осада Киева печенегами - Киев",
    "location": {
      "name": "Киев",
      "lat": 50.45,
      "lng": 30.52
    },
    "category": "Войны и сражения"
  },
  {
    "title": "Год ** - второе нападение печенегов на",
    "date": "969 год",
    "description": "* ** 969 год ** - Второе нападение печенегов на Киев - Киев",
    "location": {
      "name": "Киев",
      "lat": 50.45,
      "lng": 30.52
    },
    "category": "Становление государства"
  },
  {
    "title": "Год ** - убийство князя святослава печенегами",
    "date": "972 год",
    "description": "* ** 972 год ** - Убийство князя Святослава печенегами - Днепровские пороги",
    "location": {
      "name": "Днепровские пороги",
      "lat": 51.7347591361229,
      "lng": 33.59713440017649
    },
    "category": "Дипломатические события"
  },
  {
    "title": "Год ** - нападение печенегов на русь",
    "date": "988 год",
    "description": "* ** 988 год ** - Нападение печенегов на Русь - Южные границы Руси",
    "location": {
      "name": "Южные границы Руси",
      "lat": 55.73361715690213,
      "lng": 32.84638223843889
    },
    "category": "Изменения границ"
  },
  {
    "title": "- битва владимира святославича с печенегами - река трубеж",
    "date": "992 год",
    "description": "* ** 992 год ** - Битва Владимира Святославича с печенегами - Река Трубеж",
    "location": {
      "name": "Переяславль",
      "lat": 45.853951529507036,
      "lng": 40.42094776707848
    },
    "category": "Войны и сражения"
  },
  {
    "title": "- битва под василевом - около василева",
    "date": "996 год",
    "description": "* ** 996 год ** - Битва под Василевом - Около Василева (Василькова)",
    "location": {
      "name": "Васильков",
      "lat": 52.00605162738034,
      "lng": 44.0412013402416
    },
    "category": "Войны и сражения"
  },
  {
    "title": "Год ** - участие печенегов в междоусобице",
    "date": "1015 год",
    "description": "* ** 1015 год ** - Участие печенегов в междоусобице - Южная Русь",
    "location": {
      "name": "Южная Русь",
      "lat": 59.184902241565894,
      "lng": 47.004155726416116
    },
    "category": "Войны и сражения"
  },
  {
    "title": "- битва на реке альте - река альта",
    "date": "1019 год",
    "description": "* ** 1019 год ** - Битва на реке Альте - Река Альта",
    "location": {
      "name": "Река Альта",
      "lat": 47.65884350360677,
      "lng": 39.35157389835379
    },
    "category": "Войны и сражения"
  },
  {
    "title": "Год ** - разгром печенегов под киевом",
    "date": "1036 год",
    "description": "* ** 1036 год ** - Разгром печенегов под Киевом - Киев",
    "location": {
      "name": "Киев",
      "lat": 50.45,
      "lng": 30.52
    },
    "category": "Экономические события"
  },
  {
    "title": "Год ** - последнее упоминание о печенегах",
    "date": "1054 год",
    "description": "* ** 1054 год ** - Последнее упоминание о печенегах в русских летописях - Южные границы Руси",
    "location": {
      "name": "Южные границы Руси",
      "lat": 55.44530604126743,
      "lng": 28.045169345230615
    },
    "category": "Изменения границ"
  },
  {
    "title": "Год ** - первое столкновение русских с",
    "date": "1055 год",
    "description": "* ** 1055 год ** - Первое столкновение русских с половцами - Переяславское княжество",
    "location": {
      "name": "Переяславское княжество",
      "lat": 53.56437581079328,
      "lng": 31.006834026764814
    },
    "category": "Становление государства"
  },
  {
    "title": "Год ** - поражение всеволода ярославича от",
    "date": "1061 год",
    "description": "* ** 1061 год ** - Поражение Всеволода Ярославича от половцев - Близ Переяславля",
    "location": {
      "name": "Близ Переяславля",
      "lat": 59.94044895324164,
      "lng": 35.53755710155315
    },
    "category": "Политические реформы"
  },
  {
    "title": "- битва святослава ярославича с половцами - река снов",
    "date": "1068 год",
    "description": "* ** 1068 год ** - Битва Святослава Ярославича с половцами - Река Снов",
    "location": {
      "name": "Чернигов",
      "lat": 50.39537644334885,
      "lng": 27.823564426753418
    },
    "category": "Войны и сражения"
  },
  {
    "title": "Год ** - гибель изяслава ярославича в",
    "date": "1078 год",
    "description": "* ** 1078 год ** - Гибель Изяслава Ярославича в битве с Олегом Святославичем, поддержанным половцами - Чернигов",
    "location": {
      "name": "Чернигов",
      "lat": 60.87954865779406,
      "lng": 48.22974478411474
    },
    "category": "Дипломатические события"
  },
  {
    "title": "- битва на реке стугне - река стугна",
    "date": "1093 год",
    "description": "* ** 1093 год ** - Битва на реке Стугне - Река Стугна",
    "location": {
      "name": "Река Стугна",
      "lat": 52.61001290495648,
      "lng": 51.26442064623707
    },
    "category": "Войны и сражения"
  },
  {
    "title": "- разгром половцев владимиром мономахом - разные места",
    "date": "1096 год",
    "description": "* ** 1096 год ** - Разгром половцев Владимиром Мономахом - Разные места",
    "location": {
      "name": "Разные места",
      "lat": 58.64890087511185,
      "lng": 50.51151534209789
    },
    "category": "Дипломатические события"
  },
  {
    "title": "Год ** - долобский съезд князей -",
    "date": "1103 год",
    "description": "* ** 1103 год ** - Долобский съезд князей - Долобское озеро",
    "location": {
      "name": "Долобское озеро",
      "lat": 52.20996604482471,
      "lng": 39.55352175041081
    },
    "category": "Социальные реформы"
  },
  {
    "title": "Год ** - поход русских князей на",
    "date": "1103 год",
    "description": "* ** 1103 год ** - Поход русских князей на половцев - Степь",
    "location": {
      "name": "Степь",
      "lat": 59.61207991383084,
      "lng": 27.402406140736492
    },
    "category": "Войны и сражения"
  },
  {
    "title": "Год ** - крестовый поход русских князей",
    "date": "1111 год",
    "description": "* ** 1111 год ** - Крестовый поход русских князей в степь - Степь",
    "location": {
      "name": "Степь",
      "lat": 56.54087088326614,
      "lng": 49.399478789204416
    },
    "category": "Становление государства"
  },
  {
    "title": "- битва на реке сальнице - река сальница",
    "date": "1111 год",
    "description": "* ** 1111 год ** - Битва на реке Сальнице - Река Сальница",
    "location": {
      "name": "Река Сальница",
      "lat": 60.67782536417001,
      "lng": 49.429533720218885
    },
    "category": "Войны и сражения"
  },
  {
    "title": "Решающая победа русских войск над половцами в",
    "date": "1111",
    "description": "Решающая победа русских войск над половцами в ходе похода 1111 года",
    "location": {
      "name": "Река Сальница",
      "lat": 63.65956169219909,
      "lng": 48.080259333455594
    },
    "category": "Военные кампании"
  },
  {
    "title": "- восстание в киеве после смерти святополка изяславича - киев",
    "date": "1113 год",
    "description": "* ** 1113 год ** - Восстание в Киеве после смерти Святополка Изяславича - Киев",
    "location": {
      "name": "Киев",
      "lat": 50.45,
      "lng": 30.52
    },
    "category": "Революции и перевороты"
  },
  {
    "title": "- поход владимира мономаха на половцев - дон",
    "date": "1116 год",
    "description": "* ** 1116 год ** - Поход Владимира Мономаха на половцев - Дон",
    "location": {
      "name": "Дон",
      "lat": 47.23,
      "lng": 39.72
    },
    "category": "Дипломатические события"
  },
  {
    "title": "Год ** - разорение киева войсками андрея",
    "date": "1169 год",
    "description": "* ** 1169 год ** - Разорение Киева войсками Андрея Боголюбского, в составе которых были половцы - Киев",
    "location": {
      "name": "Киев",
      "lat": 50.45,
      "lng": 30.52
    },
    "category": "Основание городов"
  },
  {
    "title": "Год ** - неудачный поход князя игоря",
    "date": "1185 год",
    "description": "* ** 1185 год ** - Неудачный поход князя Игоря Святославича против половцев - Река Каяла",
    "location": {
      "name": "Река Каяла",
      "lat": 62.48469894111788,
      "lng": 49.93474215357465
    },
    "category": "Военные кампании"
  },
  {
    "title": "Год ** - поход святослава всеволодовича на",
    "date": "1190 год",
    "description": "* ** 1190 год ** - Поход Святослава Всеволодовича на половцев - Южные степи",
    "location": {
      "name": "Южные степи",
      "lat": 50.35588040921825,
      "lng": 40.63692742630212
    },
    "category": "Дипломатические события"
  },
  {
    "title": "- битва на реке калке - река калка",
    "date": "1223 год",
    "description": "* ** 1223 год , 31 мая** - Битва на реке Калке - Река Калка (современная Донецкая область, Украина)",
    "location": {
      "name": "Донецкая область, Украина",
      "lat": 50.45,
      "lng": 30.52
    },
    "category": "Войны и сражения"
  },
  {
    "title": "Год ** - окончательное подчинение половцев монголами",
    "date": "1239 год",
    "description": "* ** 1239 год ** - Окончательное подчинение половцев монголами - Половецкая степь",
    "location": {
      "name": "Половецкая степь",
      "lat": 61.6830124751729,
      "lng": 42.80582567108291
    },
    "category": "Основание городов"
  },
  {
    "title": "Поход владимира святославича против печенегов",
    "date": "996 год",
    "description": "[ 996 год ] - **Поход Владимира Святославича против печенегов** - Окрестности Василева (совр",
    "location": {
      "name": "Окрестности Василева",
      "lat": 59.282900497103704,
      "lng": 32.56616483733451
    },
    "category": "Дипломатические события"
  },
  {
    "title": "Владимир организует новый поход",
    "date": "995",
    "description": "*После неудачного похода 995 года, Владимир организует новый поход, чтобы укрепить южные рубежи",
    "location": {
      "name": "Киев",
      "lat": 50.45,
      "lng": 30.52
    },
    "category": "Дипломатические события"
  },
  {
    "title": "Год ] - **использование печенегов в междоусобной",
    "date": "1015 год",
    "description": "[ 1015 год ] - **Использование печенегов в междоусобной борьбе** - Окрестности Киева",
    "location": {
      "name": "Окрестности Киева",
      "lat": 50.45,
      "lng": 30.52
    },
    "category": "Становление государства"
  },
  {
    "title": "Год ] - **основание городов-крепостей на реке",
    "date": "1032 год",
    "description": "[ 1032 год ] - **Основание городов-крепостей на реке Рось** - Поросье (южная Киевская область)",
    "location": {
      "name": "Поросье (южная Киевская область)",
      "lat": 50.45,
      "lng": 30.52
    },
    "category": "Основание городов"
  },
  {
    "title": "Год ] - **первое появление половцев в",
    "date": "1054 год",
    "description": "[ 1054 год ] - **Первое появление половцев в русских летописях** - Окрестности Переяславля",
    "location": {
      "name": "Окрестности Переяславля",
      "lat": 62.94288284749901,
      "lng": 37.27750768093531
    },
    "category": "Революции и перевороты"
  },
  {
    "title": "Год ] - **нападение половцев на русь",
    "date": "1061 год",
    "description": "[ 1061 год ] - **Нападение половцев на Русь под предводительством Искала** - Окрестности Переяславля",
    "location": {
      "name": "Окрестности Переяславля",
      "lat": 53.114684305247536,
      "lng": 43.347148372224666
    },
    "category": "Военные кампании"
  },
  {
    "title": "Год ] - **битва на реке альте**",
    "date": "1068 год",
    "description": "[ 1068 год ] - **Битва на реке Альте** - Река Альта (между Переяславлем и Киевом)",
    "location": {
      "name": "Река Альта (между Переяславлем и Киевом)",
      "lat": 50.45,
      "lng": 30.52
    },
    "category": "Войны и сражения"
  },
  {
    "title": "Год ] - **битва на сожице** -",
    "date": "1078 год",
    "description": "[ 1078 год ] - **Битва на Сожице** - Река Сожица (между Черниговом и Стародубом)",
    "location": {
      "name": "Река Сожица (между Черниговом и Стародубом)",
      "lat": 52.21503296081445,
      "lng": 39.920813943329065
    },
    "category": "Войны и сражения"
  },
  {
    "title": "Год ] - **битва на реке стугне**",
    "date": "1093 год",
    "description": "[ 1093 год ] - **Битва на реке Стугне** - Река Стугна (Киевская область)",
    "location": {
      "name": "Река Стугна (Киевская область)",
      "lat": 50.45,
      "lng": 30.52
    },
    "category": "Войны и сражения"
  },
  {
    "title": "Год ] - **половецкий поход на переяславль**",
    "date": "1096 год",
    "description": "[ 1096 год ] - **Половецкий поход на Переяславль** - Окрестности Переяславля",
    "location": {
      "name": "Окрестности Переяславля",
      "lat": 45.995631519319915,
      "lng": 28.897501001156463
    },
    "category": "Основание городов"
  },
  {
    "title": "Год ] - **съезд князей на реке",
    "date": "1101 год",
    "description": "[ 1101 год ] - **Съезд князей на реке Золоче** - Река Золоча (между Киевом и Переяславлем)",
    "location": {
      "name": "Река Золоча (между Киевом и Переяславлем)",
      "lat": 50.45,
      "lng": 30.52
    },
    "category": "Территориальные приобретения"
  },
  {
    "title": "Год ] - **долобский съезд князей** -",
    "date": "1103 год",
    "description": "[ 1103 год ] - **Долобский съезд князей** - Долобское озеро (около Киева)",
    "location": {
      "name": "Долобское озеро (около Киева)",
      "lat": 50.45,
      "lng": 30.52
    },
    "category": "Политические реформы"
  },
  {
    "title": "Год ] - **поход половцев на лубны**",
    "date": "1107 год",
    "description": "[ 1107 год ] - **Поход половцев на Лубны** - Окрестности Лубен (Полтавская область)",
    "location": {
      "name": "Окрестности Лубен (Полтавская область)",
      "lat": 58.194555623037914,
      "lng": 40.42980187676849
    },
    "category": "Культура и религия"
  },
  {
    "title": "Год ] - **поход русских князей на",
    "date": "1111 год",
    "description": "[ 1111 год ] - **Поход русских князей на Шарукань** - Донская степь, район Шарукани (предположительно, район современного Харькова)",
    "location": {
      "name": "Район современного Харькова",
      "lat": 60.85693290703017,
      "lng": 36.728437817548645
    },
    "category": "Основание городов"
  },
  {
    "title": "Поход ярополка владимировича на половцев",
    "date": "1116 год",
    "description": "[ 1116 год ] - **Поход Ярополка Владимировича на половцев** - Донская степь",
    "location": {
      "name": "Донская степь",
      "lat": 60.50420350020101,
      "lng": 42.192197545058285
    },
    "category": "Дипломатические события"
  },
  {
    "title": "Год ] - **битва на реке серена**",
    "date": "1152 год",
    "description": "[ 1152 год ] - **Битва на реке Серена** - Река Серена (район Козельска)",
    "location": {
      "name": "Район Козельска",
      "lat": 46.87584673739782,
      "lng": 47.570615684290786
    },
    "category": "Войны и сражения"
  },
  {
    "title": "Год ] - **поход святослава всеволодовича против",
    "date": "1184 год",
    "description": "[ 1184 год ] - **Поход Святослава Всеволодовича против половцев** - Южный Буг",
    "location": {
      "name": "Южный Буг",
      "lat": 47.33297839364619,
      "lng": 49.21776604113457
    },
    "category": "Территориальные приобретения"
  },
  {
    "title": "Год ] - **поход рюрика ростиславича на",
    "date": "1190 год",
    "description": "[ 1190 год ] - **Поход Рюрика Ростиславича на половцев** - Окрестности Торческа (Киевская область)",
    "location": {
      "name": "Окрестности Торческа (Киевская область)",
      "lat": 50.45,
      "lng": 30.52
    },
    "category": "Основание городов"
  },
  {
    "title": "Год ] - **битва на реке калке**",
    "date": "1223 год",
    "description": "[ 1223 год ] - **Битва на реке Калке** - Река Калка (Донецкая область)",
    "location": {
      "name": "Река Калка (Донецкая область)",
      "lat": 63.74767584340058,
      "lng": 29.383201640528384
    },
    "category": "Войны и сражения"
  }
]