[
  {
    "title": "Мая** - **битва на реке калке** -",
    "date": "1223",
    "description": "* ** 1223 , 31 мая** - **Битва на реке Калке** - Река Калка (современная Донецкая область, Украина)",
    "location": {
      "name": "Донецкая область, Украина",
      "lat": 50.45,
      "lng": 30.52
    },
    "category": "Войны и сражения"
  },
  {
    "title": "Разорение северо-восточной руси батыем** - северо-восточная русь",
    "date": "1237-1238",
    "description": "* ** 1237-1238 ** - **Разорение Северо-Восточной Руси Батыем** - Северо-Восточная Русь (Рязань, Владимир, Суздаль, Москва, Торжок и др",
    "location": {
      "name": "Северо-Восточная Русь",
      "lat": 56.587678168063206,
      "lng": 45.69974501387773
    },
    "category": "Дипломатические события"
  },
  {
    "title": "Марта** - **битва на реке сить** -",
    "date": "1238",
    "description": "* ** 1238 , 4 марта** - **Битва на реке Сить** - Река Сить (Ярославская область)",
    "location": {
      "name": "Река Сить (Ярославская область)",
      "lat": 49.54324598291971,
      "lng": 39.07774122909594
    },
    "category": "Войны и сражения"
  },
  {
    "title": "Разорение южной руси батыем** - южная русь",
    "date": "1239-1240",
    "description": "* ** 1239-1240 ** - **Разорение Южной Руси Батыем** - Южная Русь (Киев, Чернигов, Переяславль и др",
    "location": {
      "name": "Киев",
      "lat": 50.45,
      "lng": 30.52
    },
    "category": "Изменения границ"
  },
  {
    "title": "Декабря** - **взятие киева монголами** - киев",
    "date": "1240",
    "description": "* ** 1240 , 6 декабря** - **Взятие Киева монголами** - Киев",
    "location": {
      "name": "Киев",
      "lat": 50.45,
      "lng": 30.52
    },
    "category": "Научные достижения"
  },
  {
    "title": "Образование золотой орды** - нижнее поволжье, степи",
    "date": "1242",
    "description": "* ** 1242 ** - **Образование Золотой Орды** - Нижнее Поволжье, степи Восточной Европы",
    "location": {
      "name": "Нижнее Поволжье",
      "lat": 45.4857327662577,
      "lng": 33.63652993080387
    },
    "category": "Становление государства"
  },
  {
    "title": "Ярослав всеволодович получает ярлык на великое княжение**",
    "date": "1243",
    "description": "* ** 1243 ** - **Ярослав Всеволодович получает ярлык на великое княжение** - Золотая Орда, Сарай-Бату",
    "location": {
      "name": "Сарай-Бату",
      "lat": 57.06895670138918,
      "lng": 34.911529425544984
    },
    "category": "Войны и сражения"
  },
  {
    "title": "- владимирская земля",
    "date": "1252",
    "description": "* ** 1252 ** - **Неврюева рать** - Владимирская земля",
    "location": {
      "name": "Владимир",
      "lat": 56.13,
      "lng": 40.42
    },
    "category": "Дипломатические события"
  },
  {
    "title": "Перепись населения руси монголами** - русские княжества",
    "date": "1257-1259",
    "description": "* ** 1257-1259 ** - **Перепись населения Руси монголами** - Русские княжества",
    "location": {
      "name": "Русские княжества",
      "lat": 58.005077120499806,
      "lng": 46.86459525042035
    },
    "category": "Становление государства"
  },
  {
    "title": "Восстания против сборщиков дани** - ростов, суздаль",
    "date": "1262",
    "description": "* ** 1262 ** - **Восстания против сборщиков дани** - Ростов, Суздаль, Ярославль, Владимир",
    "location": {
      "name": "Ростов, Суздаль",
      "lat": 56.42,
      "lng": 40.44
    },
    "category": "Революции и перевороты"
  },
  {
    "title": "Менгу-тимур выдает ярлык на княжение дмитрию александровичу**",
    "date": "1266",
    "description": "* ** 1266 ** - **Менгу-Тимур выдает ярлык на княжение Дмитрию Александровичу** - Золотая Орда",
    "location": {
      "name": "Сарай-Берке",
      "lat": 56.702370930709165,
      "lng": 41.44350863392857
    },
    "category": "Восстания и бунты"
  },
  {
    "title": "Первое упоминание о московских князьях** - москва",
    "date": "1276",
    "description": "* ** 1276 ** - **Первое упоминание о московских князьях** - Москва",
    "location": {
      "name": "Москва",
      "lat": 55.75,
      "lng": 37.62
    },
    "category": "Научные достижения"
  },
  {
    "title": "Дюденева рать** - северо-восточная русь",
    "date": "1285",
    "description": "* ** 1285 ** - **Дюденева рать** - Северо-Восточная Русь",
    "location": {
      "name": "Северо-Восточная Русь",
      "lat": 63.95426269366097,
      "lng": 36.85888655998811
    },
    "category": "Основание городов"
  },
  {
    "title": "Федорчукова рать** - северо-восточная русь",
    "date": "1293",
    "description": "* ** 1293 ** - **Федорчукова рать** - Северо-Восточная Русь",
    "location": {
      "name": "Северо-Восточная Русь",
      "lat": 56.52076343985505,
      "lng": 39.959162042950766
    },
    "category": "Научные достижения"
  },
  {
    "title": "Тверское восстание** - тверь",
    "date": "1327",
    "description": "* ** 1327 ** - **Тверское восстание** - Тверь",
    "location": {
      "name": "Тверь",
      "lat": 63.3583144643725,
      "lng": 50.52458599107671
    },
    "category": "Революции и перевороты"
  },
  {
    "title": "Иван калита получает ярлык на великое княжение**",
    "date": "1328",
    "description": "* ** 1328 ** - **Иван Калита получает ярлык на великое княжение** - Золотая Орда",
    "location": {
      "name": "Золотая Орда",
      "lat": 53.536391644331545,
      "lng": 34.781839900385734
    },
    "category": "Войны и сражения"
  },
  {
    "title": "Великая замятня в золотой орде** - золотая",
    "date": "1359-1380",
    "description": "* ** 1359-1380 ** - **Великая замятня в Золотой Орде** - Золотая Орда",
    "location": {
      "name": "Сарай-Берке",
      "lat": 47.31528207173136,
      "lng": 37.11051072375341
    },
    "category": "Изменения границ"
  },
  {
    "title": "Начало строительства белокаменного московского кремля** - москва",
    "date": "1367",
    "description": "* ** 1367 ** - **Начало строительства белокаменного Московского Кремля** - Москва",
    "location": {
      "name": "Москва",
      "lat": 55.75,
      "lng": 37.62
    },
    "category": "Политические реформы"
  },
  {
    "title": "Августа** - **битва на реке воже** -",
    "date": "1378",
    "description": "* ** 1378 , 11 августа** - **Битва на реке Воже** - Река Вожа (Рязанская область)",
    "location": {
      "name": "Река Вожа (Рязанская область)",
      "lat": 45.15264037776785,
      "lng": 47.79045543324463
    },
    "category": "Войны и сражения"
  },
  {
    "title": "Сентября** - **куликовская битва** - куликово поле",
    "date": "1380",
    "description": "* ** 1380 , 8 сентября** - **Куликовская битва** - Куликово поле (Тульская область)",
    "location": {
      "name": "Куликово поле",
      "lat": 53.67,
      "lng": 38.67
    },
    "category": "Войны и сражения"
  },
  {
    "title": "Нашествие тохтамыша на москву** - москва",
    "date": "1382",
    "description": "* ** 1382 ** - **Нашествие Тохтамыша на Москву** - Москва",
    "location": {
      "name": "Москва",
      "lat": 55.75,
      "lng": 37.62
    },
    "category": "Дипломатические события"
  },
  {
    "title": "Разгром золотой орды тимуром (тамерланом)** - золотая",
    "date": "1395",
    "description": "* ** 1395 ** - **Разгром Золотой Орды Тимуром (Тамерланом)** - Золотая Орда",
    "location": {
      "name": "Река Терек",
      "lat": 45.2235913254759,
      "lng": 48.3191182956028
    },
    "category": "Восстания и бунты"
  },
  {
    "title": "Нашествие едигея на москву** - москва",
    "date": "1408",
    "description": "* ** 1408 ** - **Нашествие Едигея на Москву** - Москва",
    "location": {
      "name": "Москва",
      "lat": 55.75,
      "lng": 37.62
    },
    "category": "Социальные реформы"
  },
  {
    "title": "Флорентийская уния** - флоренция",
    "date": "1439",
    "description": "* ** 1439 ** - **Флорентийская уния** - Флоренция",
    "location": {
      "name": "Флоренция",
      "lat": 49.560718621051976,
      "lng": 48.787713330560436
    },
    "category": "Военные кампании"
  },
  {
    "title": "Битва под суздалем** - окрестности суздаля",
    "date": "1445",
    "description": "* ** 1445 ** - **Битва под Суздалем** - Окрестности Суздаля",
    "location": {
      "name": "Окрестности Суздаля",
      "lat": 57.5563686749245,
      "lng": 29.69776737049437
    },
    "category": "Войны и сражения"
  },
  {
    "title": "Избрание ионы митрополитом московским без согласования с",
    "date": "1448",
    "description": "* ** 1448 ** - **Избрание Ионы митрополитом Московским без согласования с Константинополем** - Москва",
    "location": {
      "name": "Москва",
      "lat": 55.75,
      "lng": 37.62
    },
    "category": "Территориальные приобретения"
  },
  {
    "title": "Касимовское ханство** - мещёра (рязанская область",
    "date": "1452",
    "description": "* ** 1452 ** - **Касимовское ханство** - Мещёра (Рязанская область)",
    "location": {
      "name": "Мещёра (Рязанская область)",
      "lat": 61.665316339067694,
      "lng": 41.02249754553128
    },
    "category": "Становление государства"
  },
  {
    "title": "Иван iii отказывается платить дань орде** -",
    "date": "1472",
    "description": "* ** 1472 ** - **Иван III отказывается платить дань Орде** - Москва",
    "location": {
      "name": "Москва",
      "lat": 55.75,
      "lng": 37.62
    },
    "category": "Войны и сражения"
  },
  {
    "title": "Стояние на реке угре** - река угра",
    "date": "1480",
    "description": "* ** 1480 ** - **Стояние на реке Угре** - Река Угра (граница Московского княжества и Литвы)",
    "location": {
      "name": "Река Угра",
      "lat": 47.34470466046152,
      "lng": 27.071673693193766
    },
    "category": "Становление государства"
  },
  {
    "title": "Присоединение казанского ханства** - казань",
    "date": "1487",
    "description": "* ** 1487 ** - **Присоединение Казанского ханства** - Казань",
    "location": {
      "name": "Казань",
      "lat": 55.79,
      "lng": 49.12
    },
    "category": "Изменения границ"
  },
  {
    "title": "Ликвидация большой орды** - степи между доном",
    "date": "1502",
    "description": "* ** 1502 ** - **Ликвидация Большой Орды** - Степи между Доном и Днепром",
    "location": {
      "name": "Степи между Доном и Днепром",
      "lat": 49.25346412270984,
      "lng": 33.88121637682083
    },
    "category": "Изменения границ"
  },
  {
    "title": "Участие русских князей в походе ордынцев на",
    "date": "1277",
    "description": "* ** 1277 ** - **Участие русских князей в походе ордынцев на ясов** - Северный Кавказ",
    "location": {
      "name": "Северный Кавказ",
      "lat": 43.0,
      "lng": 44.0
    },
    "category": "Войны и сражения"
  },
  {
    "title": "Разорение руси войсками хана телебуги** - северо-восточная",
    "date": "1281-1282",
    "description": "* ** 1281-1282 ** - **Разорение Руси войсками хана Телебуги** - Северо-Восточная Русь",
    "location": {
      "name": "Северо-Восточная Русь",
      "lat": 56.84372088179052,
      "lng": 29.16737122528574
    },
    "category": "Восстания и бунты"
  },
  {
    "title": "Ярлык дмитрию александровичу на великое княжение владимирское",
    "date": "1283",
    "description": "* ** 1283 ** - **Ярлык Дмитрию Александровичу на великое княжение Владимирское** - Золотая Орда",
    "location": {
      "name": "Владимир",
      "lat": 56.13,
      "lng": 40.42
    },
    "category": "Дипломатические события"
  },
  {
    "title": "Поход ордынцев во главе с козьей на",
    "date": "1285",
    "description": "* ** 1285 ** - **Поход ордынцев во главе с Козьей на Рязанскую землю** - Рязанская земля",
    "location": {
      "name": "Рязанская земля",
      "lat": 56.38289741668786,
      "lng": 28.27926234142425
    },
    "category": "Военные кампании"
  },
  {
    "title": "Поход ордынцев на курск** - курск",
    "date": "1288",
    "description": "* ** 1288 ** - **Поход ордынцев на Курск** - Курск",
    "location": {
      "name": "Курск",
      "lat": 50.387783436169954,
      "lng": 32.444619878072
    },
    "category": "Войны и сражения"
  },
  {
    "title": "Смерть хана тохты и начало периода нестабильности",
    "date": "1294",
    "description": "* ** 1294 ** - **Смерть хана Тохты и начало периода нестабильности в Орде** - Золотая Орда",
    "location": {
      "name": "Сарай-Берке",
      "lat": 47.64757566204648,
      "lng": 46.28080702688547
    },
    "category": "Военные кампании"
  },
  {
    "title": "Поход ордынцев на брянск** - брянск",
    "date": "1300",
    "description": "* ** 1300 ** - **Поход ордынцев на Брянск** - Брянск",
    "location": {
      "name": "Брянск",
      "lat": 62.0848441763659,
      "lng": 45.633889325454454
    },
    "category": "Восстания и бунты"
  },
  {
    "title": "Михаил ярославич тверской получает ярлык на великое",
    "date": "1304",
    "description": "* ** 1304 ** - **Михаил Ярославич Тверской получает ярлык на великое княжение** - Золотая Орда",
    "location": {
      "name": "Золотая Орда",
      "lat": 49.49640051498744,
      "lng": 27.958732829611314
    },
    "category": "Революции и перевороты"
  },
  {
    "title": "Поход ордынцев во главе с кавгадыем на",
    "date": "1315",
    "description": "* ** 1315 ** - **Поход ордынцев во главе с Кавгадыем на Тверь** - Тверь",
    "location": {
      "name": "Тверь",
      "lat": 50.14870930737872,
      "lng": 34.724918204981336
    },
    "category": "Изменения границ"
  },
  {
    "title": "Казнь михаила ярославича тверского в орде** -",
    "date": "1318",
    "description": "* ** 1318 ** - **Казнь Михаила Ярославича Тверского в Орде** - Золотая Орда",
    "location": {
      "name": "Сарай-Берке",
      "lat": 64.50394108065159,
      "lng": 31.48289310352013
    },
    "category": "Восстания и бунты"
  },
  {
    "title": "Раздел руси между иваном калитой и александром",
    "date": "1328",
    "description": "* ** 1328 ** - **Раздел Руси между Иваном Калитой и Александром Васильевичем Суздальским** - Золотая Орда",
    "location": {
      "name": "Золотая Орда",
      "lat": 48.4415746489566,
      "lng": 27.826444163969796
    },
    "category": "Изменения границ"
  },
  {
    "title": "Казнь александра михайловича тверского и его сына",
    "date": "1339",
    "description": "* ** 1339 ** - **Казнь Александра Михайловича Тверского и его сына Федора в Орде** - Золотая Орда",
    "location": {
      "name": "Золотая Орда",
      "lat": 52.74255004812816,
      "lng": 47.042488099017916
    },
    "category": "Революции и перевороты"
  },
  {
    "title": "Битва на реке воже** - рязанская земля",
    "date": "1365",
    "description": "* ** 1365 ** - **Битва на реке Воже** - Рязанская земля",
    "location": {
      "name": "Рязанская земля",
      "lat": 53.150168409936924,
      "lng": 28.900105448693523
    },
    "category": "Войны и сражения"
  },
  {
    "title": "Битва на реке пьяне** - нижегородская земля",
    "date": "1377",
    "description": "* ** 1377 ** - **Битва на реке Пьяне** - Нижегородская земля",
    "location": {
      "name": "Нижегородская земля",
      "lat": 64.89070330623034,
      "lng": 47.40777500373352
    },
    "category": "Войны и сражения"
  },
  {
    "title": "Разорение рязанской земли ордынцами** - рязанская земля",
    "date": "1378",
    "description": "* ** 1378 ** - **Разорение Рязанской земли ордынцами** - Рязанская земля",
    "location": {
      "name": "Рязанская земля",
      "lat": 53.94389181198402,
      "lng": 40.26314940685004
    },
    "category": "Дипломатические события"
  }
]