[
  {
    "title": "Год ** - призвание варягов - новгород",
    "date": "862 год",
    "description": "* ** 862 год ** - Призвание варягов - Новгород",
    "location": {
      "name": "Новгород",
      "lat": 58.52,
      "lng": 31.27
    },
    "category": "Восстания и бунты"
  },
  {
    "title": "- создание стрелецкого войска - москва",
    "date": "1550 год",
    "description": "* ** 1550 год ** - Создание стрелецкого войска - Москва",
    "location": {
      "name": "Москва",
      "lat": 55.75,
      "lng": 37.62
    },
    "category": "Культура и религия"
  },
  {
    "title": "Год ** - \"уложение о службе\" -",
    "date": "1556 год",
    "description": "* ** 1556 год ** - \"Уложение о службе\" - Москва",
    "location": {
      "name": "Москва",
      "lat": 55.75,
      "lng": 37.62
    },
    "category": "Социальные реформы"
  },
  {
    "title": "- формирование полков",
    "date": "1630",
    "description": "* ** 1630 -е годы** - Формирование полков \"нового строя\" - Россия",
    "location": {
      "name": "Москва",
      "lat": 55.75,
      "lng": 37.62
    },
    "category": "Дипломатические события"
  },
  {
    "title": "Год ** - \"соборное уложение\" - москва",
    "date": "1649 год",
    "description": "* ** 1649 год ** - \"Соборное уложение\" - Москва",
    "location": {
      "name": "Москва",
      "lat": 55.75,
      "lng": 37.62
    },
    "category": "Культура и религия"
  },
  {
    "title": "Год ** - начало военной реформы петра",
    "date": "1699 год",
    "description": "* ** 1699 год ** - Начало военной реформы Петра I - Россия",
    "location": {
      "name": "Москва",
      "lat": 55.75,
      "lng": 37.62
    },
    "category": "Войны и сражения"
  },
  {
    "title": "- указ о наборе рекрутов - россия",
    "date": "1699 год",
    "description": "* ** 1699 год ** - Указ о наборе рекрутов - Россия",
    "location": {
      "name": "Москва",
      "lat": 55.75,
      "lng": 37.62
    },
    "category": "Войны и сражения"
  },
  {
    "title": "- северная война - россия",
    "date": "1700-1721",
    "description": "* ** 1700-1721 годы** - Северная война - Россия, Прибалтика, Швеция",
    "location": {
      "name": "Прибалтика",
      "lat": 63.08132962861528,
      "lng": 49.45250105851411
    },
    "category": "Войны и сражения"
  },
  {
    "title": "- открытие школы математических и навигацких наук - москва",
    "date": "1701 год",
    "description": "* ** 1701 год ** - Открытие Школы математических и навигацких наук - Москва",
    "location": {
      "name": "Москва",
      "lat": 55.75,
      "lng": 37.62
    },
    "category": "Научные достижения"
  },
  {
    "title": "- основание санкт-петербурга и кронштадта - санкт-петербург",
    "date": "1703 год",
    "description": "* ** 1703 год ** - Основание Санкт-Петербурга и Кронштадта - Санкт-Петербург, Кронштадт",
    "location": {
      "name": "Санкт-Петербург, Кронштадт",
      "lat": 59.94,
      "lng": 30.31
    },
    "category": "Культура и религия"
  },
  {
    "title": "Год ** - \"устав воинский\" - россия",
    "date": "1716 год",
    "description": "* ** 1716 год ** - \"Устав воинский\" - Россия",
    "location": {
      "name": "Санкт-Петербург",
      "lat": 59.94,
      "lng": 30.31
    },
    "category": "Социальные реформы"
  },
  {
    "title": "Год ** - \"морской устав\" - россия",
    "date": "1720 год",
    "description": "* ** 1720 год ** - \"Морской устав\" - Россия",
    "location": {
      "name": "Санкт-Петербург",
      "lat": 59.94,
      "lng": 30.31
    },
    "category": "Социальные реформы"
  },
  {
    "title": "Год ** - \"табель о рангах\" -",
    "date": "1722 год",
    "description": "* ** 1722 год ** - \"Табель о рангах\" - Россия",
    "location": {
      "name": "Санкт-Петербург",
      "lat": 59.94,
      "lng": 30.31
    },
    "category": "Революции и перевороты"
  },
  {
    "title": "- манифест о вольности дворянства - россия",
    "date": "1762 год",
    "description": "* ** 1762 год ** - Манифест о вольности дворянства - Россия",
    "location": {
      "name": "Санкт-Петербург",
      "lat": 59.94,
      "lng": 30.31
    },
    "category": "Становление государства"
  },
  {
    "title": "- военная реформа п",
    "date": "1763 год",
    "description": "* ** 1763 год ** - Военная реформа П",
    "location": {
      "name": "Санкт-Петербург",
      "lat": 59.94,
      "lng": 30.31
    },
    "category": "Войны и сражения"
  },
  {
    "title": "- создание военных поселений - россия",
    "date": "1796 год",
    "description": "* ** 1796 год ** - Создание военных поселений - Россия",
    "location": {
      "name": "Новгородская губерния",
      "lat": 58.52,
      "lng": 31.27
    },
    "category": "Войны и сражения"
  },
  {
    "title": "- создание военных поселений",
    "date": "1815 год",
    "description": "* ** 1815 год ** - Создание военных поселений (продолжение) - Россия",
    "location": {
      "name": "Новгородская губерния",
      "lat": 58.52,
      "lng": 31.27
    },
    "category": "Войны и сражения"
  },
  {
    "title": "Годы** - правление николая i - россия",
    "date": "1825-1855",
    "description": "* ** 1825-1855 годы** - Правление Николая I - Россия",
    "location": {
      "name": "Санкт-Петербург",
      "lat": 59.94,
      "lng": 30.31
    },
    "category": "Дипломатические события"
  },
  {
    "title": "- отмена крепостного права - россия",
    "date": "1861 год",
    "description": "* ** 1861 год ** - Отмена крепостного права - Россия",
    "location": {
      "name": "Санкт-Петербург",
      "lat": 59.94,
      "lng": 30.31
    },
    "category": "Научные достижения"
  },
  {
    "title": "- военная реформа д",
    "date": "1862-1874",
    "description": "* ** 1862-1874 годы** - Военная реформа Д",
    "location": {
      "name": "Санкт-Петербург",
      "lat": 59.94,
      "lng": 30.31
    },
    "category": "Войны и сражения"
  },
  {
    "title": "Год ** - \"устав о воинской повинности\"",
    "date": "1874 год",
    "description": "* ** 1874 год ** - \"Устав о воинской повинности\" - Россия",
    "location": {
      "name": "Санкт-Петербург",
      "lat": 59.94,
      "lng": 30.31
    },
    "category": "Социальные реформы"
  },
  {
    "title": "Год ** - берлинский конгресс - берлин",
    "date": "1878 год",
    "description": "* ** 1878 год ** - Берлинский конгресс - Берлин",
    "location": {
      "name": "Берлин",
      "lat": 52.52,
      "lng": 13.4
    },
    "category": "Культура и религия"
  },
  {
    "title": "Годы** - военные реформы после русско-японской войны",
    "date": "1905-1912",
    "description": "* ** 1905-1912 годы** - Военные реформы после Русско-японской войны - Россия",
    "location": {
      "name": "Санкт-Петербург",
      "lat": 59.94,
      "lng": 30.31
    },
    "category": "Войны и сражения"
  },
  {
    "title": "- начало первой мировой войны - европа",
    "date": "1914 год",
    "description": "* ** 1914 год ** - Начало Первой мировой войны - Европа",
    "location": {
      "name": "Сараево",
      "lat": 45.446617612772016,
      "lng": 42.655007484317515
    },
    "category": "Дипломатические события"
  },
  {
    "title": "- создание рабоче-крестьянской красной армии",
    "date": "1918 год",
    "description": "* ** 1918 год ** - Создание Рабоче-крестьянской Красной Армии (РККА) - Россия",
    "location": {
      "name": "Москва",
      "lat": 55.75,
      "lng": 37.62
    },
    "category": "Культура и религия"
  },
  {
    "title": "- военная реформа м",
    "date": "1924-1925",
    "description": "* ** 1924-1925 годы** - Военная реформа М",
    "location": {
      "name": "Москва",
      "lat": 55.75,
      "lng": 37.62
    },
    "category": "Войны и сражения"
  },
  {
    "title": "Е годы** - перевооружение ркка - ссср",
    "date": "1930",
    "description": "* ** 1930 -е годы** - Перевооружение РККА - СССР",
    "location": {
      "name": "СССР",
      "lat": 48.499027493074436,
      "lng": 38.384259218861644
    },
    "category": "Восстания и бунты"
  },
  {
    "title": "- великая отечественная война - ссср",
    "date": "1939-1945",
    "description": "* ** 1939-1945 годы** - Великая Отечественная война - СССР",
    "location": {
      "name": "Восточная Европа",
      "lat": 50.0,
      "lng": 10.0
    },
    "category": "Войны и сражения"
  },
  {
    "title": "Е годы** - реформы после смерти сталина",
    "date": "1950",
    "description": "* ** 1950 -е годы** - Реформы после смерти Сталина - СССР",
    "location": {
      "name": "Москва",
      "lat": 55.75,
      "lng": 37.62
    },
    "category": "Социальные реформы"
  },
  {
    "title": "Е годы** - реформы, связанные с развитием",
    "date": "1960",
    "description": "* ** 1960 -е годы** - Реформы, связанные с развитием ракетно-ядерного оружия - СССР",
    "location": {
      "name": "СССР",
      "lat": 51.20275266276744,
      "lng": 40.392373299480774
    },
    "category": "Социальные реформы"
  },
  {
    "title": "- создание вооруженных сил российской федерации - россия",
    "date": "1992 год",
    "description": "* ** 1992 год ** - Создание Вооруженных Сил Российской Федерации - Россия",
    "location": {
      "name": "Москва",
      "lat": 55.75,
      "lng": 37.62
    },
    "category": "Политические реформы"
  },
  {
    "title": "- военная реформа",
    "date": "2008 год",
    "description": "* ** 2008 год ** - Военная реформа (так называемая \"Сердюковская реформа\") - Россия",
    "location": {
      "name": "Москва",
      "lat": 55.75,
      "lng": 37.62
    },
    "category": "Войны и сражения"
  },
  {
    "title": "Год - настоящее время** - корректировка военной",
    "date": "2012 год",
    "description": "* ** 2012 год - настоящее время** - Корректировка военной реформы (Шойгу) - Россия",
    "location": {
      "name": "Москва",
      "lat": 55.75,
      "lng": 37.62
    },
    "category": "Войны и сражения"
  },
  {
    "title": "Введение рекрутской повинности** - российская империя",
    "date": "1705",
    "description": "[ 1705 ] - **Введение рекрутской повинности** - Российская империя",
    "location": {
      "name": "Российская империя",
      "lat": 48.508878454065325,
      "lng": 30.5437522654779
    },
    "category": "Революции и перевороты"
  },
  {
    "title": "Утверждение воинского устава** - российская империя",
    "date": "1716",
    "description": "[ 1716 ] - **Утверждение Воинского устава** - Российская империя",
    "location": {
      "name": "Санкт-Петербург",
      "lat": 59.94,
      "lng": 30.31
    },
    "category": "Социальные реформы"
  },
  {
    "title": "Введение всеобщей воинской повинности во франции (закон",
    "date": "1798",
    "description": "[ 1798 ] - **Введение всеобщей воинской повинности во Франции (Закон Журдана)** - Франция",
    "location": {
      "name": "Франция",
      "lat": 45.577776244489534,
      "lng": 47.08246108402026
    },
    "category": "Социальные реформы"
  },
  {
    "title": "Военная реформа александра i",
    "date": "1802",
    "description": "[ 1802 ] - **Военная реформа Александра I (создание военных министерств)** - Российская империя",
    "location": {
      "name": "Санкт-Петербург",
      "lat": 59.94,
      "lng": 30.31
    },
    "category": "Войны и сражения"
  },
  {
    "title": "Реформа прусской армии (шарнхост, гнейзенау, клаузевиц)** -",
    "date": "1810",
    "description": "[ 1810 ] - **Реформа прусской армии (Шарнхост, Гнейзенау, Клаузевиц)** - Пруссия",
    "location": {
      "name": "Пруссия",
      "lat": 57.70348692008703,
      "lng": 39.12135168264475
    },
    "category": "Социальные реформы"
  },
  {
    "title": "Е] - **реформа вооружения французской армии (система",
    "date": "1830",
    "description": "[ 1830 -е] - **Реформа вооружения французской армии (система Кавеньяка)** - Франция",
    "location": {
      "name": "Франция",
      "lat": 59.44132080887251,
      "lng": 37.8081185190097
    },
    "category": "Социальные реформы"
  },
  {
    "title": "Военная реформа д",
    "date": "1860",
    "description": "[ 1860 -е] - **Военная реформа Д",
    "location": {
      "name": "Санкт-Петербург",
      "lat": 59.94,
      "lng": 30.31
    },
    "category": "Войны и сражения"
  },
  {
    "title": "Создание северогерманского союза и его армии** -",
    "date": "1866",
    "description": "[ 1866 ] - **Создание Северогерманского союза и его армии** - Германия",
    "location": {
      "name": "Германия",
      "lat": 46.121275782882705,
      "lng": 42.87832935721188
    },
    "category": "Дипломатические события"
  },
  {
    "title": "Е] - **реформа британской армии (кардуэлл)** -",
    "date": "1870",
    "description": "[ 1870 -е] - **Реформа британской армии (Кардуэлл)** - Великобритания",
    "location": {
      "name": "Великобритания",
      "lat": 47.92062270596692,
      "lng": 49.87262290413932
    },
    "category": "Социальные реформы"
  },
  {
    "title": "Введение всеобщей воинской повинности в россии** -",
    "date": "1874",
    "description": "[ 1874 ] - **Введение всеобщей воинской повинности в России** - Российская империя",
    "location": {
      "name": "Санкт-Петербург",
      "lat": 59.94,
      "lng": 30.31
    },
    "category": "Революции и перевороты"
  },
  {
    "title": "Принятие закона о landwehr (ополчении) в германии**",
    "date": "1875",
    "description": "[ 1875 ] - **Принятие закона о Landwehr (ополчении) в Германии** - Германия",
    "location": {
      "name": "Германия",
      "lat": 56.232427800513626,
      "lng": 48.32284890085569
    },
    "category": "Социальные реформы"
  },
  {
    "title": "Е] - **перевооружение французской армии винтовкой лебеля**",
    "date": "1880",
    "description": "[ 1880 -е] - **Перевооружение французской армии винтовкой Лебеля** - Франция",
    "location": {
      "name": "Франция",
      "lat": 47.67480075320093,
      "lng": 45.99347655179767
    },
    "category": "Восстания и бунты"
  },
  {
    "title": "Е] - **морская программа германии (тирпиц)** -",
    "date": "1890",
    "description": "[ 1890 -е] - **Морская программа Германии (Тирпиц)** - Германия",
    "location": {
      "name": "Германия",
      "lat": 45.92447432143396,
      "lng": 32.841563323178136
    },
    "category": "Изменения границ"
  },
  {
    "title": "Реформа японской армии после русско-японской войны** -",
    "date": "1905",
    "description": "[ 1905 ] - **Реформа японской армии после Русско-японской войны** - Япония",
    "location": {
      "name": "Япония",
      "lat": 49.77641541151169,
      "lng": 50.81945254535023
    },
    "category": "Социальные реформы"
  },
  {
    "title": "Создание генерального штаба армии сша** - сша",
    "date": "1906",
    "description": "[ 1906 ] - **Создание Генерального штаба армии США** - США",
    "location": {
      "name": "США",
      "lat": 52.7954467377382,
      "lng": 28.511136317673692
    },
    "category": "Политические реформы"
  },
  {
    "title": "Создание красной армии** - советская россия",
    "date": "1918",
    "description": "[ 1918 ] - **Создание Красной армии** - Советская Россия",
    "location": {
      "name": "Москва",
      "lat": 55.75,
      "lng": 37.62
    },
    "category": "Войны и сражения"
  },
  {
    "title": "Военная реформа м",
    "date": "1920",
    "description": "[ 1920 -е] - **Военная реформа М",
    "location": {
      "name": "Москва",
      "lat": 55.75,
      "lng": 37.62
    },
    "category": "Войны и сражения"
  },
  {
    "title": "Е] - **ремилитаризация рейнской области** - германия",
    "date": "1930",
    "description": "[ 1930 -е] - **Ремилитаризация Рейнской области** - Германия",
    "location": {
      "name": "Рейнская область",
      "lat": 48.145153271452806,
      "lng": 47.362941810581
    },
    "category": "Военные кампании"
  },
  {
    "title": "Введение всеобщей воинской повинности в германии** -",
    "date": "1935",
    "description": "[ 1935 ] - **Введение всеобщей воинской повинности в Германии** - Германия",
    "location": {
      "name": "Германия",
      "lat": 62.237982685891396,
      "lng": 50.71958453000836
    },
    "category": "Военные кампании"
  },
  {
    "title": "Национальный закон о безопасности** - сша",
    "date": "1947",
    "description": "[ 1947 ] - **Национальный закон о безопасности** - США",
    "location": {
      "name": "Вашингтон, округ Колумбия",
      "lat": 49.62316197024407,
      "lng": 33.80402286174235
    },
    "category": "Социальные реформы"
  }
]