[
  {
    "title": "Год ** - подписание симодского трактата -",
    "date": "1855 год",
    "description": "* ** 1855 год ** - Подписание Симодского трактата - Симода, Япония",
    "location": {
      "name": "Симода",
      "lat": 45.41368926109875,
      "lng": 51.188289587521595
    },
    "category": "Восстания и бунты"
  },
  {
    "title": "- подписание санкт-петербургского договора - санкт-петербург",
    "date": "1875 год",
    "description": "* ** 1875 год ** - Подписание Санкт-Петербургского договора - Санкт-Петербург, Российская империя",
    "location": {
      "name": "Санкт-Петербург",
      "lat": 59.94,
      "lng": 30.31
    },
    "category": "Дипломатические события"
  },
  {
    "title": "Год ** - начало строительства транссибирской магистрали",
    "date": "1891 год",
    "description": "* ** 1891 год ** - Начало строительства Транссибирской магистрали - Владивосток, Российская империя",
    "location": {
      "name": "Владивосток",
      "lat": 43.12,
      "lng": 131.89
    },
    "category": "Культура и религия"
  },
  {
    "title": "- заключение русско-китайского договора об оборонительном союзе - москва",
    "date": "1896 год",
    "description": "* ** 1896 год ** - Заключение Русско-китайского договора об оборонительном союзе - Москва, Российская империя",
    "location": {
      "name": "Москва",
      "lat": 55.75,
      "lng": 37.62
    },
    "category": "Войны и сражения"
  },
  {
    "title": "Год ** - аренда россией ляодунского полуострова",
    "date": "1898 год",
    "description": "* ** 1898 год ** - Аренда Россией Ляодунского полуострова и Порт-Артура - Ляодунский полуостров, Китай",
    "location": {
      "name": "Ляодунский полуостров",
      "lat": 54.41657453022843,
      "lng": 29.398764623189177
    },
    "category": "Изменения границ"
  },
  {
    "title": "Год ** - участие россии в подавлении",
    "date": "1900 год",
    "description": "* ** 1900 год ** - Участие России в подавлении Боксерского восстания в Китае - Китай",
    "location": {
      "name": "Китай",
      "lat": 51.782676745790184,
      "lng": 35.126838500806855
    },
    "category": "Революции и перевороты"
  },
  {
    "title": "Год ** - заключение англо-японского союза -",
    "date": "1902 год",
    "description": "* ** 1902 год ** - Заключение англо-японского союза - Лондон, Великобритания",
    "location": {
      "name": "Лондон",
      "lat": 51.51,
      "lng": -0.13
    },
    "category": "Дипломатические события"
  },
  {
    "title": "Год ** - российские войска не выводятся",
    "date": "1903 год",
    "description": "* ** 1903 год ** - Российские войска не выводятся из Маньчжурии - Маньчжурия, Китай",
    "location": {
      "name": "Маньчжурия, Китай",
      "lat": 64.57530527871795,
      "lng": 37.31659621407671
    },
    "category": "Военные кампании"
  },
  {
    "title": "Январь 1904 года** - прерваны переговоры между",
    "date": "1904",
    "description": "* **Январь 1904 года** - Прерваны переговоры между Россией и Японией - Санкт-Петербург, Российская империя / Токио, Япония",
    "location": {
      "name": "Санкт-Петербург",
      "lat": 59.94,
      "lng": 30.31
    },
    "category": "Основание городов"
  },
  {
    "title": "Января (9 февраля) 1904 года** - нападение",
    "date": "1904",
    "description": "* **27 января (9 февраля) 1904 года** - Нападение японского флота на русскую эскадру в Порт-Артуре - Порт-Артур (Люйшунь), Китай",
    "location": {
      "name": "Порт-Артур (Люйшунь), Китай",
      "lat": 46.81342056612232,
      "lng": 44.167363312600415
    },
    "category": "Территориальные приобретения"
  },
  {
    "title": "Января (9 февраля) 1904 года** - бой",
    "date": "1904",
    "description": "* **27 января (9 февраля) 1904 года** - Бой у Чемульпо - Чемульпо (Инчхон), Корея",
    "location": {
      "name": "Чемульпо (Инчхон)",
      "lat": 46.476839475785994,
      "lng": 51.790190841050276
    },
    "category": "Войны и сражения"
  },
  {
    "title": "Февраля (24 февраля) 1904 года** - бой",
    "date": "1904",
    "description": "* **11 февраля (24 февраля) 1904 года** - Бой у острова Ляоляшань - Желтое море, Ляоляшань",
    "location": {
      "name": "Ляоляшань",
      "lat": 64.81324054783192,
      "lng": 44.10357303594942
    },
    "category": "Войны и сражения"
  },
  {
    "title": "И адмирала макарова - порт-артур",
    "date": "1904",
    "description": "* **13 апреля (26 апреля) 1904 года** - Гибель броненосца \"Петропавловск\" и адмирала Макарова - Порт-Артур (Люйшунь), Китай",
    "location": {
      "name": "Порт-Артур (Люйшунь)",
      "lat": 45.009139357366905,
      "lng": 44.98806540620021
    },
    "category": "Дипломатические события"
  },
  {
    "title": "- битва при цзиньчжоу - цзиньчжоу",
    "date": "1904",
    "description": "* **1 мая (14 мая) 1904 года** - Битва при Цзиньчжоу - Цзиньчжоу, Китай",
    "location": {
      "name": "Цзиньчжоу, Китай",
      "lat": 56.19737657026663,
      "lng": 34.95074933314114
    },
    "category": "Войны и сражения"
  },
  {
    "title": "Июля (2 августа) 1904 года** - бой",
    "date": "1904",
    "description": "* **20 июля (2 августа) 1904 года** - Бой в Жёлтом море - Жёлтое море",
    "location": {
      "name": "Жёлтое море",
      "lat": 49.9451991483088,
      "lng": 47.762955909871565
    },
    "category": "Войны и сражения"
  },
  {
    "title": "- сражение под ляояном - ляоян",
    "date": "1904",
    "description": "* **11 августа (24 августа) - 21 августа (3 сентября) 1904 года** - Сражение под Ляояном - Ляоян, Китай",
    "location": {
      "name": "Ляоян",
      "lat": 50.09484847575885,
      "lng": 36.87333418777081
    },
    "category": "Войны и сражения"
  },
  {
    "title": "- сражение на реке шахе - река шахе",
    "date": "1904",
    "description": "* **22 сентября (5 октября) - 4 октября (17 октября) 1904 года** - Сражение на реке Шахе - Река Шахе, Китай",
    "location": {
      "name": "Река Шахе, Китай",
      "lat": 58.94875851474763,
      "lng": 39.35484363919326
    },
    "category": "Войны и сражения"
  },
  {
    "title": "Декабря 1904 года (2 января 1905 года)**",
    "date": "1904",
    "description": "* **20 декабря 1904 года (2 января 1905 года)** - Падение Порт-Артура - Порт-Артур (Люйшунь), Китай",
    "location": {
      "name": "Порт-Артур (Люйшунь), Китай",
      "lat": 47.70176575051999,
      "lng": 33.55618444916106
    },
    "category": "Культура и религия"
  },
  {
    "title": "Декабря 1904 год а (2 января 1905",
    "date": "20 декабря 1904 год",
    "description": "* ** 20 декабря 1904 год а (2 января 1905 года)** - Падение Порт-Артура - Порт-Артур (Люйшунь), Китай",
    "location": {
      "name": "Порт-Артур (Люйшунь), Китай",
      "lat": 61.17860275599583,
      "lng": 37.63674789806217
    },
    "category": "Научные достижения"
  },
  {
    "title": "Декабря 1904 года ( 2 января 1905",
    "date": "2 января 1905 год",
    "description": "* **20 декабря 1904 года ( 2 января 1905 год а)** - Падение Порт-Артура - Порт-Артур (Люйшунь), Китай",
    "location": {
      "name": "Порт-Артур (Люйшунь), Китай",
      "lat": 49.09307138015169,
      "lng": 31.339295571932947
    },
    "category": "Политические реформы"
  },
  {
    "title": "- сражение под мукденом - мукден",
    "date": "1905",
    "description": "* **5 февраля (18 февраля) - 25 февраля (10 марта) 1905 года** - Сражение под Мукденом - Мукден (Шэньян), Китай",
    "location": {
      "name": "Шэньян",
      "lat": 52.140894161749756,
      "lng": 50.07766186852548
    },
    "category": "Войны и сражения"
  },
  {
    "title": "- цусимское сражение - цусимский пролив",
    "date": "1905",
    "description": "* **14 мая (27 мая) - 15 мая (28 мая) 1905 года** - Цусимское сражение - Цусимский пролив, Японское море",
    "location": {
      "name": "Цусимский пролив",
      "lat": 47.12603810547722,
      "lng": 41.66079171614157
    },
    "category": "Войны и сражения"
  },
  {
    "title": "Июль 1905 года** - захват японцами сахалина",
    "date": "1905",
    "description": "* **Июль 1905 года** - Захват японцами Сахалина - Сахалин",
    "location": {
      "name": "Сахалин",
      "lat": 63.54678032458217,
      "lng": 37.48677285082253
    },
    "category": "Культура и религия"
  },
  {
    "title": "- подписание портсмутского мирного договора - портсмут",
    "date": "1905",
    "description": "* **23 августа (5 сентября) 1905 года** - Подписание Портсмутского мирного договора - Портсмут, США",
    "location": {
      "name": "Портсмут",
      "lat": 63.22302421935733,
      "lng": 40.35163113632358
    },
    "category": "Революции и перевороты"
  },
  {
    "title": "- революция 1905-1907 годов в россии - российская империя",
    "date": "1905 год",
    "description": "* ** 1905 год ** - Революция 1905-1907 годов в России - Российская империя",
    "location": {
      "name": "Санкт-Петербург",
      "lat": 59.94,
      "lng": 30.31
    },
    "category": "Революции и перевороты"
  },
  {
    "title": "Год ** - \"кровавое воскресенье\" - санкт-петербург",
    "date": "1905 год",
    "description": "* ** 1905 год ** - \"Кровавое воскресенье\" - Санкт-Петербург, Российская империя",
    "location": {
      "name": "Санкт-Петербург",
      "lat": 59.94,
      "lng": 30.31
    },
    "category": "Революции и перевороты"
  },
  {
    "title": "- издание манифеста 17 октября - российская империя",
    "date": "1905",
    "description": "* **17 октября 1905 года** - Издание Манифеста 17 октября - Российская империя",
    "location": {
      "name": "Санкт-Петербург",
      "lat": 59.94,
      "lng": 30.31
    },
    "category": "Дипломатические события"
  },
  {
    "title": "Год ** - заключение русско-японского соглашения -",
    "date": "1907 год",
    "description": "* ** 1907 год ** - Заключение русско-японского соглашения - Санкт-Петербург, Российская империя",
    "location": {
      "name": "Санкт-Петербург",
      "lat": 59.94,
      "lng": 30.31
    },
    "category": "Дипломатические события"
  },
  {
    "title": "Год ** - аннексия кореи японией -",
    "date": "1910 год",
    "description": "* ** 1910 год ** - Аннексия Кореи Японией - Корея",
    "location": {
      "name": "Корея",
      "lat": 59.16046968432074,
      "lng": 34.45911816582079
    },
    "category": "Изменения границ"
  },
  {
    "title": "Год ** - заключение русско-японского союза -",
    "date": "1916 год",
    "description": "* ** 1916 год ** - Заключение русско-японского союза - Петроград, Российская империя",
    "location": {
      "name": "Петроград",
      "lat": 59.94,
      "lng": 30.31
    },
    "category": "Дипломатические события"
  },
  {
    "title": "- советско-японская война - маньчжурия",
    "date": "1945 год",
    "description": "* ** 1945 год ** - Советско-японская война - Маньчжурия, Сахалин, Курильские острова",
    "location": {
      "name": "Маньчжурия",
      "lat": 63.401998875705374,
      "lng": 35.35745556344028
    },
    "category": "Войны и сражения"
  },
  {
    "title": "Февраля] - [бой у острова чемульпо (инчхон)]",
    "date": "1904",
    "description": "[ 1904 , 10 февраля] - [Бой у острова Чемульпо (Инчхон)] - [Чемульпо (Инчхон), Корея]",
    "location": {
      "name": "Чемульпо (Инчхон)",
      "lat": 52.150602786526825,
      "lng": 39.9537167688359
    },
    "category": "Войны и сражения"
  },
  {
    "title": "Февраля] - [подрыв японского миноносца \"лунный свет\"",
    "date": "1904",
    "description": "[ 1904 , 25 февраля] - [Подрыв японского миноносца \"Лунный свет\" (Oborozuki)] - [Желтое море, район Порт-Артура]",
    "location": {
      "name": "Желтое море, район Порт-Артура",
      "lat": 58.568871880556586,
      "lng": 51.874757929101314
    },
    "category": "Изменения границ"
  },
  {
    "title": "Назначение адмирала степана макарова командующим тихоокеанской эскадрой",
    "date": "1904",
    "description": "[ 1904 , 8 марта] - [Назначение адмирала Степана Макарова командующим Тихоокеанской эскадрой] - [Порт-Артур]",
    "location": {
      "name": "Порт-Артур",
      "lat": 48.251117685001105,
      "lng": 46.56271233887961
    },
    "category": "Дипломатические события"
  },
  {
    "title": "Апреля] - [гибель броненосца \"петропавловск\"] - [внешний",
    "date": "1904",
    "description": "[ 1904 , 13 апреля] - [Гибель броненосца \"Петропавловск\"] - [Внешний рейд Порт-Артура]",
    "location": {
      "name": "Порт-Артур",
      "lat": 61.28122469994328,
      "lng": 41.71815100797009
    },
    "category": "Революции и перевороты"
  },
  {
    "title": "Вступление адмирала витгефта в командование тихоокеанской эскадрой",
    "date": "1904",
    "description": "[ 1904 , 15 апреля] - [Вступление адмирала Витгефта в командование Тихоокеанской эскадрой] - [Порт-Артур]",
    "location": {
      "name": "Порт-Артур",
      "lat": 54.36867534054829,
      "lng": 45.00728145246722
    },
    "category": "Дипломатические события"
  },
  {
    "title": "Мая] - [бой у цзиньчжоу] - [цзиньчжоу",
    "date": "1904",
    "description": "[ 1904 , 3-4 мая] - [Бой у Цзиньчжоу] - [Цзиньчжоу, Квантунская область]",
    "location": {
      "name": "Цзиньчжоу",
      "lat": 56.440784902081745,
      "lng": 48.231702134964685
    },
    "category": "Войны и сражения"
  },
  {
    "title": "Мая] - [бой за гору намсан] -",
    "date": "1904",
    "description": "[ 1904 , 26 мая] - [Бой за гору Намсан] - [Намсан, Квантунская область]",
    "location": {
      "name": "Намсан, Квантунская область",
      "lat": 53.00721216662663,
      "lng": 38.598612040617425
    },
    "category": "Войны и сражения"
  },
  {
    "title": "Июня] - [первая попытка прорыва эскадры из",
    "date": "1904",
    "description": "[ 1904 , 23 июня] - [Первая попытка прорыва эскадры из Порт-Артура] - [Желтое море]",
    "location": {
      "name": "Желтое море",
      "lat": 53.10729292211492,
      "lng": 37.11782314790324
    },
    "category": "Войны и сражения"
  },
  {
    "title": "Августа] - [сражение в желтом море] -",
    "date": "1904",
    "description": "[ 1904 , 10-11 августа] - [Сражение в Желтом море] - [Желтое море]",
    "location": {
      "name": "Желтое море",
      "lat": 58.60939115486037,
      "lng": 47.99323969877845
    },
    "category": "Войны и сражения"
  },
  {
    "title": "Августа] - [назначение генерала анатолия стесселя комендантом",
    "date": "1904",
    "description": "[ 1904 , 20 августа] - [Назначение генерала Анатолия Стесселя комендантом Порт-Артура] - [Порт-Артур]",
    "location": {
      "name": "Порт-Артур",
      "lat": 51.19673976563018,
      "lng": 51.35413970664726
    },
    "category": "Социальные реформы"
  },
  {
    "title": "Октября] - [первый обстрел порт-артура осадной артиллерией]",
    "date": "1904",
    "description": "[ 1904 , 2 октября] - [Первый обстрел Порт-Артура осадной артиллерией] - [Порт-Артур]",
    "location": {
      "name": "Порт-Артур",
      "lat": 52.28735921574662,
      "lng": 30.41071312100683
    },
    "category": "Войны и сражения"
  },
  {
    "title": "Ноября] - [взятие японцами горы высокая] -",
    "date": "1904",
    "description": "[ 1904 , 20 ноября] - [Взятие японцами горы Высокая] - [Порт-Артур]",
    "location": {
      "name": "Порт-Артур",
      "lat": 53.34745354410319,
      "lng": 30.745628011478953
    },
    "category": "Основание городов"
  },
  {
    "title": "Января] - [сдача порт-артура] - [порт-артур]",
    "date": "1905",
    "description": "[ 1905 , 2 января] - [Сдача Порт-Артура] - [Порт-Артур]",
    "location": {
      "name": "Порт-Артур",
      "lat": 51.29500603779915,
      "lng": 39.901057969874735
    },
    "category": "Основание городов"
  },
  {
    "title": "Мая] - [цусимское сражение] - [цусимский пролив]",
    "date": "1905",
    "description": "[ 1905 , 27-28 мая] - [Цусимское сражение] - [Цусимский пролив]",
    "location": {
      "name": "Цусимский пролив",
      "lat": 48.71934018619852,
      "lng": 31.70400433160319
    },
    "category": "Войны и сражения"
  },
  {
    "title": "Начало портсмутских мирных переговоров",
    "date": "1905",
    "description": "[ 1905 , 9 августа] - [Начало Портсмутских мирных переговоров] - [Портсмут, США]",
    "location": {
      "name": "Портсмут",
      "lat": 48.08482702513476,
      "lng": 40.79760398736888
    },
    "category": "Революции и перевороты"
  },
  {
    "title": "Подписание портсмутского мирного договора",
    "date": "1905",
    "description": "[ 1905 , 5 сентября] - [Подписание Портсмутского мирного договора] - [Портсмут, США]",
    "location": {
      "name": "Портсмут, США",
      "lat": 59.48896764157868,
      "lng": 44.23216128056997
    },
    "category": "Революции и перевороты"
  },
  {
    "title": "Июля] - [подписание русско-японской конвенции 1907 года]",
    "date": "1907",
    "description": "[ 1907 , 30 июля] - [Подписание русско-японской конвенции 1907 года] - [Санкт-Петербург, Россия]",
    "location": {
      "name": "Санкт-Петербург",
      "lat": 59.94,
      "lng": 30.31
    },
    "category": "Политические реформы"
  },
  {
    "title": "Августа] - [аннексия кореи японией] - [сеул",
    "date": "1910",
    "description": "[ 1910 , 22 августа] - [Аннексия Кореи Японией] - [Сеул, Корея]",
    "location": {
      "name": "Сеул",
      "lat": 60.87679978632284,
      "lng": 43.6015363489025
    },
    "category": "Изменения границ"
  }
]