[
  {
    "title": "- рождение петра алексеевича - москва",
    "date": "1672",
    "description": "* **30 мая 1672 ** - Рождение Петра Алексеевича - Москва, Кремль",
    "location": {
      "name": "Москва, Кремль",
      "lat": 55.75,
      "lng": 37.62
    },
    "category": "Политические реформы"
  },
  {
    "title": "- смерть царя алексея михайловича - москва",
    "date": "1676",
    "description": "* ** 1676 ** - Смерть царя Алексея Михайловича - Москва",
    "location": {
      "name": "Москва",
      "lat": 55.75,
      "lng": 37.62
    },
    "category": "Войны и сражения"
  },
  {
    "title": "Правление царя федора алексеевича - москва",
    "date": "1676-1682",
    "description": "* ** 1676-1682 ** - Правление царя Федора Алексеевича - Москва",
    "location": {
      "name": "Москва",
      "lat": 55.75,
      "lng": 37.62
    },
    "category": "Дипломатические события"
  },
  {
    "title": "Начало обучения петра алексеевича грамоте - москва",
    "date": "1676-1680",
    "description": "* ** 1676-1680 ** - Начало обучения Петра Алексеевича грамоте - Москва",
    "location": {
      "name": "Москва",
      "lat": 55.75,
      "lng": 37.62
    },
    "category": "Военные кампании"
  },
  {
    "title": "- смерть царя федора алексеевича - москва",
    "date": "1682",
    "description": "* ** 1682 , 27 апреля** - Смерть царя Федора Алексеевича - Москва",
    "location": {
      "name": "Москва",
      "lat": 55.75,
      "lng": 37.62
    },
    "category": "Экономические события"
  },
  {
    "title": "Май** - стрелецкий бунт - москва",
    "date": "1682",
    "description": "* ** 1682 , май** - Стрелецкий бунт - Москва",
    "location": {
      "name": "Москва",
      "lat": 55.75,
      "lng": 37.62
    },
    "category": "Революции и перевороты"
  },
  {
    "title": "Май** - убийство артамона матвеева - москва",
    "date": "1682",
    "description": "* ** 1682 , май** - Убийство Артамона Матвеева - Москва, Кремль",
    "location": {
      "name": "Москва, Кремль",
      "lat": 55.75,
      "lng": 37.62
    },
    "category": "Социальные реформы"
  },
  {
    "title": "Июня** - венчание на царство ивана v",
    "date": "1682",
    "description": "* ** 1682 , 25 июня** - Венчание на царство Ивана V и Петра I - Москва, Успенский собор",
    "location": {
      "name": "Москва",
      "lat": 55.75,
      "lng": 37.62
    },
    "category": "Культура и религия"
  },
  {
    "title": "Регентство царевны софьи алексеевны - москва",
    "date": "1682-1689",
    "description": "* ** 1682-1689 ** - Регентство царевны Софьи Алексеевны - Москва",
    "location": {
      "name": "Москва",
      "lat": 55.75,
      "lng": 37.62
    },
    "category": "Территориальные приобретения"
  },
  {
    "title": "Переезд петра с матерью в село преображенское",
    "date": "1683",
    "description": "* ** 1683 ** - Переезд Петра с матерью в село Преображенское - Село Преображенское под Москвой",
    "location": {
      "name": "Село Преображенское",
      "lat": 54.09957710891737,
      "lng": 34.46924457702668
    },
    "category": "Восстания и бунты"
  },
  {
    "title": "- формирование",
    "date": "1683-1685",
    "description": "* ** 1683-1685 ** - Формирование \"потешных полков\" (Преображенского и Семеновского) - Село Преображенское",
    "location": {
      "name": "Село Преображенское",
      "lat": 63.718877329989326,
      "lng": 32.437169830917014
    },
    "category": "Дипломатические события"
  },
  {
    "title": "Первые военные учения \"потешных полков\" - село",
    "date": "1685",
    "description": "* ** 1685 ** - Первые военные учения \"потешных полков\" - Село Преображенское",
    "location": {
      "name": "Село Преображенское",
      "lat": 60.465102441522305,
      "lng": 38.32712033115491
    },
    "category": "Войны и сражения"
  },
  {
    "title": "Знакомство с францем лефортом - москва, немецкая",
    "date": "1687",
    "description": "* ** 1687 ** - Знакомство с Францем Лефортом - Москва, Немецкая слобода",
    "location": {
      "name": "Немецкая слобода, Москва",
      "lat": 55.75,
      "lng": 37.62
    },
    "category": "Научные достижения"
  },
  {
    "title": "Обнаружение ботика петра i - село измайлово",
    "date": "1688",
    "description": "* ** 1688 ** - Обнаружение ботика Петра I - Село Измайлово",
    "location": {
      "name": "Село Измайлово",
      "lat": 55.62585506372717,
      "lng": 30.461922155320757
    },
    "category": "Политические реформы"
  },
  {
    "title": "Первые плавания на ботике по яузе -",
    "date": "1688",
    "description": "* ** 1688 ** - Первые плавания на ботике по Яузе - Москва, река Яуза",
    "location": {
      "name": "Москва",
      "lat": 55.75,
      "lng": 37.62
    },
    "category": "Политические реформы"
  },
  {
    "title": "Август** - конфликт между петром и софьей",
    "date": "1689",
    "description": "* ** 1689 , август** - Конфликт между Петром и Софьей - Москва, Троице-Сергиев монастырь",
    "location": {
      "name": "Москва, Троице-Сергиев монастырь",
      "lat": 55.75,
      "lng": 37.62
    },
    "category": "Культура и религия"
  },
  {
    "title": "Август** - свержение царевны софьи - москва",
    "date": "1689",
    "description": "* ** 1689 , август** - Свержение царевны Софьи - Москва",
    "location": {
      "name": "Москва",
      "lat": 55.75,
      "lng": 37.62
    },
    "category": "Революции и перевороты"
  },
  {
    "title": "Январь** - свадьба петра i и евдокии",
    "date": "1690",
    "description": "* ** 1690 , январь** - Свадьба Петра I и Евдокии Лопухиной - Москва",
    "location": {
      "name": "Москва",
      "lat": 55.75,
      "lng": 37.62
    },
    "category": "Становление государства"
  },
  {
    "title": "- рождение царевича алексея петровича - москва",
    "date": "1690",
    "description": "* ** 1690 , февраль** - Рождение царевича Алексея Петровича - Москва",
    "location": {
      "name": "Москва",
      "lat": 55.75,
      "lng": 37.62
    },
    "category": "Становление государства"
  },
  {
    "title": "Первая поездка петра i в архангельск -",
    "date": "1693",
    "description": "* ** 1693 ** - Первая поездка Петра I в Архангельск - Архангельск",
    "location": {
      "name": "Архангельск",
      "lat": 64.54,
      "lng": 40.54
    },
    "category": "Основание городов"
  },
  {
    "title": "Вторая поездка петра i в архангельск -",
    "date": "1694",
    "description": "* ** 1694 ** - Вторая поездка Петра I в Архангельск - Архангельск",
    "location": {
      "name": "Архангельск",
      "lat": 64.54,
      "lng": 40.54
    },
    "category": "Территориальные приобретения"
  },
  {
    "title": "- смерть натальи кирилловны нарышкиной - москва",
    "date": "1694",
    "description": "* ** 1694 ** - Смерть Натальи Кирилловны Нарышкиной - Москва",
    "location": {
      "name": "Москва",
      "lat": 55.75,
      "lng": 37.62
    },
    "category": "Революции и перевороты"
  },
  {
    "title": "Первый азовский поход - азов",
    "date": "1695",
    "description": "* ** 1695 ** - Первый Азовский поход - Азов",
    "location": {
      "name": "Азов",
      "lat": 45.87059299684967,
      "lng": 34.64775872417333
    },
    "category": "Становление государства"
  },
  {
    "title": "- смерть царя ивана v - москва",
    "date": "1696",
    "description": "* ** 1696 ** - Смерть царя Ивана V - Москва",
    "location": {
      "name": "Москва",
      "lat": 55.75,
      "lng": 37.62
    },
    "category": "Восстания и бунты"
  },
  {
    "title": "Второй азовский поход - азов",
    "date": "1696",
    "description": "* ** 1696 ** - Второй Азовский поход - Азов",
    "location": {
      "name": "Азов",
      "lat": 47.30324408219544,
      "lng": 28.343412454182726
    },
    "category": "Изменения границ"
  },
  {
    "title": "Великое посольство - западная европа (голландия, англия",
    "date": "1697-1698",
    "description": "* ** 1697-1698 ** - Великое посольство - Западная Европа (Голландия, Англия, Австрия и др",
    "location": {
      "name": "Амстердам",
      "lat": 55.06387179404917,
      "lng": 46.620469624493886
    },
    "category": "Войны и сражения"
  },
  {
    "title": "Стрелецкий бунт - москва",
    "date": "1698",
    "description": "* ** 1698 ** - Стрелецкий бунт - Москва",
    "location": {
      "name": "Москва",
      "lat": 55.75,
      "lng": 37.62
    },
    "category": "Революции и перевороты"
  },
  {
    "title": "Принудительное пострижение евдокии лопухиной в монахини -",
    "date": "1698",
    "description": "* ** 1698 ** - Принудительное пострижение Евдокии Лопухиной в монахини - Суздаль, Покровский монастырь",
    "location": {
      "name": "Суздаль, Покровский монастырь",
      "lat": 56.42,
      "lng": 40.44
    },
    "category": "Культура и религия"
  },
  {
    "title": "Осень** - **переезд семьи в преображенское** -",
    "date": "1677",
    "description": "* ** 1677 , осень** - **Переезд семьи в Преображенское** - **Москва, село Преображенское**",
    "location": {
      "name": "Москва, село Преображенское",
      "lat": 55.75,
      "lng": 37.62
    },
    "category": "Изменения границ"
  },
  {
    "title": "Май** - **участие в стрелецком бунте** -",
    "date": "1682",
    "description": "* ** 1682 , май** - **Участие в стрелецком бунте** - **Москва, Кремль**",
    "location": {
      "name": "Москва, Кремль",
      "lat": 55.75,
      "lng": 37.62
    },
    "category": "Революции и перевороты"
  },
  {
    "title": "Создание \"потешных полков\"** - **москва, село преображенское**",
    "date": "1683-1685",
    "description": "* ** 1683-1685 ** - **Создание \"потешных полков\"** - **Москва, село Преображенское**",
    "location": {
      "name": "Москва, село Преображенское",
      "lat": 55.75,
      "lng": 37.62
    },
    "category": "Научные достижения"
  },
  {
    "title": "Первые уроки навигации** - **москва, село измайлово**",
    "date": "1684",
    "description": "* ** 1684 ** - **Первые уроки навигации** - **Москва, село Измайлово**",
    "location": {
      "name": "Москва, село Измайлово",
      "lat": 55.75,
      "lng": 37.62
    },
    "category": "Революции и перевороты"
  },
  {
    "title": "Первая поездка в троице-сергиев монастырь** - **сергиев",
    "date": "1686",
    "description": "* ** 1686 ** - **Первая поездка в Троице-Сергиев монастырь** - **Сергиев Посад**",
    "location": {
      "name": "Сергиев Посад",
      "lat": 56.27909052027288,
      "lng": 40.445927101253176
    },
    "category": "Культура и религия"
  },
  {
    "title": "Участие в крымском походе (формальное)** - **юг",
    "date": "1687",
    "description": "* ** 1687 ** - **Участие в Крымском походе (формальное)** - **Юг России**",
    "location": {
      "name": "Юг России",
      "lat": 64.19649452846917,
      "lng": 35.43104087330623
    },
    "category": "Культура и религия"
  },
  {
    "title": "Строительство первой флотилии на плещеевом озере** -",
    "date": "1688",
    "description": "* ** 1688 ** - **Строительство первой флотилии на Плещеевом озере** - **Переславль-Залесский**",
    "location": {
      "name": "Переславль-Залесский",
      "lat": 52.298419036809804,
      "lng": 43.17157806677517
    },
    "category": "Революции и перевороты"
  },
  {
    "title": "Лето** - **конфликт с царевной софьей** -",
    "date": "1689",
    "description": "* ** 1689 , лето** - **Конфликт с царевной Софьей** - **Москва, Кремль, село Преображенское, Троице-Сергиев монастырь**",
    "location": {
      "name": "Москва, Кремль, село Преображенское, Троице-Сергиев монастырь",
      "lat": 55.75,
      "lng": 37.62
    },
    "category": "Культура и религия"
  },
  {
    "title": "Сентябрь** - **свадьба с евдокией лопухиной** -",
    "date": "1689",
    "description": "* ** 1689 , сентябрь** - **Свадьба с Евдокией Лопухиной** - **Москва**",
    "location": {
      "name": "Москва",
      "lat": 55.75,
      "lng": 37.62
    },
    "category": "Экономические события"
  },
  {
    "title": "Рождение царевича алексея** - **москва**",
    "date": "1690",
    "description": "* ** 1690 ** - **Рождение царевича Алексея** - **Москва**",
    "location": {
      "name": "Москва",
      "lat": 55.75,
      "lng": 37.62
    },
    "category": "Культура и религия"
  },
  {
    "title": "Май-сентябрь** - **первое посещение архангельска** - **архангельск**",
    "date": "1693",
    "description": "* ** 1693 , май-сентябрь** - **Первое посещение Архангельска** - **Архангельск**",
    "location": {
      "name": "Архангельск",
      "lat": 64.54,
      "lng": 40.54
    },
    "category": "Дипломатические события"
  },
  {
    "title": "Лето** - **второе посещение архангельска** - **архангельск**",
    "date": "1694",
    "description": "* ** 1694 , лето** - **Второе посещение Архангельска** - **Архангельск**",
    "location": {
      "name": "Архангельск",
      "lat": 64.54,
      "lng": 40.54
    },
    "category": "Военные кампании"
  },
  {
    "title": "Лето** - **первый азовский поход** - **азов**",
    "date": "1695",
    "description": "* ** 1695 , лето** - **Первый Азовский поход** - **Азов**",
    "location": {
      "name": "Азов",
      "lat": 49.06385659096025,
      "lng": 49.74334411073364
    },
    "category": "Основание городов"
  },
  {
    "title": "Май-июль** - **второй азовский поход** - **азов**",
    "date": "1696",
    "description": "* ** 1696 , май-июль** - **Второй Азовский поход** - **Азов**",
    "location": {
      "name": "Азов",
      "lat": 50.47324557675938,
      "lng": 38.97353908841784
    },
    "category": "Основание городов"
  },
  {
    "title": "Великое посольство в европу** - **западная европа",
    "date": "1697-1698",
    "description": "* ** 1697-1698 ** - **Великое посольство в Европу** - **Западная Европа (Голландия, Англия, Австрия и др",
    "location": {
      "name": "Западная Европа",
      "lat": 50.0,
      "lng": 10.0
    },
    "category": "Революции и перевороты"
  },
  {
    "title": "Июнь** - **подавление стрелецкого бунта** - **москва**",
    "date": "1698",
    "description": "* ** 1698 , июнь** - **Подавление стрелецкого бунта** - **Москва**",
    "location": {
      "name": "Москва",
      "lat": 55.75,
      "lng": 37.62
    },
    "category": "Революции и перевороты"
  }
]