[
  {
    "title": "Правление александра i**",
    "date": "1801-1825",
    "description": "** 1801-1825 : Правление Александра I**",
    "location": {
      "name": "Санкт-Петербург",
      "lat": 59.94,
      "lng": 30.31
    },
    "category": "Политические реформы"
  },
  {
    "title": "Марта 1801 ** - убийство павла i",
    "date": "1801",
    "description": "* **12 марта 1801 ** - Убийство Павла I - Санкт-Петербург",
    "location": {
      "name": "Санкт-Петербург",
      "lat": 59.94,
      "lng": 30.31
    },
    "category": "Восстания и бунты"
  },
  {
    "title": "- создание негласного комитета - санкт-петербург",
    "date": "1801",
    "description": "* ** 1801 ** - Создание Негласного комитета - Санкт-Петербург",
    "location": {
      "name": "Санкт-Петербург",
      "lat": 59.94,
      "lng": 30.31
    },
    "category": "Территориальные приобретения"
  },
  {
    "title": "Учреждение министерств - российская империя",
    "date": "1802",
    "description": "* ** 1802 ** - Учреждение министерств - Российская империя",
    "location": {
      "name": "Санкт-Петербург",
      "lat": 59.94,
      "lng": 30.31
    },
    "category": "Экономические события"
  },
  {
    "title": "- реформа сената - российская империя",
    "date": "1802",
    "description": "* ** 1802 ** - Реформа Сената - Российская империя",
    "location": {
      "name": "Санкт-Петербург",
      "lat": 59.94,
      "lng": 30.31
    },
    "category": "Социальные реформы"
  },
  {
    "title": "- указ о вольных хлебопашцах - российская империя",
    "date": "1803",
    "description": "* **20 февраля 1803 ** - Указ о вольных хлебопашцах - Российская империя",
    "location": {
      "name": "Санкт-Петербург",
      "lat": 59.94,
      "lng": 30.31
    },
    "category": "Военные кампании"
  },
  {
    "title": "- русско-персидская война - кавказ",
    "date": "1804-1813",
    "description": "* ** 1804-1813 ** - Русско-персидская война - Кавказ",
    "location": {
      "name": "Кавказ",
      "lat": 43.0,
      "lng": 44.0
    },
    "category": "Войны и сражения"
  },
  {
    "title": "- создание третьей антифранцузской коалиции - европа",
    "date": "1805",
    "description": "* ** 1805 ** - Создание Третьей антифранцузской коалиции - Европа",
    "location": {
      "name": "Европа",
      "lat": 50.0,
      "lng": 10.0
    },
    "category": "Военные кампании"
  },
  {
    "title": "- битва при аустерлице - аустерлиц",
    "date": "1805",
    "description": "* **20 ноября 1805 ** - Битва при Аустерлице - Аустерлиц (совр",
    "location": {
      "name": "Аустерлиц",
      "lat": 64.36890324315303,
      "lng": 32.30202127257852
    },
    "category": "Войны и сражения"
  },
  {
    "title": "- русско-турецкая война - балканы",
    "date": "1806-1812",
    "description": "* ** 1806-1812 ** - Русско-турецкая война - Балканы, Причерноморье",
    "location": {
      "name": "Балканы",
      "lat": 59.04963558074006,
      "lng": 42.765583467856935
    },
    "category": "Войны и сражения"
  },
  {
    "title": "- создание четвертой антифранцузской коалиции - европа",
    "date": "1806",
    "description": "* ** 1806 ** - Создание Четвертой антифранцузской коалиции - Европа",
    "location": {
      "name": "Европа",
      "lat": 50.0,
      "lng": 10.0
    },
    "category": "Социальные реформы"
  },
  {
    "title": "- битва при фридланде - фридланд",
    "date": "1807",
    "description": "* **14 июня 1807 ** - Битва при Фридланде - Фридланд (совр",
    "location": {
      "name": "Фридланд",
      "lat": 47.2468843848698,
      "lng": 46.362497307365345
    },
    "category": "Войны и сражения"
  },
  {
    "title": "- тильзитский мир - тильзит",
    "date": "1807",
    "description": "* **25 июня 1807 ** - Тильзитский мир - Тильзит (совр",
    "location": {
      "name": "Тильзит",
      "lat": 57.338884253343124,
      "lng": 49.04579626446104
    },
    "category": "Дипломатические события"
  },
  {
    "title": "- русско-шведская война - финляндия",
    "date": "1808-1809",
    "description": "* ** 1808-1809 ** - Русско-шведская война - Финляндия",
    "location": {
      "name": "Финляндия",
      "lat": 60.70424280224354,
      "lng": 37.61988201341779
    },
    "category": "Войны и сражения"
  },
  {
    "title": "Введение к уложению государственных законов\" сперанского -",
    "date": "1809",
    "description": "* ** 1809 ** - \"Введение к уложению государственных законов\" Сперанского - Санкт-Петербург",
    "location": {
      "name": "Санкт-Петербург",
      "lat": 59.94,
      "lng": 30.31
    },
    "category": "Становление государства"
  },
  {
    "title": "Января 1810 ** - учреждение государственного совета",
    "date": "1810",
    "description": "* **1 января 1810 ** - Учреждение Государственного совета - Санкт-Петербург",
    "location": {
      "name": "Санкт-Петербург",
      "lat": 59.94,
      "lng": 30.31
    },
    "category": "Становление государства"
  },
  {
    "title": "- финансовая реформа - российская империя",
    "date": "1810",
    "description": "* ** 1810 ** - Финансовая реформа - Российская империя",
    "location": {
      "name": "Санкт-Петербург",
      "lat": 59.94,
      "lng": 30.31
    },
    "category": "Социальные реформы"
  },
  {
    "title": "Преобразование министерств по плану сперанского - российская",
    "date": "1811",
    "description": "* ** 1811 ** - Преобразование министерств по плану Сперанского - Российская империя",
    "location": {
      "name": "Санкт-Петербург",
      "lat": 59.94,
      "lng": 30.31
    },
    "category": "Становление государства"
  },
  {
    "title": "Отставка сперанского - санкт-петербург",
    "date": "1812",
    "description": "* ** 1812 ** - Отставка Сперанского - Санкт-Петербург",
    "location": {
      "name": "Санкт-Петербург",
      "lat": 59.94,
      "lng": 30.31
    },
    "category": "Революции и перевороты"
  },
  {
    "title": "Июня 1812 ** - вторжение наполеона в",
    "date": "1812",
    "description": "* **12 июня 1812 ** - Вторжение Наполеона в Россию - Российская империя",
    "location": {
      "name": "Река Неман",
      "lat": 61.54110111856921,
      "lng": 27.830767905255552
    },
    "category": "Социальные реформы"
  },
  {
    "title": "Начало отечественной войны 1812 года",
    "date": "1812",
    "description": "* Начало Отечественной войны 1812 года",
    "location": {
      "name": "Река Неман",
      "lat": 59.61709995495068,
      "lng": 28.6110149421237
    },
    "category": "Становление государства"
  },
  {
    "title": "- бородинское сражение - бородино",
    "date": "1812",
    "description": "* **26 августа 1812 ** - Бородинское сражение - Бородино",
    "location": {
      "name": "Бородино",
      "lat": 55.52,
      "lng": 35.83
    },
    "category": "Войны и сражения"
  },
  {
    "title": "Крупнейшее сражение отечественной войны 1812 года между русской и французской армиями",
    "date": "1812",
    "description": "* Крупнейшее сражение Отечественной войны 1812 года между русской и французской армиями",
    "location": {
      "name": "Бородино",
      "lat": 55.52,
      "lng": 35.83
    },
    "category": "Войны и сражения"
  },
  {
    "title": "Сентября 1812 ** - вступление французов в",
    "date": "1812",
    "description": "* **2 сентября 1812 ** - Вступление французов в Москву - Москва",
    "location": {
      "name": "Москва",
      "lat": 55.75,
      "lng": 37.62
    },
    "category": "Военные кампании"
  },
  {
    "title": "Октябрь 1812 ** - отступление наполеона из",
    "date": "1812",
    "description": "* **Октябрь 1812 ** - Отступление Наполеона из России - Российская империя",
    "location": {
      "name": "Малоярославец",
      "lat": 58.5386928843013,
      "lng": 27.937973509507668
    },
    "category": "Экономические события"
  },
  {
    "title": "Заграничный поход русской армии - европа",
    "date": "1813-1814",
    "description": "* ** 1813-1814 ** - Заграничный поход русской армии - Европа",
    "location": {
      "name": "Европа",
      "lat": 50.0,
      "lng": 10.0
    },
    "category": "Основание городов"
  },
  {
    "title": "Венский конгресс - вена",
    "date": "1814-1815",
    "description": "* ** 1814-1815 ** - Венский конгресс - Вена",
    "location": {
      "name": "Вена",
      "lat": 48.21,
      "lng": 16.37
    },
    "category": "Дипломатические события"
  },
  {
    "title": "- создание священного союза - париж",
    "date": "1815",
    "description": "* ** 1815 ** - Создание Священного союза - Париж",
    "location": {
      "name": "Париж",
      "lat": 48.86,
      "lng": 2.35
    },
    "category": "Дипломатические события"
  },
  {
    "title": "Начало создания военных поселений - новгородская губерния",
    "date": "1816",
    "description": "* ** 1816 ** - Начало создания военных поселений - Новгородская губерния",
    "location": {
      "name": "Новгородская губерния",
      "lat": 58.52,
      "lng": 31.27
    },
    "category": "Войны и сражения"
  },
  {
    "title": "Волнения в военных поселениях - чугуев (харьковская",
    "date": "1819",
    "description": "* ** 1819 ** - Волнения в военных поселениях - Чугуев (Харьковская губерния)",
    "location": {
      "name": "Чугуев",
      "lat": 56.79580274441833,
      "lng": 40.559690280593614
    },
    "category": "Войны и сражения"
  },
  {
    "title": "- восстание семеновского полка - санкт-петербург",
    "date": "1820",
    "description": "* ** 1820 ** - Восстание Семеновского полка - Санкт-Петербург",
    "location": {
      "name": "Санкт-Петербург",
      "lat": 59.94,
      "lng": 30.31
    },
    "category": "Революции и перевороты"
  },
  {
    "title": "Запрет деятельности масонских лож и тайных обществ",
    "date": "1821",
    "description": "* ** 1821 ** - Запрет деятельности масонских лож и тайных обществ - Российская империя",
    "location": {
      "name": "Санкт-Петербург",
      "lat": 59.94,
      "lng": 30.31
    },
    "category": "Военные кампании"
  },
  {
    "title": "- смерть александра i - таганрог",
    "date": "1825",
    "description": "* **19 ноября 1825 ** - Смерть Александра I - Таганрог",
    "location": {
      "name": "Таганрог",
      "lat": 55.30859327750673,
      "lng": 51.49613832912959
    },
    "category": "Изменения границ"
  },
  {
    "title": "Указ о свободных хлебопашцах** - российская империя",
    "date": "1803",
    "description": "* ** 1803 ** - **Указ о свободных хлебопашцах** - Российская империя",
    "location": {
      "name": "Санкт-Петербург",
      "lat": 59.94,
      "lng": 30.31
    },
    "category": "Дипломатические события"
  },
  {
    "title": "Русско-персидская война** - кавказ, персия",
    "date": "1804-1813",
    "description": "* ** 1804-1813 ** - **Русско-персидская война** - Кавказ, Персия",
    "location": {
      "name": "Кавказ",
      "lat": 43.0,
      "lng": 44.0
    },
    "category": "Войны и сражения"
  },
  {
    "title": "Устав о цензуре** - российская империя",
    "date": "1804",
    "description": "* ** 1804 ** - **Устав о цензуре** - Российская империя",
    "location": {
      "name": "Санкт-Петербург",
      "lat": 59.94,
      "lng": 30.31
    },
    "category": "Социальные реформы"
  },
  {
    "title": "Битва при аустерлице** - аустерлиц (совр",
    "date": "1805",
    "description": "* ** 1805 ** - **Битва при Аустерлице** - Аустерлиц (совр",
    "location": {
      "name": "Аустерлиц",
      "lat": 53.59669132285279,
      "lng": 27.62340935140376
    },
    "category": "Войны и сражения"
  },
  {
    "title": "Русско-турецкая война** - балканы, причерноморье",
    "date": "1806-1812",
    "description": "* ** 1806-1812 ** - **Русско-турецкая война** - Балканы, Причерноморье",
    "location": {
      "name": "Балканы, Причерноморье",
      "lat": 51.30254048709202,
      "lng": 28.234646221499396
    },
    "category": "Войны и сражения"
  },
  {
    "title": "Тильзитский мир** - тильзит (совр",
    "date": "1807",
    "description": "* ** 1807 ** - **Тильзитский мир** - Тильзит (совр",
    "location": {
      "name": "Тильзит",
      "lat": 64.58716602508682,
      "lng": 46.29447264565712
    },
    "category": "Дипломатические события"
  },
  {
    "title": "Финляндская война** - финляндия",
    "date": "1809",
    "description": "* ** 1809 ** - **Финляндская война** - Финляндия",
    "location": {
      "name": "Финляндия",
      "lat": 57.63629377776207,
      "lng": 37.722096737552874
    },
    "category": "Войны и сражения"
  },
  {
    "title": "Создание государственного совета** - санкт-петербург",
    "date": "1810",
    "description": "* ** 1810 ** - **Создание Государственного совета** - Санкт-Петербург",
    "location": {
      "name": "Санкт-Петербург",
      "lat": 59.94,
      "lng": 30.31
    },
    "category": "Становление государства"
  },
  {
    "title": "Финансовая реформа** - российская империя",
    "date": "1810",
    "description": "* ** 1810 ** - **Финансовая реформа** - Российская империя",
    "location": {
      "name": "Санкт-Петербург",
      "lat": 59.94,
      "lng": 30.31
    },
    "category": "Социальные реформы"
  },
  {
    "title": "Преобразование министерств** - российская империя",
    "date": "1811",
    "description": "* ** 1811 ** - **Преобразование министерств** - Российская империя",
    "location": {
      "name": "Санкт-Петербург",
      "lat": 59.94,
      "lng": 30.31
    },
    "category": "Становление государства"
  },
  {
    "title": "Отечественная война** - российская империя",
    "date": "1812",
    "description": "* ** 1812 ** - **Отечественная война** - Российская империя",
    "location": {
      "name": "Москва",
      "lat": 55.75,
      "lng": 37.62
    },
    "category": "Войны и сражения"
  },
  {
    "title": "Заграничный поход русской армии** - европа",
    "date": "1813-1814",
    "description": "* ** 1813-1814 ** - **Заграничный поход русской армии** - Европа",
    "location": {
      "name": "Европа",
      "lat": 50.0,
      "lng": 10.0
    },
    "category": "Основание городов"
  },
  {
    "title": "Венский конгресс** - вена",
    "date": "1815",
    "description": "* ** 1815 ** - **Венский конгресс** - Вена",
    "location": {
      "name": "Вена",
      "lat": 48.21,
      "lng": 16.37
    },
    "category": "Дипломатические события"
  },
  {
    "title": "Создание военных поселений** - новгородская губерния",
    "date": "1816",
    "description": "* ** 1816 ** - **Создание военных поселений** - Новгородская губерния",
    "location": {
      "name": "Новгородская губерния",
      "lat": 58.52,
      "lng": 31.27
    },
    "category": "Войны и сражения"
  },
  {
    "title": "Учреждение министерства духовных дел и народного просвещения**",
    "date": "1817",
    "description": "* ** 1817 ** - **Учреждение Министерства духовных дел и народного просвещения** - Российская империя",
    "location": {
      "name": "Санкт-Петербург",
      "lat": 59.94,
      "lng": 30.31
    },
    "category": "Основание городов"
  },
  {
    "title": "Поручение о разработке проектов отмены крепостного права**",
    "date": "1818",
    "description": "* ** 1818 ** - **Поручение о разработке проектов отмены крепостного права** - Российская империя",
    "location": {
      "name": "Санкт-Петербург",
      "lat": 59.94,
      "lng": 30.31
    },
    "category": "Научные достижения"
  },
  {
    "title": "Волнения военных поселенцев в чугуеве** - чугуев",
    "date": "1819",
    "description": "* ** 1819 ** - **Волнения военных поселенцев в Чугуеве** - Чугуев (Харьковская губерния)",
    "location": {
      "name": "Чугуев",
      "lat": 47.92613660539443,
      "lng": 43.25701294256184
    },
    "category": "Войны и сражения"
  },
  {
    "title": "Восстание семеновского полка** - санкт-петербург",
    "date": "1820",
    "description": "* ** 1820 ** - **Восстание Семеновского полка** - Санкт-Петербург",
    "location": {
      "name": "Санкт-Петербург",
      "lat": 59.94,
      "lng": 30.31
    },
    "category": "Революции и перевороты"
  },
  {
    "title": "Запрет масонских лож и тайных обществ** -",
    "date": "1821",
    "description": "* ** 1821 ** - **Запрет масонских лож и тайных обществ** - Российская империя",
    "location": {
      "name": "Санкт-Петербург",
      "lat": 59.94,
      "lng": 30.31
    },
    "category": "Экономические события"
  },
  {
    "title": "Возобновление права помещиков ссылать крестьян в сибирь**",
    "date": "1822",
    "description": "* ** 1822 ** - **Возобновление права помещиков ссылать крестьян в Сибирь** - Российская империя",
    "location": {
      "name": "Российская империя",
      "lat": 48.99657670824563,
      "lng": 28.783973940021106
    },
    "category": "Революции и перевороты"
  }
]