[
  {
    "title": "Год ** - **смерть ивана iv грозного**",
    "date": "1584 год",
    "description": "* ** 1584 год ** - **Смерть Ивана IV Грозного** - Москва",
    "location": {
      "name": "Москва",
      "lat": 55.75,
      "lng": 37.62
    },
    "category": "Дипломатические события"
  },
  {
    "title": "Год , 15 мая** - **гибель царевича",
    "date": "1591 год",
    "description": "* ** 1591 год , 15 мая** - **Гибель царевича Дмитрия** - Углич",
    "location": {
      "name": "Углич",
      "lat": 63.70761202261947,
      "lng": 28.04512530799105
    },
    "category": "Социальные реформы"
  },
  {
    "title": "Год , 19 февраля** - **указ об",
    "date": "1597 год",
    "description": "* ** 1597 год , 19 февраля** - **Указ об \"урочных летах\"** - Москва",
    "location": {
      "name": "Москва",
      "lat": 55.75,
      "lng": 37.62
    },
    "category": "Социальные реформы"
  },
  {
    "title": "Год , 7 января** - **смерть царя",
    "date": "1598 год",
    "description": "* ** 1598 год , 7 января** - **Смерть царя Федора Ивановича** - Москва",
    "location": {
      "name": "Москва",
      "lat": 55.75,
      "lng": 37.62
    },
    "category": "Революции и перевороты"
  },
  {
    "title": "Год , 17 февраля** - **избрание бориса",
    "date": "1598 год",
    "description": "* ** 1598 год , 17 февраля** - **Избрание Бориса Годунова на царство** - Москва",
    "location": {
      "name": "Москва",
      "lat": 55.75,
      "lng": 37.62
    },
    "category": "Военные кампании"
  },
  {
    "title": "Годы** - **великий голод** - россия",
    "date": "1601-1603",
    "description": "* ** 1601-1603 годы** - **Великий голод** - Россия",
    "location": {
      "name": "Центральная Россия",
      "lat": 55.75,
      "lng": 37.62
    },
    "category": "Экономические события"
  },
  {
    "title": "Год , осень** - **появление лжедмитрия i**",
    "date": "1603 год",
    "description": "* ** 1603 год , осень** - **Появление Лжедмитрия I** - Речь Посполитая (предположительно, район Брагина)",
    "location": {
      "name": "Брагин",
      "lat": 59.20909766155316,
      "lng": 38.56748241880525
    },
    "category": "Военные кампании"
  },
  {
    "title": "Год , октябрь** - **вторжение лжедмитрия i",
    "date": "1604 год",
    "description": "* ** 1604 год , октябрь** - **Вторжение Лжедмитрия I в Россию** - Юго-западные русские земли",
    "location": {
      "name": "Юго-западные русские земли",
      "lat": 52.916044450677454,
      "lng": 29.389777711111318
    },
    "category": "Научные достижения"
  },
  {
    "title": "Год , 13 апреля** - **смерть бориса",
    "date": "1605 год",
    "description": "* ** 1605 год , 13 апреля** - **Смерть Бориса Годунова** - Москва",
    "location": {
      "name": "Москва",
      "lat": 55.75,
      "lng": 37.62
    },
    "category": "Изменения границ"
  },
  {
    "title": "Год , 1 июня** - **вступление лжедмитрия",
    "date": "1605 год",
    "description": "* ** 1605 год , 1 июня** - **Вступление Лжедмитрия I в Москву** - Москва",
    "location": {
      "name": "Москва",
      "lat": 55.75,
      "lng": 37.62
    },
    "category": "Становление государства"
  },
  {
    "title": "Год , 17 мая** - **убийство лжедмитрия",
    "date": "1606 год",
    "description": "* ** 1606 год , 17 мая** - **Убийство Лжедмитрия I** - Москва",
    "location": {
      "name": "Москва",
      "lat": 55.75,
      "lng": 37.62
    },
    "category": "Изменения границ"
  },
  {
    "title": "Год , 19 мая** - **избрание василия",
    "date": "1606 год",
    "description": "* ** 1606 год , 19 мая** - **Избрание Василия Шуйского на царство** - Москва",
    "location": {
      "name": "Москва",
      "lat": 55.75,
      "lng": 37.62
    },
    "category": "Экономические события"
  },
  {
    "title": "Годы** - **восстание ивана болотникова** - южные",
    "date": "1606-1607",
    "description": "* ** 1606-1607 годы** - **Восстание Ивана Болотникова** - Южные и центральные районы России",
    "location": {
      "name": "Южные и центральные районы России",
      "lat": 46.860538215340874,
      "lng": 51.783057731322444
    },
    "category": "Революции и перевороты"
  },
  {
    "title": "Год , 10 октября** - **появление лжедмитрия",
    "date": "1607 год",
    "description": "* ** 1607 год , 10 октября** - **Появление Лжедмитрия II** - Стародуб",
    "location": {
      "name": "Стародуб",
      "lat": 60.3676340148336,
      "lng": 27.774807530924036
    },
    "category": "Культура и религия"
  },
  {
    "title": "Год , июнь** - **осада троице-сергиева монастыря**",
    "date": "1608 год",
    "description": "* ** 1608 год , июнь** - **Осада Троице-Сергиева монастыря** - Троице-Сергиев монастырь",
    "location": {
      "name": "Троице-Сергиев монастырь",
      "lat": 50.68647476343812,
      "lng": 45.06148005391602
    },
    "category": "Войны и сражения"
  },
  {
    "title": "Годы** - **тушинский лагерь лжедмитрия ii** -",
    "date": "1608-1610",
    "description": "* ** 1608-1610 годы** - **Тушинский лагерь Лжедмитрия II** - Тушино (под Москвой)",
    "location": {
      "name": "Тушино",
      "lat": 54.23053868279771,
      "lng": 36.00653512173413
    },
    "category": "Восстания и бунты"
  },
  {
    "title": "Год , февраль** - **выборгский трактат** -",
    "date": "1609 год",
    "description": "* ** 1609 год , февраль** - **Выборгский трактат** - Выборг",
    "location": {
      "name": "Выборг",
      "lat": 58.312795283276174,
      "lng": 29.763277464348775
    },
    "category": "Научные достижения"
  },
  {
    "title": "Год , 24 июня** - **битва при",
    "date": "1610 год",
    "description": "* ** 1610 год , 24 июня** - **Битва при Клушине** - Клушино (под Смоленском)",
    "location": {
      "name": "Клушино (под Смоленском)",
      "lat": 54.78,
      "lng": 32.05
    },
    "category": "Войны и сражения"
  },
  {
    "title": "Год , 17 июля** - **свержение василия",
    "date": "1610 год",
    "description": "* ** 1610 год , 17 июля** - **Свержение Василия Шуйского** - Москва",
    "location": {
      "name": "Москва",
      "lat": 55.75,
      "lng": 37.62
    },
    "category": "Революции и перевороты"
  },
  {
    "title": "Год , август** - **призвание на царство",
    "date": "1610 год",
    "description": "* ** 1610 год , август** - **Призвание на царство польского королевича Владислава** - Москва",
    "location": {
      "name": "Москва",
      "lat": 55.75,
      "lng": 37.62
    },
    "category": "Восстания и бунты"
  },
  {
    "title": "Год , декабрь** - **убийство лжедмитрия ii**",
    "date": "1610 год",
    "description": "* ** 1610 год , декабрь** - **Убийство Лжедмитрия II** - Калуга",
    "location": {
      "name": "Калуга",
      "lat": 63.68763800962722,
      "lng": 44.152755343212014
    },
    "category": "Военные кампании"
  },
  {
    "title": "Год , март-август** - **первое народное ополчение**",
    "date": "1611 год",
    "description": "* ** 1611 год , март-август** - **Первое народное ополчение** - Рязань, Москва",
    "location": {
      "name": "Рязань, Москва",
      "lat": 55.75,
      "lng": 37.62
    },
    "category": "Территориальные приобретения"
  },
  {
    "title": "Год , июнь** - **падение смоленска** -",
    "date": "1611 год",
    "description": "* ** 1611 год , июнь** - **Падение Смоленска** - Смоленск",
    "location": {
      "name": "Смоленск",
      "lat": 54.78,
      "lng": 32.05
    },
    "category": "Научные достижения"
  },
  {
    "title": "Год , июль** - **убийство прокопия ляпунова**",
    "date": "1611 год",
    "description": "* ** 1611 год , июль** - **Убийство Прокопия Ляпунова** - Москва (лагерь ополчения)",
    "location": {
      "name": "Москва",
      "lat": 55.75,
      "lng": 37.62
    },
    "category": "Территориальные приобретения"
  },
  {
    "title": "Год , август** - **второе народное ополчение**",
    "date": "1612 год",
    "description": "* ** 1612 год , август** - **Второе народное ополчение** - Нижний Новгород, Ярославль",
    "location": {
      "name": "Ярославль",
      "lat": 57.63,
      "lng": 39.87
    },
    "category": "Экономические события"
  },
  {
    "title": "Год , 22-24 августа** - **битва за",
    "date": "1612 год",
    "description": "* ** 1612 год , 22-24 августа** - **Битва за Москву** - Москва",
    "location": {
      "name": "Москва",
      "lat": 55.75,
      "lng": 37.62
    },
    "category": "Войны и сражения"
  },
  {
    "title": "Год , 26 октября (4 ноября по",
    "date": "1612 год",
    "description": "* ** 1612 год , 26 октября (4 ноября по новому стилю)** - **Освобождение Москвы от польских интервентов** - Москва",
    "location": {
      "name": "Москва",
      "lat": 55.75,
      "lng": 37.62
    },
    "category": "Дипломатические события"
  },
  {
    "title": "Год , 21 февраля** - **избрание михаила",
    "date": "1613 год",
    "description": "* ** 1613 год , 21 февраля** - **Избрание Михаила Романова на царство** - Москва",
    "location": {
      "name": "Москва",
      "lat": 55.75,
      "lng": 37.62
    },
    "category": "Культура и религия"
  },
  {
    "title": "Год , 27 февраля** - **столбовский мир**",
    "date": "1617 год",
    "description": "* ** 1617 год , 27 февраля** - **Столбовский мир** - Столбово",
    "location": {
      "name": "Столбово",
      "lat": 58.55593275267465,
      "lng": 47.85238049438565
    },
    "category": "Дипломатические события"
  },
  {
    "title": "Деулинское перемирие",
    "date": "1618 год",
    "description": "* ** 1618 год , 1 декабря** - **Деулинское перемирие** - Деулино (под Москвой)",
    "location": {
      "name": "Деулино",
      "lat": 56.06804188140146,
      "lng": 36.84665752281495
    },
    "category": "Дипломатические события"
  },
  {
    "title": "Декабрь** - **битва под новгород-северским** - **новгород-северский**",
    "date": "1604",
    "description": "* ** 1604 , Декабрь** - **Битва под Новгород-Северским** - **Новгород-Северский**",
    "location": {
      "name": "Новгород-Северский",
      "lat": 58.52,
      "lng": 31.27
    },
    "category": "Войны и сражения"
  },
  {
    "title": "Январь** - **битва при добрыничах** - **добрыничи",
    "date": "1605",
    "description": "* ** 1605 , Январь** - **Битва при Добрыничах** - **Добрыничи (между Кромами и Севском)**",
    "location": {
      "name": "Добрыничи",
      "lat": 51.7133155832108,
      "lng": 41.871460684900526
    },
    "category": "Войны и сражения"
  },
  {
    "title": "Внезапная смерть бориса годунова",
    "date": "1605",
    "description": "* ** 1605 , Апрель 13** - **Внезапная смерть Бориса Годунова** - **Москва**",
    "location": {
      "name": "Москва",
      "lat": 55.75,
      "lng": 37.62
    },
    "category": "Революции и перевороты"
  },
  {
    "title": "Май** - **переход армии под кромами на",
    "date": "1605",
    "description": "* ** 1605 , Май** - **Переход армии под Кромами на сторону Лжедмитрия I** - **Кромы**",
    "location": {
      "name": "Кромы",
      "lat": 55.884796040750196,
      "lng": 30.192819733147424
    },
    "category": "Восстания и бунты"
  },
  {
    "title": "Июнь 1** - **убийство федора годунова и",
    "date": "1605",
    "description": "* ** 1605 , Июнь 1** - **Убийство Федора Годунова и его матери Марии** - **Москва**",
    "location": {
      "name": "Москва",
      "lat": 55.75,
      "lng": 37.62
    },
    "category": "Экономические события"
  },
  {
    "title": "Май 17** - **восстание в москве и",
    "date": "1606",
    "description": "* ** 1606 , Май 17** - **Восстание в Москве и убийство Лжедмитрия I** - **Москва**",
    "location": {
      "name": "Москва",
      "lat": 55.75,
      "lng": 37.62
    },
    "category": "Революции и перевороты"
  },
  {
    "title": "Май 19** - **воцарение василия шуйского** -",
    "date": "1606",
    "description": "* ** 1606 , Май 19** - **Воцарение Василия Шуйского** - **Москва**",
    "location": {
      "name": "Москва",
      "lat": 55.75,
      "lng": 37.62
    },
    "category": "Территориальные приобретения"
  },
  {
    "title": "Восстание ивана болотникова** - **юг россии, московская",
    "date": "1606-1607",
    "description": "* ** 1606-1607 ** - **Восстание Ивана Болотникова** - **Юг России, Московская область**",
    "location": {
      "name": "Юг России, Московская область",
      "lat": 55.75,
      "lng": 37.0
    },
    "category": "Революции и перевороты"
  },
  {
    "title": "Декабрь 2** - **битва под ельцом** -",
    "date": "1606",
    "description": "* ** 1606 , Декабрь 2** - **Битва под Ельцом** - **Елец**",
    "location": {
      "name": "Елец",
      "lat": 45.386570713836875,
      "lng": 40.030399130049524
    },
    "category": "Войны и сражения"
  },
  {
    "title": "Май** - **появление лжедмитрия ii** - **стародуб**",
    "date": "1607",
    "description": "* ** 1607 , Май** - **Появление Лжедмитрия II** - **Стародуб**",
    "location": {
      "name": "Стародуб",
      "lat": 45.10256635024778,
      "lng": 48.76346924405236
    },
    "category": "Экономические события"
  },
  {
    "title": "Май** - **основание тушинского лагеря** - **тушино",
    "date": "1608",
    "description": "* ** 1608 , Май** - **Основание Тушинского лагеря** - **Тушино (под Москвой)**",
    "location": {
      "name": "Тушино",
      "lat": 64.72187035344487,
      "lng": 51.9805874580303
    },
    "category": "Восстания и бунты"
  },
  {
    "title": "Февраль** - **выборгский трактат** - **выборг**",
    "date": "1609",
    "description": "* ** 1609 , Февраль** - **Выборгский трактат** - **Выборг**",
    "location": {
      "name": "Выборг",
      "lat": 60.8115072858146,
      "lng": 27.75368881166058
    },
    "category": "Экономические события"
  },
  {
    "title": "Польская интервенция** - **различные регионы россии**",
    "date": "1609-1611",
    "description": "* ** 1609-1611 ** - **Польская интервенция** - **Различные регионы России**",
    "location": {
      "name": "Москва",
      "lat": 55.75,
      "lng": 37.62
    },
    "category": "Революции и перевороты"
  },
  {
    "title": "Июль** - **битва при клушине** - **клушино**",
    "date": "1610",
    "description": "* ** 1610 , Июль** - **Битва при Клушине** - **Клушино**",
    "location": {
      "name": "Клушино",
      "lat": 47.17179439236554,
      "lng": 45.22245799652062
    },
    "category": "Войны и сражения"
  },
  {
    "title": "Июль 17** - **свержение василия шуйского** -",
    "date": "1610",
    "description": "* ** 1610 , Июль 17** - **Свержение Василия Шуйского** - **Москва**",
    "location": {
      "name": "Москва",
      "lat": 55.75,
      "lng": 37.62
    },
    "category": "Революции и перевороты"
  },
  {
    "title": "Август** - **приглашение на престол польского королевича",
    "date": "1610",
    "description": "* ** 1610 , Август** - **Приглашение на престол польского королевича Владислава** - **Москва**",
    "location": {
      "name": "Москва",
      "lat": 55.75,
      "lng": 37.62
    },
    "category": "Дипломатические события"
  },
  {
    "title": "Март** - **первое ополчение** - **рязань**",
    "date": "1611",
    "description": "* ** 1611 , Март** - **Первое ополчение** - **Рязань**",
    "location": {
      "name": "Рязань",
      "lat": 53.89554711592787,
      "lng": 27.76124995422117
    },
    "category": "Войны и сражения"
  },
  {
    "title": "Июнь** - **убийство прокопия ляпунова** - **под",
    "date": "1611",
    "description": "* ** 1611 , Июнь** - **Убийство Прокопия Ляпунова** - **Под Москвой**",
    "location": {
      "name": "Под Москвой",
      "lat": 58.11361388043256,
      "lng": 50.98246037288256
    },
    "category": "Военные кампании"
  },
  {
    "title": "Июнь 3** - **падение смоленска** - **смоленск**",
    "date": "1611",
    "description": "* ** 1611 , Июнь 3** - **Падение Смоленска** - **Смоленск**",
    "location": {
      "name": "Смоленск",
      "lat": 54.78,
      "lng": 32.05
    },
    "category": "Военные кампании"
  },
  {
    "title": "Формирование второго ополчения",
    "date": "1611",
    "description": "* ** 1611 , Осень** - **Формирование Второго ополчения** - **Нижний Новгород**",
    "location": {
      "name": "Нижний Новгород",
      "lat": 56.32,
      "lng": 44.0
    },
    "category": "Дипломатические события"
  }
]