[
  {
    "title": "Указ о вольности дворянства** - российская империя",
    "date": "1762",
    "description": "* ** 1762 ** - **Указ о вольности дворянства** - Российская империя",
    "location": {
      "name": "Санкт-Петербург",
      "lat": 59.94,
      "lng": 30.31
    },
    "category": "Научные достижения"
  },
  {
    "title": "Открытие воспитательного общества благородных девиц (смольный институт)**",
    "date": "1763",
    "description": "* ** 1763 ** - **Открытие Воспитательного общества благородных девиц (Смольный институт)** - Санкт-Петербург",
    "location": {
      "name": "Санкт-Петербург",
      "lat": 59.94,
      "lng": 30.31
    },
    "category": "Научные достижения"
  },
  {
    "title": "Основание эрмитажа** - санкт-петербург",
    "date": "1764",
    "description": "* ** 1764 ** - **Основание Эрмитажа** - Санкт-Петербург",
    "location": {
      "name": "Санкт-Петербург",
      "lat": 59.94,
      "lng": 30.31
    },
    "category": "Социальные реформы"
  },
  {
    "title": "Учреждение комиссии о каменном строении санкт-петербурга и",
    "date": "1764",
    "description": "* ** 1764 ** - **Учреждение Комиссии о каменном строении Санкт-Петербурга и Москвы** - Санкт-Петербург, Москва",
    "location": {
      "name": "Санкт-Петербург",
      "lat": 59.94,
      "lng": 30.31
    },
    "category": "Дипломатические события"
  },
  {
    "title": "Основание вольного экономического общества** - санкт-петербург",
    "date": "1765",
    "description": "* ** 1765 ** - **Основание Вольного экономического общества** - Санкт-Петербург",
    "location": {
      "name": "Санкт-Петербург",
      "lat": 59.94,
      "lng": 30.31
    },
    "category": "Экономические события"
  },
  {
    "title": "Начало работы уложенной комиссии** - москва",
    "date": "1766",
    "description": "* ** 1766 ** - **Начало работы Уложенной комиссии** - Москва",
    "location": {
      "name": "Москва",
      "lat": 55.75,
      "lng": 37.62
    },
    "category": "Революции и перевороты"
  },
  {
    "title": "Начало русско-турецкой войны (1768-1774)** - российская империя",
    "date": "1768",
    "description": "* ** 1768 ** - **Начало русско-турецкой войны (1768-1774)** - Российская империя, Османская империя",
    "location": {
      "name": "Ба́лта",
      "lat": 61.51705106822351,
      "lng": 38.43680326395398
    },
    "category": "Политические реформы"
  },
  {
    "title": "Начало русско-турецкой войны ( 1768-1774 )** -",
    "date": "1768-1774",
    "description": "* **1768** - **Начало русско-турецкой войны ( 1768-1774 )** - Российская империя, Османская империя",
    "location": {
      "name": "Ба́лта",
      "lat": 50.03513792186641,
      "lng": 28.27511011804305
    },
    "category": "Восстания и бунты"
  },
  {
    "title": "Учреждение государственного заемного банка** - санкт-петербург",
    "date": "1768",
    "description": "* ** 1768 ** - **Учреждение Государственного заемного банка** - Санкт-Петербург",
    "location": {
      "name": "Санкт-Петербург",
      "lat": 59.94,
      "lng": 30.31
    },
    "category": "Становление государства"
  },
  {
    "title": "Учреждение ордена святого георгия** - российская империя",
    "date": "1769",
    "description": "* ** 1769 ** - **Учреждение ордена Святого Георгия** - Российская империя",
    "location": {
      "name": "Санкт-Петербург",
      "lat": 59.94,
      "lng": 30.31
    },
    "category": "Дипломатические события"
  },
  {
    "title": "Чесменское сражение** - чесменская бухта, эгейское море",
    "date": "1770",
    "description": "* ** 1770 ** - **Чесменское сражение** - Чесменская бухта, Эгейское море",
    "location": {
      "name": "Чесменская бухта",
      "lat": 49.383377371200204,
      "lng": 34.061608340999264
    },
    "category": "Войны и сражения"
  },
  {
    "title": "Чумной бунт** - москва",
    "date": "1771",
    "description": "* ** 1771 ** - **Чумной бунт** - Москва",
    "location": {
      "name": "Москва",
      "lat": 55.75,
      "lng": 37.62
    },
    "category": "Революции и перевороты"
  },
  {
    "title": "Первый раздел речи посполитой** - российская империя",
    "date": "1772",
    "description": "* ** 1772 ** - **Первый раздел Речи Посполитой** - Российская империя, Пруссия, Австрия",
    "location": {
      "name": "Восточная Белоруссия",
      "lat": 48.78673600159505,
      "lng": 36.78645208723954
    },
    "category": "Изменения границ"
  },
  {
    "title": "Крестьянская война под предводительством е",
    "date": "1773-1775",
    "description": "* ** 1773-1775 ** - **Крестьянская война под предводительством Е",
    "location": {
      "name": "Оренбургская губерния",
      "lat": 54.55294984763055,
      "lng": 51.90803171179016
    },
    "category": "Войны и сражения"
  },
  {
    "title": "Учреждение губерний** - российская империя",
    "date": "1775",
    "description": "* ** 1775 ** - **Учреждение губерний** - Российская империя",
    "location": {
      "name": "Российская империя",
      "lat": 63.477712892987256,
      "lng": 35.848701832941416
    },
    "category": "Восстания и бунты"
  },
  {
    "title": "Основание большого театра (первоначально петровский театр)** -",
    "date": "1776",
    "description": "* ** 1776 ** - **Основание Большого театра (первоначально Петровский театр)** - Москва",
    "location": {
      "name": "Москва",
      "lat": 55.75,
      "lng": 37.62
    },
    "category": "Культура и религия"
  },
  {
    "title": "Открытие санкт-петербургского театрального училища** - санкт-петербург",
    "date": "1779",
    "description": "* ** 1779 ** - **Открытие Санкт-Петербургского театрального училища** - Санкт-Петербург",
    "location": {
      "name": "Санкт-Петербург",
      "lat": 59.94,
      "lng": 30.31
    },
    "category": "Культура и религия"
  },
  {
    "title": "Вооруженный нейтралитет\"** - российская империя",
    "date": "1780",
    "description": "* ** 1780 ** - **\"Вооруженный нейтралитет\"** - Российская империя",
    "location": {
      "name": "Санкт-Петербург",
      "lat": 59.94,
      "lng": 30.31
    },
    "category": "Социальные реформы"
  },
  {
    "title": "Открытие памятника петру i (\"медный всадник\")** -",
    "date": "1782",
    "description": "* ** 1782 ** - **Открытие памятника Петру I (\"Медный всадник\")** - Санкт-Петербург",
    "location": {
      "name": "Санкт-Петербург",
      "lat": 59.94,
      "lng": 30.31
    },
    "category": "Научные достижения"
  },
  {
    "title": "Присоединение крыма к россии** - крым",
    "date": "1783",
    "description": "* ** 1783 ** - **Присоединение Крыма к России** - Крым",
    "location": {
      "name": "Крым",
      "lat": 45.3,
      "lng": 34.2
    },
    "category": "Изменения границ"
  },
  {
    "title": "Жалованная грамота дворянству** - российская империя",
    "date": "1785",
    "description": "* ** 1785 ** - **Жалованная грамота дворянству** - Российская империя",
    "location": {
      "name": "Санкт-Петербург",
      "lat": 59.94,
      "lng": 30.31
    },
    "category": "Становление государства"
  },
  {
    "title": "Жалованная грамота городам** - российская империя",
    "date": "1785",
    "description": "* ** 1785 ** - **Жалованная грамота городам** - Российская империя",
    "location": {
      "name": "Санкт-Петербург",
      "lat": 59.94,
      "lng": 30.31
    },
    "category": "Социальные реформы"
  },
  {
    "title": "Устав народным училищам** - российская империя",
    "date": "1786",
    "description": "* ** 1786 ** - **Устав народным училищам** - Российская империя",
    "location": {
      "name": "Санкт-Петербург",
      "lat": 59.94,
      "lng": 30.31
    },
    "category": "Социальные реформы"
  },
  {
    "title": "Путешествие екатерины ii в крым** - крым",
    "date": "1787",
    "description": "* ** 1787 ** - **Путешествие Екатерины II в Крым** - Крым",
    "location": {
      "name": "Крым",
      "lat": 45.3,
      "lng": 34.2
    },
    "category": "Войны и сражения"
  },
  {
    "title": "Русско-турецкая война",
    "date": "1787-1791",
    "description": "* ** 1787-1791 ** - **Русско-турецкая война (1787-1791)** - Российская империя, Османская империя",
    "location": {
      "name": "Крым",
      "lat": 45.3,
      "lng": 34.2
    },
    "category": "Войны и сражения"
  },
  {
    "title": "Издание книги а",
    "date": "1790",
    "description": "* ** 1790 ** - **Издание книги А",
    "location": {
      "name": "Санкт-Петербург",
      "lat": 59.94,
      "lng": 30.31
    },
    "category": "Культура и религия"
  },
  {
    "title": "Второй раздел речи посполитой** - российская империя",
    "date": "1792",
    "description": "* ** 1792 ** - **Второй раздел Речи Посполитой** - Российская империя, Пруссия",
    "location": {
      "name": "Гродно",
      "lat": 60.54938803148111,
      "lng": 44.01999197119832
    },
    "category": "Изменения границ"
  },
  {
    "title": "Указ о создании департамента уделов** - российская",
    "date": "1793",
    "description": "* ** 1793 ** - **Указ о создании Департамента уделов** - Российская империя",
    "location": {
      "name": "Санкт-Петербург",
      "lat": 59.94,
      "lng": 30.31
    },
    "category": "Культура и религия"
  },
  {
    "title": "Третий раздел речи посполитой** - российская империя",
    "date": "1795",
    "description": "* ** 1795 ** - **Третий раздел Речи Посполитой** - Российская империя, Пруссия, Австрия",
    "location": {
      "name": "Гродно",
      "lat": 60.58976016660076,
      "lng": 39.074405329278676
    },
    "category": "Изменения границ"
  },
  {
    "title": "Смерть екатерины ii** - царское село",
    "date": "1796",
    "description": "* ** 1796 ** - **Смерть Екатерины II** - Царское Село",
    "location": {
      "name": "Царское Село",
      "lat": 54.84207782480351,
      "lng": 50.0027720541892
    },
    "category": "Политические реформы"
  },
  {
    "title": "Основание вольного экономического общества] - [санкт-петербург]",
    "date": "1765",
    "description": "* [ 1765 ] - [Основание Вольного экономического общества] - [Санкт-Петербург]",
    "location": {
      "name": "Санкт-Петербург",
      "lat": 59.94,
      "lng": 30.31
    },
    "category": "Экономические события"
  },
  {
    "title": "Начало издания сатирического журнала \"всякая всячина\"] -",
    "date": "1766",
    "description": "* [ 1766 ] - [Начало издания сатирического журнала \"Всякая всячина\"] - [Санкт-Петербург]",
    "location": {
      "name": "Санкт-Петербург",
      "lat": 59.94,
      "lng": 30.31
    },
    "category": "Войны и сражения"
  },
  {
    "title": "Первая русско-турецкая война и ее отражение в искусстве",
    "date": "1768-1774",
    "description": "* [ 1768-1774 ] - [Первая русско-турецкая война и ее отражение в искусстве] - [Российская империя]",
    "location": {
      "name": "Российская империя",
      "lat": 51.50595164182698,
      "lng": 39.34566586861354
    },
    "category": "Войны и сражения"
  },
  {
    "title": "Учреждение ордена святого георгия] - [российская империя]",
    "date": "1769",
    "description": "* [ 1769 ] - [Учреждение ордена Святого Георгия] - [Российская империя]",
    "location": {
      "name": "Санкт-Петербург",
      "lat": 59.94,
      "lng": 30.31
    },
    "category": "Экономические события"
  },
  {
    "title": "Чесменская победа и ее художественное осмысление] -",
    "date": "1770",
    "description": "* [ 1770 ] - [Чесменская победа и ее художественное осмысление] - [Эгейское море, Санкт-Петербург]",
    "location": {
      "name": "Эгейское море, Санкт-Петербург",
      "lat": 59.94,
      "lng": 30.31
    },
    "category": "Основание городов"
  },
  {
    "title": "Приобретение коллекции гоцковского] - [санкт-петербург]",
    "date": "1772",
    "description": "* [ 1772 ] - [Приобретение коллекции Гоцковского] - [Санкт-Петербург]",
    "location": {
      "name": "Санкт-Петербург",
      "lat": 59.94,
      "lng": 30.31
    },
    "category": "Социальные реформы"
  },
  {
    "title": "Восстание пугачева и его отражение в литературе",
    "date": "1773-1775",
    "description": "* [ 1773-1775 ] - [Восстание Пугачева и его отражение в литературе и фольклоре] - [Поволжье, Урал]",
    "location": {
      "name": "Поволжье, Урал",
      "lat": 58.0,
      "lng": 60.0
    },
    "category": "Культура и религия"
  },
  {
    "title": "Открытие музея восковых персон] - [санкт-петербург]",
    "date": "1776",
    "description": "* [ 1776 ] - [Открытие Музея восковых персон] - [Санкт-Петербург]",
    "location": {
      "name": "Санкт-Петербург",
      "lat": 59.94,
      "lng": 30.31
    },
    "category": "Научные достижения"
  },
  {
    "title": "Основание санкт-петербургского музыкального издательства] - [санкт-петербург]",
    "date": "1779",
    "description": "* [ 1779 ] - [Основание Санкт-Петербургского музыкального издательства] - [Санкт-Петербург]",
    "location": {
      "name": "Санкт-Петербург",
      "lat": 59.94,
      "lng": 30.31
    },
    "category": "Культура и религия"
  },
  {
    "title": "Постройка китайского театра в царском селе] -",
    "date": "1780",
    "description": "* [ 1780 ] - [Постройка Китайского театра в Царском Селе] - [Царское Село]",
    "location": {
      "name": "Царское Село",
      "lat": 49.06203359949148,
      "lng": 31.75063675224815
    },
    "category": "Культура и религия"
  },
  {
    "title": "Открытие памятника петру i (\"медный всадник\")] -",
    "date": "1782",
    "description": "* [ 1782 ] - [Открытие памятника Петру I (\"Медный всадник\")] - [Санкт-Петербург]",
    "location": {
      "name": "Санкт-Петербург",
      "lat": 59.94,
      "lng": 30.31
    },
    "category": "Научные достижения"
  },
  {
    "title": "Присоединение крыма к россии и его отражение",
    "date": "1783",
    "description": "* [ 1783 ] - [Присоединение Крыма к России и его отражение в искусстве] - [Крым, Российская империя]",
    "location": {
      "name": "Крым",
      "lat": 45.3,
      "lng": 34.2
    },
    "category": "Культура и религия"
  },
  {
    "title": "Первая постановка оперы \"богатырь олег\" на музыку",
    "date": "1786",
    "description": "* [ 1786 ] - [Первая постановка оперы \"Богатырь Олег\" на музыку Екатерины II] - [Санкт-Петербург]",
    "location": {
      "name": "Санкт-Петербург",
      "lat": 59.94,
      "lng": 30.31
    },
    "category": "Культура и религия"
  },
  {
    "title": "Путешествие екатерины ii в крым и его",
    "date": "1787",
    "description": "* [ 1787 ] - [Путешествие Екатерины II в Крым и его художественное оформление] - [Крым]",
    "location": {
      "name": "Крым",
      "lat": 45.3,
      "lng": 34.2
    },
    "category": "Революции и перевороты"
  },
  {
    "title": "Начало французской революции и ее влияние на",
    "date": "1789",
    "description": "* [ 1789 ] - [Начало Французской революции и ее влияние на русскую культуру] - [Франция, Российская империя]",
    "location": {
      "name": "Франция",
      "lat": 58.16816237908037,
      "lng": 41.156150329394066
    },
    "category": "Культура и религия"
  },
  {
    "title": "Издание книги \"путешествие из петербурга в москву\"",
    "date": "1790",
    "description": "* [ 1790 ] - [Издание книги \"Путешествие из Петербурга в Москву\" А",
    "location": {
      "name": "Санкт-Петербург",
      "lat": 59.94,
      "lng": 30.31
    },
    "category": "Военные кампании"
  },
  {
    "title": "Открытие императорской публичной библиотеки] - [санкт-петербург]",
    "date": "1793",
    "description": "* [ 1793 ] - [Открытие Императорской публичной библиотеки] - [Санкт-Петербург]",
    "location": {
      "name": "Санкт-Петербург",
      "lat": 59.94,
      "lng": 30.31
    },
    "category": "Научные достижения"
  },
  {
    "title": "Основание медико-хирургической академии] - [санкт-петербург]",
    "date": "1796",
    "description": "* [ 1796 ] - [Основание Медико-хирургической академии] - [Санкт-Петербург]",
    "location": {
      "name": "Санкт-Петербург",
      "lat": 59.94,
      "lng": 30.31
    },
    "category": "Революции и перевороты"
  }
]