[
  {
    "title": "Русско-турецкие войны и разделы польши при екатерине",
    "date": "1762-1796",
    "description": "**Русско-турецкие войны и разделы Польши при Екатерине II ( 1762-1796 )**",
    "location": {
      "name": "Санкт-Петербург",
      "lat": 59.94,
      "lng": 30.31
    },
    "category": "Изменения границ"
  },
  {
    "title": "Избрание станислава августа понятовского королем польши -",
    "date": "1764",
    "description": "* ** 1764 ** - Избрание Станислава Августа Понятовского королем Польши - Варшава, Речь Посполитая",
    "location": {
      "name": "Варшава",
      "lat": 57.115773398981524,
      "lng": 39.688883298459984
    },
    "category": "Становление государства"
  },
  {
    "title": "- первая русско-турецкая война - территория османской империи и российская империя",
    "date": "1768",
    "description": "* ** 1768 - 1774** - Первая русско-турецкая война - Территория Османской империи и Российская империя",
    "location": {
      "name": "Крым",
      "lat": 45.3,
      "lng": 34.2
    },
    "category": "Войны и сражения"
  },
  {
    "title": "Октябрь 1768 ** - вторжение русских войск",
    "date": "1768",
    "description": "* **Октябрь 1768 ** - Вторжение русских войск в Польшу - Речь Посполитая",
    "location": {
      "name": "Речь Посполитая",
      "lat": 50.35500082402066,
      "lng": 44.745553442318624
    },
    "category": "Экономические события"
  },
  {
    "title": "Русская армия занимает хотин - хотин, османская",
    "date": "1769",
    "description": "* ** 1769 ** - Русская армия занимает Хотин - Хотин, Османская империя (совр",
    "location": {
      "name": "Хотин",
      "lat": 51.710369013186785,
      "lng": 41.481620196517476
    },
    "category": "Революции и перевороты"
  },
  {
    "title": "- чесменское сражение - чесменская бухта",
    "date": "1770",
    "description": "* ** 1770 , 5-7 июля** - Чесменское сражение - Чесменская бухта, Эгейское море",
    "location": {
      "name": "Чесменская бухта",
      "lat": 46.21126171650377,
      "lng": 47.58307716698307
    },
    "category": "Войны и сражения"
  },
  {
    "title": "- сражение при ларге - ларга",
    "date": "1770",
    "description": "* ** 1770 , 1 августа** - Сражение при Ларге - Ларга, Молдавия (совр",
    "location": {
      "name": "Ларга, Молдавия",
      "lat": 47.01,
      "lng": 28.86
    },
    "category": "Войны и сражения"
  },
  {
    "title": "- сражение при кагуле - кагул",
    "date": "1770",
    "description": "* ** 1770 , 21 июля** - Сражение при Кагуле - Кагул, Молдавия (совр",
    "location": {
      "name": "Кагул",
      "lat": 54.41706118299596,
      "lng": 38.53137501894469
    },
    "category": "Войны и сражения"
  },
  {
    "title": "Занятие крыма русскими войсками - крымский полуостров",
    "date": "1771",
    "description": "* ** 1771 ** - Занятие Крыма русскими войсками - Крымский полуостров",
    "location": {
      "name": "Крымский полуостров",
      "lat": 45.3,
      "lng": 34.2
    },
    "category": "Культура и религия"
  },
  {
    "title": "Августа** - первый раздел польши - санкт-петербург",
    "date": "1772",
    "description": "* ** 1772 , 5 августа** - Первый раздел Польши - Санкт-Петербург, Российская империя",
    "location": {
      "name": "Санкт-Петербург",
      "lat": 59.94,
      "lng": 30.31
    },
    "category": "Изменения границ"
  },
  {
    "title": "- кючук-кайнарджийский мирный договор - кючук-кайнарджа",
    "date": "1774",
    "description": "* ** 1774 , 21 июля** - Кючук-Кайнарджийский мирный договор - Кючук-Кайнарджа, Болгария",
    "location": {
      "name": "Кючук-Кайнарджа",
      "lat": 53.97883151808635,
      "lng": 36.973681408541275
    },
    "category": "Дипломатические события"
  },
  {
    "title": "Ликвидация запорожской сечи - запорожская сечь, украина",
    "date": "1775",
    "description": "* ** 1775 ** - Ликвидация Запорожской Сечи - Запорожская Сечь, Украина",
    "location": {
      "name": "Запорожская Сечь, Украина",
      "lat": 50.45,
      "lng": 30.52
    },
    "category": "Территориальные приобретения"
  },
  {
    "title": "Марта** - айналинская конвенция - айнали-кавак, османская",
    "date": "1779",
    "description": "* ** 1779 , 21 марта** - Айналинская конвенция - Айнали-Кавак, Османская империя (совр",
    "location": {
      "name": "Айнали-Кавак",
      "lat": 60.57374581285609,
      "lng": 30.258512220445105
    },
    "category": "Социальные реформы"
  },
  {
    "title": "- манифест о присоединении крыма к россии - санкт-петербург",
    "date": "1783",
    "description": "* ** 1783 , 8 апреля** - Манифест о присоединении Крыма к России - Санкт-Петербург, Российская империя",
    "location": {
      "name": "Санкт-Петербург",
      "lat": 59.94,
      "lng": 30.31
    },
    "category": "Изменения границ"
  },
  {
    "title": "Присоединение кубани к россии - кубань, северный",
    "date": "1783",
    "description": "* ** 1783 ** - Присоединение Кубани к России - Кубань, Северный Кавказ",
    "location": {
      "name": "Кубань",
      "lat": 49.30799118560949,
      "lng": 47.48719801834682
    },
    "category": "Изменения границ"
  },
  {
    "title": "- вторая русско-турецкая война - территория османской империи и российская империя",
    "date": "1787",
    "description": "* ** 1787 - 1791** - Вторая русско-турецкая война - Территория Османской империи и Российская империя",
    "location": {
      "name": "Причерноморье",
      "lat": 45.87407350412068,
      "lng": 40.63435341931865
    },
    "category": "Войны и сражения"
  },
  {
    "title": "Октябрь** - начало второй русско-турецкой войны -",
    "date": "1787",
    "description": "* ** 1787 , октябрь** - Начало второй русско-турецкой войны - Черное море",
    "location": {
      "name": "Черное море",
      "lat": 44.0,
      "lng": 35.0
    },
    "category": "Научные достижения"
  },
  {
    "title": "Декабря** - взятие очакова - очаков, украина",
    "date": "1788",
    "description": "* ** 1788 , 6 декабря** - Взятие Очакова - Очаков, Украина",
    "location": {
      "name": "Очаков, Украина",
      "lat": 50.45,
      "lng": 30.52
    },
    "category": "Восстания и бунты"
  },
  {
    "title": "- сражение при фокшанах - фокшаны",
    "date": "1789",
    "description": "* ** 1789 , 1 августа** - Сражение при Фокшанах - Фокшаны, Молдавия (совр",
    "location": {
      "name": "Фокшаны",
      "lat": 52.57352753289187,
      "lng": 40.860774303244156
    },
    "category": "Войны и сражения"
  },
  {
    "title": "- сражение на реке рымник - рымник",
    "date": "1789",
    "description": "* ** 1789 , 22 сентября** - Сражение на реке Рымник - Рымник, Молдавия (совр",
    "location": {
      "name": "Рымник, Молдавия",
      "lat": 47.01,
      "lng": 28.86
    },
    "category": "Войны и сражения"
  },
  {
    "title": "Декабря** - взятие измаила - измаил, украина",
    "date": "1790",
    "description": "* ** 1790 , 11 декабря** - Взятие Измаила - Измаил, Украина",
    "location": {
      "name": "Измаил, Украина",
      "lat": 50.45,
      "lng": 30.52
    },
    "category": "Политические реформы"
  },
  {
    "title": "- ясский мирный договор - яссы",
    "date": "1792",
    "description": "* ** 1792 , 9 января** - Ясский мирный договор - Яссы, Молдавия (совр",
    "location": {
      "name": "Яссы",
      "lat": 61.7108985410711,
      "lng": 40.755379530771194
    },
    "category": "Дипломатические события"
  },
  {
    "title": "Января** - второй раздел польши - санкт-петербург",
    "date": "1793",
    "description": "* ** 1793 , 23 января** - Второй раздел Польши - Санкт-Петербург, Российская империя",
    "location": {
      "name": "Санкт-Петербург",
      "lat": 59.94,
      "lng": 30.31
    },
    "category": "Изменения границ"
  },
  {
    "title": "- восстание тадеуша костюшко - варшава",
    "date": "1794",
    "description": "* ** 1794 ** - Восстание Тадеуша Костюшко - Варшава, Речь Посполитая",
    "location": {
      "name": "Варшава",
      "lat": 63.96895914903234,
      "lng": 29.032821859505653
    },
    "category": "Революции и перевороты"
  },
  {
    "title": "Ноября** - штурм праги (предместье варшавы) -",
    "date": "1794",
    "description": "* ** 1794 , 4 ноября** - Штурм Праги (предместье Варшавы) - Прага, Варшава, Речь Посполитая",
    "location": {
      "name": "Прага (предместье Варшавы)",
      "lat": 61.380222255383174,
      "lng": 43.8423222023665
    },
    "category": "Войны и сражения"
  },
  {
    "title": "Октября** - третий раздел польши - санкт-петербург",
    "date": "1795",
    "description": "* ** 1795 , 24 октября** - Третий раздел Польши - Санкт-Петербург, Российская империя",
    "location": {
      "name": "Санкт-Петербург",
      "lat": 59.94,
      "lng": 30.31
    },
    "category": "Изменения границ"
  },
  {
    "title": "Персидский поход - дербент, персия (совр",
    "date": "1796",
    "description": "* ** 1796 ** - Персидский поход - Дербент, Персия (совр",
    "location": {
      "name": "Дербент",
      "lat": 56.253042514870955,
      "lng": 36.721903266042105
    },
    "category": "Культура и религия"
  },
  {
    "title": "Июня (5-6 июля по новому стилю)** -",
    "date": "1770",
    "description": "** 1770 , 25-26 июня (5-6 июля по новому стилю)** - **Чесменское сражение** - **Чесменская бухта, Эгейское море**",
    "location": {
      "name": "Чесменская бухта, Эгейское море",
      "lat": 45.11835769666489,
      "lng": 37.382345444264374
    },
    "category": "Войны и сражения"
  },
  {
    "title": "Решающая победа в русско-турецкой войне 1768-1774 гг",
    "date": "1768-1774 гг",
    "description": "Решающая победа в русско-турецкой войне 1768-1774 гг",
    "location": {
      "name": "Чесма",
      "lat": 62.02184783947677,
      "lng": 32.21099293917949
    },
    "category": "Основание городов"
  },
  {
    "title": "Занятие крыма русскими войсками** - **крымский полуостров**",
    "date": "1771",
    "description": "** 1771 ** - **Занятие Крыма русскими войсками** - **Крымский полуостров**",
    "location": {
      "name": "Крымский полуостров",
      "lat": 45.3,
      "lng": 34.2
    },
    "category": "Военные кампании"
  },
  {
    "title": "Августа** - **первый раздел польши** - **санкт-петербург**",
    "date": "1772",
    "description": "** 1772 , 5 августа** - **Первый раздел Польши** - **Санкт-Петербург**",
    "location": {
      "name": "Санкт-Петербург",
      "lat": 59.94,
      "lng": 30.31
    },
    "category": "Изменения границ"
  },
  {
    "title": "Кючук-кайнарджийский мирный договор",
    "date": "1774",
    "description": "** 1774 , 10 (21) июля** - **Кючук-Кайнарджийский мирный договор** - **Кючук-Кайнарджа (совр",
    "location": {
      "name": "Кючук-Кайнарджа",
      "lat": 52.552415477407415,
      "lng": 49.29126231105826
    },
    "category": "Дипломатические события"
  },
  {
    "title": "Окончание русско-турецкой войны 1768-1774 гг",
    "date": "1768-1774 гг",
    "description": "* Окончание русско-турецкой войны 1768-1774 гг",
    "location": {
      "name": "Кючук-Кайнарджи",
      "lat": 46.3605040919343,
      "lng": 39.281314304145
    },
    "category": "Основание городов"
  },
  {
    "title": "Ликвидация запорожской сечи** - **запорожская сечь (совр",
    "date": "1775",
    "description": "** 1775 ** - **Ликвидация Запорожской Сечи** - **Запорожская Сечь (совр",
    "location": {
      "name": "Запорожская Сечь",
      "lat": 49.21905041726514,
      "lng": 37.59105709620728
    },
    "category": "Войны и сражения"
  },
  {
    "title": "Марта** - **айналинская конвенция** - **айналы-кавак (близ",
    "date": "1779",
    "description": "** 1779 , 21 марта** - **Айналинская конвенция** - **Айналы-Кавак (близ Стамбула)**",
    "location": {
      "name": "Айналы-Кавак (близ Стамбула)",
      "lat": 41.01,
      "lng": 28.97
    },
    "category": "Революции и перевороты"
  },
  {
    "title": "Апреля** - **манифест о присоединении крыма к",
    "date": "1783",
    "description": "** 1783 , 8 (19) апреля** - **Манифест о присоединении Крыма к России** - **Санкт-Петербург**",
    "location": {
      "name": "Санкт-Петербург",
      "lat": 59.94,
      "lng": 30.31
    },
    "category": "Изменения границ"
  },
  {
    "title": "Георгиевский трактат** - **георгиевск**",
    "date": "1783",
    "description": "** 1783 ** - **Георгиевский трактат** - **Георгиевск**",
    "location": {
      "name": "Георгиевск",
      "lat": 57.39387674729757,
      "lng": 44.504610933353646
    },
    "category": "Становление государства"
  },
  {
    "title": "Лето** - **путешествие екатерины ii в крым**",
    "date": "1787",
    "description": "** 1787 , лето** - **Путешествие Екатерины II в Крым** - **Крым**",
    "location": {
      "name": "Крым",
      "lat": 45.3,
      "lng": 34.2
    },
    "category": "Научные достижения"
  },
  {
    "title": "Август** - **начало русско-турецкой войны 1787-1791 гг",
    "date": "1787",
    "description": "** 1787 , август** - **Начало русско-турецкой войны 1787-1791 гг",
    "location": {
      "name": "Кинбурнская коса",
      "lat": 53.79342390061639,
      "lng": 47.53961855397556
    },
    "category": "Восстания и бунты"
  },
  {
    "title": "Декабря** - **взятие очакова** - **очаков (совр",
    "date": "1788",
    "description": "** 1788 , 6 (17) декабря** - **Взятие Очакова** - **Очаков (совр",
    "location": {
      "name": "Очаков",
      "lat": 63.22384477540278,
      "lng": 44.386954011359876
    },
    "category": "Социальные реформы"
  },
  {
    "title": "Июля (1 августа)** - **сражение при фокшанах**",
    "date": "1789",
    "description": "** 1789 , 21 июля (1 августа)** - **Сражение при Фокшанах** - **Фокшаны (совр",
    "location": {
      "name": "Фокшаны",
      "lat": 63.585497725478746,
      "lng": 48.50578628240997
    },
    "category": "Войны и сражения"
  },
  {
    "title": "Сентября** - **сражение на реке рымник** -",
    "date": "1789",
    "description": "** 1789 , 11 (22) сентября** - **Сражение на реке Рымник** - **Река Рымник (совр",
    "location": {
      "name": "Рымник",
      "lat": 64.21281964741401,
      "lng": 43.46101518472393
    },
    "category": "Войны и сражения"
  },
  {
    "title": "Декабря** - **взятие измаила** - **измаил (совр",
    "date": "1790",
    "description": "** 1790 , 11 (22) декабря** - **Взятие Измаила** - **Измаил (совр",
    "location": {
      "name": "Измаил",
      "lat": 47.115823249850585,
      "lng": 43.706253088084324
    },
    "category": "Культура и религия"
  },
  {
    "title": "Ясский мирный договор",
    "date": "1791",
    "description": "** 1791 , 29 декабря (9 января 1792)** - **Ясский мирный договор** - **Яссы (совр",
    "location": {
      "name": "Яссы",
      "lat": 57.34014320099496,
      "lng": 46.437832877531534
    },
    "category": "Дипломатические события"
  },
  {
    "title": "Окончание русско-турецкой войны 1787-1791 гг",
    "date": "1787-1791 гг",
    "description": "* Окончание русско-турецкой войны 1787-1791 гг",
    "location": {
      "name": "Яссы",
      "lat": 61.75185354938209,
      "lng": 27.548390812098198
    },
    "category": "Революции и перевороты"
  },
  {
    "title": "Мая** - **тарговицкая конфедерация** - **тарговица (совр",
    "date": "1792",
    "description": "** 1792 , 27 мая** - **Тарговицкая конфедерация** - **Тарговица (совр",
    "location": {
      "name": "Тарговица",
      "lat": 63.02105647446908,
      "lng": 35.59983823674518
    },
    "category": "Восстания и бунты"
  },
  {
    "title": "Января** - **второй раздел польши** - **санкт-петербург**",
    "date": "1793",
    "description": "** 1793 , 23 января** - **Второй раздел Польши** - **Санкт-Петербург**",
    "location": {
      "name": "Санкт-Петербург",
      "lat": 59.94,
      "lng": 30.31
    },
    "category": "Изменения границ"
  },
  {
    "title": "Март-ноябрь** - **восстание костюшко** - **польша, литва",
    "date": "1794",
    "description": "** 1794 , март-ноябрь** - **Восстание Костюшко** - **Польша, Литва, Белоруссия**",
    "location": {
      "name": "Польша",
      "lat": 56.95166069393806,
      "lng": 51.05010946977906
    },
    "category": "Революции и перевороты"
  },
  {
    "title": "Октября** - **третий раздел польши** - **санкт-петербург**",
    "date": "1795",
    "description": "** 1795 , 24 октября** - **Третий раздел Польши** - **Санкт-Петербург**",
    "location": {
      "name": "Санкт-Петербург",
      "lat": 59.94,
      "lng": 30.31
    },
    "category": "Изменения границ"
  },
  {
    "title": "Персидский поход валериана зубова** - **закавказье, персия**",
    "date": "1796",
    "description": "** 1796 ** - **Персидский поход Валериана Зубова** - **Закавказье, Персия**",
    "location": {
      "name": "Закавказье, Персия",
      "lat": 43.0,
      "lng": 44.0
    },
    "category": "Основание городов"
  }
]