[
  {
    "title": "Вот максимально полный хронологический список важных исторических",
    "date": "1877-1878",
    "description": "Вот максимально полный хронологический список важных исторических событий, связанных с Русско-турецкой войной 1877-1878 годов, из истории России:",
    "location": {
      "name": "Плевна",
      "lat": 64.89811255408672,
      "lng": 29.914278228184266
    },
    "category": "Политические реформы"
  },
  {
    "title": "- крымская война - крымский полуостров",
    "date": "1853-1856",
    "description": "* ** 1853-1856 ** - Крымская война - Крымский полуостров, Черное море, Балканы",
    "location": {
      "name": "Севастополь",
      "lat": 44.62,
      "lng": 33.53
    },
    "category": "Войны и сражения"
  },
  {
    "title": "- парижский мирный договор - париж",
    "date": "1856",
    "description": "* ** 1856 ** - Парижский мирный договор - Париж",
    "location": {
      "name": "Париж",
      "lat": 48.86,
      "lng": 2.35
    },
    "category": "Дипломатические события"
  },
  {
    "title": "Е - 1870-е** - поддержка россией национально-освободительного",
    "date": "1860",
    "description": "* ** 1860 -е - 1870-е** - Поддержка Россией национально-освободительного движения на Балканах - Балканский полуостров",
    "location": {
      "name": "Балканский полуостров",
      "lat": 52.59064840131097,
      "lng": 32.52640322054338
    },
    "category": "Изменения границ"
  },
  {
    "title": "Е - 1870 -е** - поддержка россией",
    "date": "1870",
    "description": "* **1860-е - 1870 -е** - Поддержка Россией национально-освободительного движения на Балканах - Балканский полуостров",
    "location": {
      "name": "Балканский полуостров",
      "lat": 49.525836550473926,
      "lng": 50.29297628444756
    },
    "category": "Научные достижения"
  },
  {
    "title": "- отмена статей парижского мирного договора",
    "date": "1870",
    "description": "* ** 1870 ** - Отмена статей Парижского мирного договора, ограничивающих российский флот на Черном море - Лондон",
    "location": {
      "name": "Лондон",
      "lat": 51.51,
      "lng": -0.13
    },
    "category": "Дипломатические события"
  },
  {
    "title": "- герцеговинско-боснийское восстание - герцеговина",
    "date": "1875",
    "description": "* ** 1875 ** - Герцеговинско-боснийское восстание - Герцеговина, Босния",
    "location": {
      "name": "Герцеговина",
      "lat": 57.91897232049967,
      "lng": 42.88026773266499
    },
    "category": "Революции и перевороты"
  },
  {
    "title": "- апрельское восстание в болгарии - болгария",
    "date": "1876",
    "description": "* ** 1876 ** - Апрельское восстание в Болгарии - Болгария",
    "location": {
      "name": "Болгария",
      "lat": 60.23509510138314,
      "lng": 38.622942136752926
    },
    "category": "Революции и перевороты"
  },
  {
    "title": "- сербско-турецкая война - сербия",
    "date": "1876",
    "description": "* ** 1876 ** - Сербско-турецкая война - Сербия",
    "location": {
      "name": "Сербия",
      "lat": 53.25233776189208,
      "lng": 34.521037899308105
    },
    "category": "Войны и сражения"
  },
  {
    "title": "Рейхштадтское соглашение - рейхштадт (австро-венгрия",
    "date": "1876",
    "description": "* ** 1876 ** - Рейхштадтское соглашение - Рейхштадт (Австро-Венгрия)",
    "location": {
      "name": "Рейхштадт",
      "lat": 62.38754830585914,
      "lng": 44.92626464314669
    },
    "category": "Дипломатические события"
  },
  {
    "title": "Константинопольская конференция великих держав - константинополь",
    "date": "1876",
    "description": "* ** 1876 ** - Константинопольская конференция великих держав - Константинополь",
    "location": {
      "name": "Константинополь",
      "lat": 41.01,
      "lng": 28.97
    },
    "category": "Территориальные приобретения"
  },
  {
    "title": "Апреля (12 апреля по старому стилю)** -",
    "date": "1877",
    "description": "* ** 1877 , 24 апреля (12 апреля по старому стилю)** - Объявление Россией войны Османской империи - Санкт-Петербург",
    "location": {
      "name": "Санкт-Петербург",
      "lat": 59.94,
      "lng": 30.31
    },
    "category": "Экономические события"
  },
  {
    "title": "Июнь** - переправа русской армии через дунай",
    "date": "1877",
    "description": "* ** 1877 , июнь** - Переправа русской армии через Дунай - Зимница, Систово",
    "location": {
      "name": "Зимница, Систово",
      "lat": 50.74399302204703,
      "lng": 42.790763244507545
    },
    "category": "Дипломатические события"
  },
  {
    "title": "Июль-декабрь** - осада плевны - плевна (болгария",
    "date": "1877",
    "description": "* ** 1877 , июль-декабрь** - Осада Плевны - Плевна (Болгария)",
    "location": {
      "name": "Плевна",
      "lat": 50.38835959080881,
      "lng": 29.86890996721199
    },
    "category": "Войны и сражения"
  },
  {
    "title": "Декабря (28 ноября по старому стилю)** -",
    "date": "1877",
    "description": "* ** 1877 , 10 декабря (28 ноября по старому стилю)** - Капитуляция Плевны - Плевна (Болгария)",
    "location": {
      "name": "Плевна",
      "lat": 54.735292142480546,
      "lng": 28.391318833819025
    },
    "category": "Становление государства"
  },
  {
    "title": "Декабрь** - переход русской армии через балканские",
    "date": "1877",
    "description": "* ** 1877 , декабрь** - Переход русской армии через Балканские горы - Балканские горы",
    "location": {
      "name": "Балканские горы",
      "lat": 59.09639259833204,
      "lng": 34.28767859494172
    },
    "category": "Научные достижения"
  },
  {
    "title": "- битва при шейново - шейново",
    "date": "1878",
    "description": "* ** 1878 , январь** - Битва при Шейново - Шейново (Болгария)",
    "location": {
      "name": "Шейново",
      "lat": 64.07018926299783,
      "lng": 47.17108108551828
    },
    "category": "Войны и сражения"
  },
  {
    "title": "Январь** - занятие адрианополя - адрианополь (эдирне",
    "date": "1878",
    "description": "* ** 1878 , январь** - Занятие Адрианополя - Адрианополь (Эдирне)",
    "location": {
      "name": "Адрианополь (Эдирне)",
      "lat": 53.281145356632315,
      "lng": 36.12649045163065
    },
    "category": "Социальные реформы"
  },
  {
    "title": "Январь** - русская армия достигает сан-стефано -",
    "date": "1878",
    "description": "* ** 1878 , январь** - Русская армия достигает Сан-Стефано - Сан-Стефано (совр",
    "location": {
      "name": "Сан-Стефано",
      "lat": 64.56796841243792,
      "lng": 41.796833973912264
    },
    "category": "Революции и перевороты"
  },
  {
    "title": "- сан-стефанский мирный договор - сан-стефано",
    "date": "1878",
    "description": "* ** 1878 , 3 марта (19 февраля по старому стилю)** - Сан-Стефанский мирный договор - Сан-Стефано (совр",
    "location": {
      "name": "Сан-Стефано",
      "lat": 51.79880524130981,
      "lng": 46.1443481562138
    },
    "category": "Дипломатические события"
  },
  {
    "title": "Июнь-июль** - берлинский конгресс - берлин",
    "date": "1878",
    "description": "* ** 1878 , июнь-июль** - Берлинский конгресс - Берлин",
    "location": {
      "name": "Берлин",
      "lat": 52.52,
      "lng": 13.4
    },
    "category": "Изменения границ"
  },
  {
    "title": "Июля (1 июля по старому стилю)** -",
    "date": "1878",
    "description": "* ** 1878 , 13 июля (1 июля по старому стилю)** - Берлинский трактат - Берлин",
    "location": {
      "name": "Берлин",
      "lat": 52.52,
      "lng": 13.4
    },
    "category": "Становление государства"
  },
  {
    "title": "Присоединение южной бессарабии к россии - южная",
    "date": "1878",
    "description": "* ** 1878 ** - Присоединение Южной Бессарабии к России - Южная Бессарабия",
    "location": {
      "name": "Южная Бессарабия",
      "lat": 47.33752006650589,
      "lng": 36.94645285706224
    },
    "category": "Изменения границ"
  },
  {
    "title": "Присоединение карса, ардагана и батума к россии",
    "date": "1878",
    "description": "* ** 1878 ** - Присоединение Карса, Ардагана и Батума к России - Закавказье",
    "location": {
      "name": "Закавказье",
      "lat": 43.0,
      "lng": 44.0
    },
    "category": "Изменения границ"
  },
  {
    "title": "- создание княжества болгария - болгария",
    "date": "1879",
    "description": "* ** 1879 ** - Создание Княжества Болгария - Болгария",
    "location": {
      "name": "Болгария",
      "lat": 46.56493589378417,
      "lng": 48.51529863176862
    },
    "category": "Становление государства"
  },
  {
    "title": "Восточно-румелийский кризис - восточная румелия",
    "date": "1885",
    "description": "* ** 1885 ** - Восточно-Румелийский кризис - Восточная Румелия",
    "location": {
      "name": "Восточная Румелия",
      "lat": 45.5759752541301,
      "lng": 44.45820929828725
    },
    "category": "Экономические события"
  },
  {
    "title": "Объявление болгарией независимости - тырново",
    "date": "1908",
    "description": "* ** 1908 ** - Объявление Болгарией независимости - Тырново",
    "location": {
      "name": "Тырново",
      "lat": 62.78676788738145,
      "lng": 31.121980653384234
    },
    "category": "Становление государства"
  },
  {
    "title": "Подъем патриотических настроений в россии - российская",
    "date": "1877-1878",
    "description": "* ** 1877-1878 ** - Подъем патриотических настроений в России - Российская империя",
    "location": {
      "name": "Санкт-Петербург",
      "lat": 59.94,
      "lng": 30.31
    },
    "category": "Основание городов"
  },
  {
    "title": "Деятельность красного креста в россии - российская",
    "date": "1877-1878",
    "description": "* ** 1877-1878 ** - Деятельность Красного Креста в России - Российская империя",
    "location": {
      "name": "Российская империя",
      "lat": 54.11848411583751,
      "lng": 43.17112022295272
    },
    "category": "Становление государства"
  },
  {
    "title": "Финансовые трудности, связанные с войной - российская",
    "date": "1877-1878",
    "description": "* ** 1877-1878 ** - Финансовые трудности, связанные с войной - Российская империя",
    "location": {
      "name": "Санкт-Петербург",
      "lat": 59.94,
      "lng": 30.31
    },
    "category": "Экономические события"
  },
  {
    "title": "- создание",
    "date": "1879",
    "description": "* ** 1879 ** - Создание \"Земли и воли\" - Санкт-Петербург",
    "location": {
      "name": "Санкт-Петербург",
      "lat": 59.94,
      "lng": 30.31
    },
    "category": "Политические реформы"
  },
  {
    "title": "Убийство александра ii - санкт-петербург",
    "date": "1881",
    "description": "* ** 1881 ** - Убийство Александра II - Санкт-Петербург",
    "location": {
      "name": "Санкт-Петербург",
      "lat": 59.94,
      "lng": 30.31
    },
    "category": "Изменения границ"
  },
  {
    "title": "Этот список включает как крупные сражения и",
    "date": "1877-1878",
    "description": "Этот список включает как крупные сражения и дипломатические события, так и менее известные, но важные детали, связанные с Русско-турецкой войной 1877-1878 годов и ее последствиями для России",
    "location": {
      "name": "Балканы",
      "lat": 46.54842474259904,
      "lng": 27.032240913793416
    },
    "category": "Дипломатические события"
  },
  {
    "title": "Хорошо, вот продолжение списка исторических событий, связанных",
    "date": "1877-1878",
    "description": "Хорошо, вот продолжение списка исторических событий, связанных с Русско-турецкой войной 1877-1878 годов, с акцентом на менее известные, но важные детали:",
    "location": {
      "name": "Плевна",
      "lat": 62.54710834357883,
      "lng": 33.56636482124273
    },
    "category": "Территориальные приобретения"
  },
  {
    "title": "Июня** - **первый штурм плевны** - **плевна",
    "date": "1877",
    "description": "* ** 1877 , 27 июня** - **Первый штурм Плевны** - **Плевна, Болгария**",
    "location": {
      "name": "Плевна",
      "lat": 64.93133355537113,
      "lng": 43.688594968933685
    },
    "category": "Войны и сражения"
  },
  {
    "title": "Июля** - **второй штурм плевны** - **плевна",
    "date": "1877",
    "description": "* ** 1877 , 18 июля** - **Второй штурм Плевны** - **Плевна, Болгария**",
    "location": {
      "name": "Плевна, Болгария",
      "lat": 59.59537394269695,
      "lng": 34.16108748869091
    },
    "category": "Войны и сражения"
  },
  {
    "title": "Августа** - **бой при ловче** - **ловеч",
    "date": "1877",
    "description": "* ** 1877 , 31 августа** - **Бой при Ловче** - **Ловеч, Болгария**",
    "location": {
      "name": "Ловеч, Болгария",
      "lat": 61.617071874125486,
      "lng": 38.239479192162435
    },
    "category": "Войны и сражения"
  },
  {
    "title": "Сентября** - **третий штурм плевны** - **плевна",
    "date": "1877",
    "description": "* ** 1877 , 11-12 сентября** - **Третий штурм Плевны** - **Плевна, Болгария**",
    "location": {
      "name": "Плевна, Болгария",
      "lat": 60.004205612378314,
      "lng": 42.28749049112098
    },
    "category": "Войны и сражения"
  },
  {
    "title": "Ноября** - **капитуляция плевны** - **плевна, болгария**",
    "date": "1877",
    "description": "* ** 1877 , 28 ноября** - **Капитуляция Плевны** - **Плевна, Болгария**",
    "location": {
      "name": "Плевна, Болгария",
      "lat": 48.936593122935804,
      "lng": 37.89532469616957
    },
    "category": "Дипломатические события"
  },
  {
    "title": "Декабря** - **взятие телиша** - **телиш, болгария**",
    "date": "1877",
    "description": "* ** 1877 , 19 декабря** - **Взятие Телиша** - **Телиш, Болгария**",
    "location": {
      "name": "Телиш, Болгария",
      "lat": 61.409482737957035,
      "lng": 48.661188323220244
    },
    "category": "Становление государства"
  },
  {
    "title": "Декабря** - **взятие софии** - **софия, болгария**",
    "date": "1877",
    "description": "* ** 1877 , 31 декабря** - **Взятие Софии** - **София, Болгария**",
    "location": {
      "name": "София, Болгария",
      "lat": 49.881807497917244,
      "lng": 38.872339921131385
    },
    "category": "Восстания и бунты"
  },
  {
    "title": "Января** - **шипкинско-шейновское сражение** - **шипкинский перевал",
    "date": "1878",
    "description": "* ** 1878 , 3-5 января** - **Шипкинско-Шейновское сражение** - **Шипкинский перевал, Шейново, Болгария**",
    "location": {
      "name": "Шипкинский перевал, Шейново, Болгария",
      "lat": 61.86467100871994,
      "lng": 40.17802951818837
    },
    "category": "Войны и сражения"
  },
  {
    "title": "Января** - **взятие адрианополя** - **эдирне, турция**",
    "date": "1878",
    "description": "* ** 1878 , 8 января** - **Взятие Адрианополя** - **Эдирне, Турция**",
    "location": {
      "name": "Эдирне",
      "lat": 48.954052963552414,
      "lng": 49.20884575281977
    },
    "category": "Войны и сражения"
  },
  {
    "title": "Января** - **бой у филиппополя (пловдива)** -",
    "date": "1878",
    "description": "* ** 1878 , 20 января** - **Бой у Филиппополя (Пловдива)** - **Пловдив, Болгария**",
    "location": {
      "name": "Пловдив, Болгария",
      "lat": 54.86405073838422,
      "lng": 41.21364807141275
    },
    "category": "Войны и сражения"
  },
  {
    "title": "Подписание сан-стефанского мирного договора",
    "date": "1878",
    "description": "* ** 1878 , 3 марта** - **Подписание Сан-Стефанского мирного договора** - **Сан-Стефано (Ешилькёй), Турция**",
    "location": {
      "name": "Сан-Стефано (Ешилькёй), Турция",
      "lat": 58.32993768932101,
      "lng": 46.438549054930874
    },
    "category": "Дипломатические события"
  },
  {
    "title": "Июня - 13 июля** - **берлинский конгресс**",
    "date": "1878",
    "description": "* ** 1878 , 13 июня - 13 июля** - **Берлинский конгресс** - **Берлин, Германия**",
    "location": {
      "name": "Берлин",
      "lat": 52.52,
      "lng": 13.4
    },
    "category": "Военные кампании"
  },
  {
    "title": "Июля** - **подписание берлинского трактата** - **берлин",
    "date": "1878",
    "description": "* ** 1878 , 13 июля** - **Подписание Берлинского трактата** - **Берлин, Германия**",
    "location": {
      "name": "Берлин",
      "lat": 52.52,
      "lng": 13.4
    },
    "category": "Восстания и бунты"
  },
  {
    "title": "Октябрь** - **оккупация боснии и герцеговины австро-венгрией**",
    "date": "1878",
    "description": "* ** 1878 , Октябрь** - **Оккупация Боснии и Герцеговины Австро-Венгрией** - **Босния и Герцеговина**",
    "location": {
      "name": "Босния и Герцеговина",
      "lat": 46.17714591831631,
      "lng": 50.42638414069734
    },
    "category": "Военные кампании"
  },
  {
    "title": "Апреля** - **принятие тырновской конституции** - **тырново",
    "date": "1879",
    "description": "* ** 1879 , 17 апреля** - **Принятие Тырновской конституции** - **Тырново, Болгария**",
    "location": {
      "name": "Тырново, Болгария",
      "lat": 46.697450823720445,
      "lng": 48.699972847144444
    },
    "category": "Политические реформы"
  }
]