[
  {
    "title": "Год ** - **варяги берут дань с",
    "date": "859 год",
    "description": "* ** 859 год ** - **Варяги берут дань с чуди, словен, мери и веси** - Новгородская земля",
    "location": {
      "name": "Новгородская земля",
      "lat": 58.52,
      "lng": 31.27
    },
    "category": "Экономические события"
  },
  {
    "title": "Год ** - **изгнание варягов и междоусобица**",
    "date": "862 год",
    "description": "* ** 862 год ** - **Изгнание варягов и междоусобица** - Новгород",
    "location": {
      "name": "Новгород",
      "lat": 58.52,
      "lng": 31.27
    },
    "category": "Изменения границ"
  },
  {
    "title": "Год ** - **призвание варягов (рюрика, синеуса",
    "date": "862 год",
    "description": "* ** 862 год ** - **Призвание варягов (Рюрика, Синеуса и Трувора)** - Новгород",
    "location": {
      "name": "Новгород",
      "lat": 58.52,
      "lng": 31.27
    },
    "category": "Войны и сражения"
  },
  {
    "title": "Год ** - **рюрик садится в ладоге**",
    "date": "862 год",
    "description": "* ** 862 год ** - **Рюрик садится в Ладоге** - Ладога",
    "location": {
      "name": "Ладога",
      "lat": 53.017405190560595,
      "lng": 42.84597370632808
    },
    "category": "Изменения границ"
  },
  {
    "title": "Год ** - **восстание вадима храброго** -",
    "date": "864 год",
    "description": "* ** 864 год ** - **Восстание Вадима Храброго** - Новгород",
    "location": {
      "name": "Новгород",
      "lat": 58.52,
      "lng": 31.27
    },
    "category": "Революции и перевороты"
  },
  {
    "title": "Е годы** - **походы русов на константинополь**",
    "date": "860",
    "description": "* ** 860 -е годы** - **Походы русов на Константинополь** - Константинополь (Царьград)",
    "location": {
      "name": "Константинополь",
      "lat": 41.01,
      "lng": 28.97
    },
    "category": "Становление государства"
  },
  {
    "title": "Год ** - **смерть рюрика** - новгород",
    "date": "879 год",
    "description": "* ** 879 год ** - **Смерть Рюрика** - Новгород",
    "location": {
      "name": "Новгород",
      "lat": 58.52,
      "lng": 31.27
    },
    "category": "Территориальные приобретения"
  },
  {
    "title": "Год ** - **поход олега на киев**",
    "date": "882 год",
    "description": "* ** 882 год ** - **Поход Олега на Киев** - Киев",
    "location": {
      "name": "Киев",
      "lat": 50.45,
      "lng": 30.52
    },
    "category": "Территориальные приобретения"
  },
  {
    "title": "Год ** - **объединение новгорода и киева**",
    "date": "882 год",
    "description": "* ** 882 год ** - **Объединение Новгорода и Киева** - Киев",
    "location": {
      "name": "Киев",
      "lat": 50.45,
      "lng": 30.52
    },
    "category": "Становление государства"
  },
  {
    "title": "Годы** - **покорение олегом древлян, северян и",
    "date": "883",
    "description": "* ** 883 -885 годы** - **Покорение Олегом древлян, северян и радимичей** - Восточная Европа",
    "location": {
      "name": "Восточная Европа",
      "lat": 50.0,
      "lng": 10.0
    },
    "category": "Научные достижения"
  },
  {
    "title": "Год ** - **поход олега на константинополь**",
    "date": "907 год",
    "description": "* ** 907 год ** - **Поход Олега на Константинополь** - Константинополь (Царьград)",
    "location": {
      "name": "Константинополь",
      "lat": 41.01,
      "lng": 28.97
    },
    "category": "Дипломатические события"
  },
  {
    "title": "Заключение торгового договора между русью и византией",
    "date": "911 год",
    "description": "* ** 911 год ** - **Заключение торгового договора между Русью и Византией** - Константинополь (Царьград)",
    "location": {
      "name": "Константинополь",
      "lat": 41.01,
      "lng": 28.97
    },
    "category": "Экономические события"
  },
  {
    "title": "Год ** - **смерть олега** - киев",
    "date": "912 год",
    "description": "* ** 912 год ** - **Смерть Олега** - Киев",
    "location": {
      "name": "Киев",
      "lat": 50.45,
      "lng": 30.52
    },
    "category": "Социальные реформы"
  },
  {
    "title": "Год ** - **начало правления игоря** -",
    "date": "912 год",
    "description": "* ** 912 год ** - **Начало правления Игоря** - Киев",
    "location": {
      "name": "Киев",
      "lat": 50.45,
      "lng": 30.52
    },
    "category": "Восстания и бунты"
  },
  {
    "title": "Год ** - **первое столкновение с печенегами**",
    "date": "915 год",
    "description": "* ** 915 год ** - **Первое столкновение с печенегами** - Южные границы Руси",
    "location": {
      "name": "Южные границы Руси",
      "lat": 48.742632382008814,
      "lng": 47.17027482645396
    },
    "category": "Изменения границ"
  },
  {
    "title": "Год ** - **поход игоря на константинополь**",
    "date": "941 год",
    "description": "* ** 941 год ** - **Поход Игоря на Константинополь** - Константинополь (Царьград)",
    "location": {
      "name": "Константинополь",
      "lat": 41.01,
      "lng": 28.97
    },
    "category": "Революции и перевороты"
  },
  {
    "title": "Заключение нового торгового договора между русью и византией",
    "date": "944 год",
    "description": "* ** 944 год ** - **Заключение нового торгового договора между Русью и Византией** - Константинополь (Царьград)",
    "location": {
      "name": "Константинополь",
      "lat": 41.01,
      "lng": 28.97
    },
    "category": "Экономические события"
  },
  {
    "title": "Подписание нового договора",
    "date": "911",
    "description": "* Подписание нового договора, менее выгодного для Руси, чем договор 911 года",
    "location": {
      "name": "Киев",
      "lat": 50.45,
      "lng": 30.52
    },
    "category": "Дипломатические события"
  },
  {
    "title": "Год ** - **убийство игоря древлянами** -",
    "date": "945 год",
    "description": "* ** 945 год ** - **Убийство Игоря древлянами** - Древлянская земля",
    "location": {
      "name": "Древлянская земля",
      "lat": 56.11082782185564,
      "lng": 27.788210154591763
    },
    "category": "Основание городов"
  },
  {
    "title": "Годы** - **правление княгини ольги** - киев",
    "date": "945",
    "description": "* ** 945 -964 годы** - **Правление княгини Ольги** - Киев",
    "location": {
      "name": "Киев",
      "lat": 50.45,
      "lng": 30.52
    },
    "category": "Территориальные приобретения"
  },
  {
    "title": "Год ** - **реформы княгини ольги (установление",
    "date": "947 год",
    "description": "* ** 947 год ** - **Реформы княгини Ольги (установление \"уроков\" и \"погостов\")** - Киевская земля",
    "location": {
      "name": "Киевская земля",
      "lat": 50.45,
      "lng": 30.52
    },
    "category": "Социальные реформы"
  },
  {
    "title": "Год ** - **начало правления святослава** -",
    "date": "964 год",
    "description": "* ** 964 год ** - **Начало правления Святослава** - Киев",
    "location": {
      "name": "Киев",
      "lat": 50.45,
      "lng": 30.52
    },
    "category": "Основание городов"
  },
  {
    "title": "Год ** - **первое упоминание о народе",
    "date": "839 год",
    "description": "* ** 839 год ** - **Первое упоминание о народе \"рос\" в Бертинских анналах** - **Ингельхайм, Франкская империя**",
    "location": {
      "name": "Ингельхайм",
      "lat": 63.46304323273577,
      "lng": 39.60775117600831
    },
    "category": "Научные достижения"
  },
  {
    "title": "Е годы** - **походы русов на каспий**",
    "date": "850",
    "description": "* ** 850 -е годы** - **Походы русов на Каспий** - **Каспийское море, прикаспийские области**",
    "location": {
      "name": "Каспийское море",
      "lat": 42.0,
      "lng": 50.0
    },
    "category": "Войны и сражения"
  },
  {
    "title": "Год ** - **поход русов на константинополь**",
    "date": "860 год",
    "description": "* ** 860 год ** - **Поход русов на Константинополь** - **Константинополь (совр",
    "location": {
      "name": "Константинополь",
      "lat": 41.01,
      "lng": 28.97
    },
    "category": "Военные кампании"
  },
  {
    "title": "Год (предположительно)** - **изгнание варягов из новгорода**",
    "date": "862 год",
    "description": "* ** 862 год (предположительно)** - **Изгнание варягов из Новгорода** - **Новгород**",
    "location": {
      "name": "Новгород",
      "lat": 58.52,
      "lng": 31.27
    },
    "category": "Экономические события"
  },
  {
    "title": "Е годы** - **деятельность кирилла и мефодия",
    "date": "860",
    "description": "* ** 860 -е годы** - **Деятельность Кирилла и Мефодия в Хазарии** - **Хазария, район Херсонеса**",
    "location": {
      "name": "Хазария, район Херсонеса",
      "lat": 60.16509327240463,
      "lng": 37.518907880758995
    },
    "category": "Дипломатические события"
  },
  {
    "title": "Е годы** - **укрепление позиций варягов в",
    "date": "870",
    "description": "* ** 870 -е годы** - **Укрепление позиций варягов в Ладоге** - **Ладога (совр",
    "location": {
      "name": "Ладога",
      "lat": 48.622454990255775,
      "lng": 43.10805056083396
    },
    "category": "Научные достижения"
  },
  {
    "title": "Год ** - **убийство аскольда и дира**",
    "date": "882 год",
    "description": "* ** 882 год ** - **Убийство Аскольда и Дира** - **Киев**",
    "location": {
      "name": "Киев",
      "lat": 50.45,
      "lng": 30.52
    },
    "category": "Революции и перевороты"
  },
  {
    "title": "Заключение договора руси с византией",
    "date": "911 год",
    "description": "* ** 911 год ** - **Заключение договора Руси с Византией** - **Константинополь**",
    "location": {
      "name": "Константинополь",
      "lat": 41.01,
      "lng": 28.97
    },
    "category": "Дипломатические события"
  },
  {
    "title": "Год ** - **первое столкновение руси с",
    "date": "915 год",
    "description": "* ** 915 год ** - **Первое столкновение Руси с печенегами** - **Окрестности Киева**",
    "location": {
      "name": "Окрестности Киева",
      "lat": 50.45,
      "lng": 30.52
    },
    "category": "Восстания и бунты"
  },
  {
    "title": "Е годы** - **походы игоря на печенегов**",
    "date": "920",
    "description": "* ** 920 -е годы** - **Походы Игоря на печенегов** - **Южные рубежи Руси**",
    "location": {
      "name": "Южные рубежи Руси",
      "lat": 53.119861965911596,
      "lng": 34.976440415189565
    },
    "category": "Войны и сражения"
  },
  {
    "title": "Заключение нового договора руси с византией",
    "date": "944 год",
    "description": "* ** 944 год ** - **Заключение нового договора Руси с Византией** - **Константинополь**",
    "location": {
      "name": "Константинополь",
      "lat": 41.01,
      "lng": 28.97
    },
    "category": "Дипломатические события"
  },
  {
    "title": "Новый договор между русью и византией",
    "date": "911",
    "description": "* Новый договор между Русью и Византией, менее выгодный для Руси, чем договор 911 года",
    "location": {
      "name": "Киев",
      "lat": 50.45,
      "lng": 30.52
    },
    "category": "Дипломатические события"
  },
  {
    "title": "Год ** - **убийство князя игоря древлянами**",
    "date": "945 год",
    "description": "* ** 945 год ** - **Убийство князя Игоря древлянами** - **Окрестности Искоростеня (совр",
    "location": {
      "name": "Окрестности Искоростеня",
      "lat": 47.34225704799469,
      "lng": 27.95354947345462
    },
    "category": "Дипломатические события"
  },
  {
    "title": "Годы** - **месть княгини ольги древлянам** -",
    "date": "945",
    "description": "* ** 945 -946 годы** - **Месть княгини Ольги древлянам** - **Древлянская земля (совр",
    "location": {
      "name": "Древлянская земля",
      "lat": 46.61207205027416,
      "lng": 35.91778605386643
    },
    "category": "Революции и перевороты"
  },
  {
    "title": "Годы** - **походы святослава на хазар и",
    "date": "964",
    "description": "* ** 964 -966 годы** - **Походы Святослава на хазар и вятичей** - **Волжская Булгария, Хазария, земли вятичей**",
    "location": {
      "name": "Волжская Булгария",
      "lat": 47.53865458630286,
      "lng": 30.436766217503028
    },
    "category": "Научные достижения"
  },
  {
    "title": "Годы** - **русско-византийская война** - **балканы, доростол",
    "date": "970",
    "description": "* ** 970 -971 годы** - **Русско-византийская война** - **Балканы, Доростол (совр",
    "location": {
      "name": "Доростол",
      "lat": 54.01678584753401,
      "lng": 30.398485704602933
    },
    "category": "Войны и сражения"
  }
]