[
  {
    "title": "Год ** - **убийство ярополка святославича** -",
    "date": "978 год",
    "description": "* ** 978 год ** - **Убийство Ярополка Святославича** - **Киев**",
    "location": {
      "name": "Киев",
      "lat": 50.45,
      "lng": 30.52
    },
    "category": "Территориальные приобретения"
  },
  {
    "title": "Языческая реформа владимира",
    "date": "980 год",
    "description": "* ** 980 год ** - **Языческая реформа Владимира** - **Киев**",
    "location": {
      "name": "Киев",
      "lat": 50.45,
      "lng": 30.52
    },
    "category": "Социальные реформы"
  },
  {
    "title": "Год ** - **поход на ятвягов** -",
    "date": "983 год",
    "description": "* ** 983 год ** - **Поход на ятвягов** - **Ятвягия (территория современной Польши и Литвы)**",
    "location": {
      "name": "Ятвягия",
      "lat": 50.05978998254718,
      "lng": 51.60913436169022
    },
    "category": "Изменения границ"
  },
  {
    "title": "Год ** - **поход на радимичей** -",
    "date": "984 год",
    "description": "* ** 984 год ** - **Поход на радимичей** - **Река Пищана (бассейн Днепра)**",
    "location": {
      "name": "Река Пищана",
      "lat": 52.06842428713161,
      "lng": 40.747748110784315
    },
    "category": "Экономические события"
  },
  {
    "title": "Год ** - **поход на булгар и",
    "date": "985 год",
    "description": "* ** 985 год ** - **Поход на булгар и хазар** - **Волга, Каспийское море**",
    "location": {
      "name": "Волга, Каспийское море",
      "lat": 42.0,
      "lng": 50.0
    },
    "category": "Становление государства"
  },
  {
    "title": "Год ** - **первое знакомство с исламом**",
    "date": "986 год",
    "description": "* ** 986 год ** - **Первое знакомство с исламом** - **Киев**",
    "location": {
      "name": "Киев",
      "lat": 50.45,
      "lng": 30.52
    },
    "category": "Территориальные приобретения"
  },
  {
    "title": "Год ** - **прибытие хазарских евреев** -",
    "date": "986 год",
    "description": "* ** 986 год ** - **Прибытие хазарских евреев** - **Киев**",
    "location": {
      "name": "Киев",
      "lat": 50.45,
      "lng": 30.52
    },
    "category": "Основание городов"
  },
  {
    "title": "Год ** - **прибытие послов от папы",
    "date": "987 год",
    "description": "* ** 987 год ** - **Прибытие послов от папы римского** - **Киев**",
    "location": {
      "name": "Киев",
      "lat": 50.45,
      "lng": 30.52
    },
    "category": "Дипломатические события"
  },
  {
    "title": "Год ** - **прибытие мусульман из хорезма**",
    "date": "987 год",
    "description": "* ** 987 год ** - **Прибытие мусульман из Хорезма** - **Киев**",
    "location": {
      "name": "Киев",
      "lat": 50.45,
      "lng": 30.52
    },
    "category": "Социальные реформы"
  },
  {
    "title": "Год ** - **восстание варды фоки** -",
    "date": "987 год",
    "description": "* ** 987 год ** - **Восстание Варды Фоки** - **Византия**",
    "location": {
      "name": "Византия",
      "lat": 47.7631688117062,
      "lng": 51.91959174072859
    },
    "category": "Революции и перевороты"
  },
  {
    "title": "Военная помощь владимиру византии",
    "date": "988 год",
    "description": "* ** 988 год ** - **Военная помощь Владимиру Византии** - **Византия**",
    "location": {
      "name": "Киев",
      "lat": 50.45,
      "lng": 30.52
    },
    "category": "Войны и сражения"
  },
  {
    "title": "Год ** - **взятие корсуни (херсонеса)** -",
    "date": "988 год",
    "description": "* ** 988 год ** - **Взятие Корсуни (Херсонеса)** - **Корсунь (Херсонес, Крым)**",
    "location": {
      "name": "Корсунь (Херсонес, Крым)",
      "lat": 45.3,
      "lng": 34.2
    },
    "category": "Научные достижения"
  },
  {
    "title": "Крещение владимира в корсуни",
    "date": "988 год",
    "description": "* ** 988 год ** - **Крещение Владимира в Корсуни** - **Корсунь (Херсонес, Крым)**",
    "location": {
      "name": "Корсунь (Херсонес, Крым)",
      "lat": 45.3,
      "lng": 34.2
    },
    "category": "Дипломатические события"
  },
  {
    "title": "Год ** - **прибытие царевны анны в",
    "date": "988 год",
    "description": "* ** 988 год ** - **Прибытие царевны Анны в Корсунь** - **Корсунь (Херсонес, Крым)**",
    "location": {
      "name": "Корсунь (Херсонес, Крым)",
      "lat": 45.3,
      "lng": 34.2
    },
    "category": "Изменения границ"
  },
  {
    "title": "Возвращение владимира в киев",
    "date": "988 год",
    "description": "* ** 988 год ** - **Возвращение Владимира в Киев** - **Киев**",
    "location": {
      "name": "Киев",
      "lat": 50.45,
      "lng": 30.52
    },
    "category": "Дипломатические события"
  },
  {
    "title": "Год ** - **разрушение языческих идолов в",
    "date": "989 год",
    "description": "* ** 989 год ** - **Разрушение языческих идолов в Киеве** - **Киев**",
    "location": {
      "name": "Киев",
      "lat": 50.45,
      "lng": 30.52
    },
    "category": "Социальные реформы"
  },
  {
    "title": "Е годы** - **строительство десятинной церкви** -",
    "date": "990",
    "description": "* ** 990 -е годы** - **Строительство Десятинной церкви** - **Киев**",
    "location": {
      "name": "Киев",
      "lat": 50.45,
      "lng": 30.52
    },
    "category": "Революции и перевороты"
  },
  {
    "title": "Год ** - **основание белгорода киевского** -",
    "date": "991 год",
    "description": "* ** 991 год ** - **Основание Белгорода Киевского** - **Белгород-Киевский (ныне село Белогородка, Киевская область)**",
    "location": {
      "name": "Белогородка, Киевская область",
      "lat": 50.45,
      "lng": 30.52
    },
    "category": "Становление государства"
  },
  {
    "title": "Год ** - **поход на хорватов** -",
    "date": "992 год",
    "description": "* ** 992 год ** - **Поход на хорватов** - **Карпаты**",
    "location": {
      "name": "Карпаты",
      "lat": 55.794041171419515,
      "lng": 39.28751225125958
    },
    "category": "Экономические события"
  },
  {
    "title": "Смерть владимира святославича",
    "date": "1015 год",
    "description": "* ** 1015 год ** - **Смерть Владимира Святославича** - **Берестово (под Киевом)**",
    "location": {
      "name": "Берестово",
      "lat": 51.41810663541258,
      "lng": 50.47923908999523
    },
    "category": "Дипломатические события"
  }
]