[
  {
    "title": "Год ** - любечский съезд князей -",
    "date": "1097 год",
    "description": "* ** 1097 год ** - Любечский съезд князей - Любеч (близ Чернигова)",
    "location": {
      "name": "Любеч",
      "lat": 45.34378904803415,
      "lng": 42.53910488925368
    },
    "category": "Экономические события"
  },
  {
    "title": "- восстание в киеве - киев",
    "date": "1113 год",
    "description": "* ** 1113 год ** - Восстание в Киеве - Киев",
    "location": {
      "name": "Киев",
      "lat": 50.45,
      "lng": 30.52
    },
    "category": "Революции и перевороты"
  },
  {
    "title": "- княжение владимира мономаха в киеве - киев",
    "date": "1113-1125",
    "description": "* ** 1113-1125 годы** - Княжение Владимира Мономаха в Киеве - Киев",
    "location": {
      "name": "Киев",
      "lat": 50.45,
      "lng": 30.52
    },
    "category": "Дипломатические события"
  },
  {
    "title": "Годы** - княжение мстислава великого в киеве",
    "date": "1125-1132",
    "description": "* ** 1125-1132 годы** - Княжение Мстислава Великого в Киеве - Киев",
    "location": {
      "name": "Киев",
      "lat": 50.45,
      "lng": 30.52
    },
    "category": "Войны и сражения"
  },
  {
    "title": "- смерть мстислава великого и окончательный распад древнерусского государства - киев",
    "date": "1132 год",
    "description": "* ** 1132 год ** - Смерть Мстислава Великого и окончательный распад Древнерусского государства - Киев",
    "location": {
      "name": "Киев",
      "lat": 50.45,
      "lng": 30.52
    },
    "category": "Становление государства"
  },
  {
    "title": "Год ** - изгнание всеволода мстиславича из",
    "date": "1136 год",
    "description": "* ** 1136 год ** - Изгнание Всеволода Мстиславича из Новгорода - Новгород",
    "location": {
      "name": "Новгород",
      "lat": 58.52,
      "lng": 31.27
    },
    "category": "Социальные реформы"
  },
  {
    "title": "Годы** - междоусобная борьба за киев -",
    "date": "1146-1154",
    "description": "* ** 1146-1154 годы** - Междоусобная борьба за Киев - Киев",
    "location": {
      "name": "Киев",
      "lat": 50.45,
      "lng": 30.52
    },
    "category": "Научные достижения"
  },
  {
    "title": "Год ** - первое упоминание о москве",
    "date": "1147 год",
    "description": "* ** 1147 год ** - Первое упоминание о Москве в летописи - Москва",
    "location": {
      "name": "Москва",
      "lat": 55.75,
      "lng": 37.62
    },
    "category": "Становление государства"
  },
  {
    "title": "Годы** - княжение юрия долгорукого в киеве",
    "date": "1155-1157",
    "description": "* ** 1155-1157 годы** - Княжение Юрия Долгорукого в Киеве - Киев",
    "location": {
      "name": "Киев",
      "lat": 50.45,
      "lng": 30.52
    },
    "category": "Военные кампании"
  },
  {
    "title": "Год ** - взятие киева войсками андрея",
    "date": "1169 год",
    "description": "* ** 1169 год ** - Взятие Киева войсками Андрея Боголюбского - Киев",
    "location": {
      "name": "Киев",
      "lat": 50.45,
      "lng": 30.52
    },
    "category": "Экономические события"
  },
  {
    "title": "- княжение андрея боголюбского во владимире - владимир",
    "date": "1169-1174",
    "description": "* ** 1169-1174 годы** - Княжение Андрея Боголюбского во Владимире - Владимир",
    "location": {
      "name": "Владимир",
      "lat": 56.13,
      "lng": 40.42
    },
    "category": "Дипломатические события"
  },
  {
    "title": "Близ владимира",
    "date": "1174 год",
    "description": "* ** 1174 год ** - Убийство Андрея Боголюбского - Боголюбово (близ Владимира)",
    "location": {
      "name": "Боголюбово",
      "lat": 60.208701452658815,
      "lng": 45.58154357410548
    },
    "category": "Дипломатические события"
  },
  {
    "title": "- княжение всеволода большое гнездо во владимире - владимир",
    "date": "1176-1212",
    "description": "* ** 1176-1212 годы** - Княжение Всеволода Большое Гнездо во Владимире - Владимир",
    "location": {
      "name": "Владимир",
      "lat": 56.13,
      "lng": 40.42
    },
    "category": "Дипломатические события"
  },
  {
    "title": "- битва на реке друть - река друть",
    "date": "1180 год",
    "description": "* ** 1180 год ** - Битва на реке Друть - Река Друть (между Полоцком и Смоленском)",
    "location": {
      "name": "Река Друть (между Полоцком и Смоленском)",
      "lat": 54.78,
      "lng": 32.05
    },
    "category": "Войны и сражения"
  },
  {
    "title": "Год ** - неудачный поход игоря святославича",
    "date": "1185 год",
    "description": "* ** 1185 год ** - Неудачный поход Игоря Святославича против половцев - Южная Русь",
    "location": {
      "name": "Южная Русь",
      "lat": 60.823424267926605,
      "lng": 45.95890536928765
    },
    "category": "Изменения границ"
  },
  {
    "title": "Год ** - образование галицко-волынского княжества -",
    "date": "1199 год",
    "description": "* ** 1199 год ** - Образование Галицко-Волынского княжества - Галиция и Волынь",
    "location": {
      "name": "Галиция и Волынь",
      "lat": 56.88844362714134,
      "lng": 36.64298067858108
    },
    "category": "Становление государства"
  },
  {
    "title": "- основание ордена меченосцев - рига",
    "date": "1202 год",
    "description": "* ** 1202 год ** - Основание Ордена меченосцев - Рига",
    "location": {
      "name": "Рига",
      "lat": 56.95,
      "lng": 24.11
    },
    "category": "Научные достижения"
  },
  {
    "title": "Годы** - правление чингисхана в монгольской империи",
    "date": "1206-1227",
    "description": "* ** 1206-1227 годы** - Правление Чингисхана в Монгольской империи - Монголия",
    "location": {
      "name": "Монголия",
      "lat": 56.83157206113525,
      "lng": 49.91896786335562
    },
    "category": "Территориальные приобретения"
  },
  {
    "title": "- липицкая битва - река липица",
    "date": "1216 год",
    "description": "* ** 1216 год ** - Липицкая битва - Река Липица (близ Юрьева-Польского)",
    "location": {
      "name": "Река Липица (близ Юрьева-Польского)",
      "lat": 61.99528644679261,
      "lng": 29.52654469381276
    },
    "category": "Войны и сражения"
  },
  {
    "title": "- основание нижнего новгорода - нижний новгород",
    "date": "1221 год",
    "description": "* ** 1221 год ** - Основание Нижнего Новгорода - Нижний Новгород",
    "location": {
      "name": "Нижний Новгород",
      "lat": 56.32,
      "lng": 44.0
    },
    "category": "Основание городов"
  },
  {
    "title": "- битва на реке калке - река калка",
    "date": "1223 год",
    "description": "* ** 1223 год , 31 мая** - Битва на реке Калке - Река Калка (близ Мариуполя)",
    "location": {
      "name": "Река Калка (близ Мариуполя)",
      "lat": 57.28527216846024,
      "lng": 38.68186494417192
    },
    "category": "Войны и сражения"
  },
  {
    "title": "Годы** - разорение северо-восточной руси батыем -",
    "date": "1237-1238",
    "description": "* ** 1237-1238 годы** - Разорение Северо-Восточной Руси Батыем - Северо-Восточная Русь",
    "location": {
      "name": "Северо-Восточная Русь",
      "lat": 64.29574201512033,
      "lng": 28.076431588428303
    },
    "category": "Военные кампании"
  },
  {
    "title": "- битва на реке сить - река сить",
    "date": "1238 год",
    "description": "* ** 1238 год , 4 марта** - Битва на реке Сить - Река Сить (Ярославская область)",
    "location": {
      "name": "Река Сить (Ярославская область)",
      "lat": 50.77819015465308,
      "lng": 33.565868956844724
    },
    "category": "Войны и сражения"
  },
  {
    "title": "Год ** - оборона козельска - козельск",
    "date": "1238 год",
    "description": "* ** 1238 год ** - Оборона Козельска - Козельск",
    "location": {
      "name": "Козельск",
      "lat": 54.79179734991391,
      "lng": 28.150286650204123
    },
    "category": "Войны и сражения"
  },
  {
    "title": "Год ** - взятие киева монголами -",
    "date": "1240 год",
    "description": "* ** 1240 год ** - Взятие Киева монголами - Киев",
    "location": {
      "name": "Киев",
      "lat": 50.45,
      "lng": 30.52
    },
    "category": "Становление государства"
  },
  {
    "title": "- невская битва - река нева",
    "date": "1240 год",
    "description": "* ** 1240 год , 15 июля** - Невская битва - Река Нева",
    "location": {
      "name": "Устье реки Ижоры",
      "lat": 57.50636526920148,
      "lng": 48.760644681067035
    },
    "category": "Войны и сражения"
  },
  {
    "title": "Год , 5 апреля** - ледовое побоище",
    "date": "1242 год",
    "description": "* ** 1242 год , 5 апреля** - Ледовое побоище - Чудское озеро",
    "location": {
      "name": "Чудское озеро",
      "lat": 57.17050652022497,
      "lng": 28.199357772481367
    },
    "category": "Военные кампании"
  },
  {
    "title": "Год ** - образование золотой орды -",
    "date": "1243 год",
    "description": "* ** 1243 год ** - Образование Золотой Орды - Нижнее Поволжье",
    "location": {
      "name": "Нижнее Поволжье",
      "lat": 61.938878013286484,
      "lng": 51.03681067167182
    },
    "category": "Становление государства"
  },
  {
    "title": "Год ** - гибель михаила всеволодовича черниговского",
    "date": "1246 год",
    "description": "* ** 1246 год ** - Гибель Михаила Всеволодовича Черниговского в Орде - Сарай-Бату",
    "location": {
      "name": "Сарай-Бату",
      "lat": 57.435756448399395,
      "lng": 50.73082527815314
    },
    "category": "Научные достижения"
  },
  {
    "title": "Год ** - неврюева рать - переславль-залесский",
    "date": "1252 год",
    "description": "* ** 1252 год ** - Неврюева рать - Переславль-Залесский",
    "location": {
      "name": "Переславль-Залесский",
      "lat": 52.39896207497712,
      "lng": 45.3826888592107
    },
    "category": "Социальные реформы"
  },
  {
    "title": "Годы** - монгольская перепись населения на руси",
    "date": "1257-1259",
    "description": "* ** 1257-1259 годы** - Монгольская перепись населения на Руси - Русь",
    "location": {
      "name": "Русь",
      "lat": 53.9,
      "lng": 27.57
    },
    "category": "Изменения границ"
  },
  {
    "title": "Год ** - восстания против татарских откупщиков",
    "date": "1262 год",
    "description": "* ** 1262 год ** - Восстания против татарских откупщиков в русских городах - Разные города Руси",
    "location": {
      "name": "Разные города Руси",
      "lat": 54.83862246875189,
      "lng": 51.02724914096437
    },
    "category": "Революции и перевороты"
  },
  {
    "title": "- смерть александра невского - городец",
    "date": "1263 год",
    "description": "* ** 1263 год ** - Смерть Александра Невского - Городец",
    "location": {
      "name": "Городец",
      "lat": 46.87778709632666,
      "lng": 43.85071928376779
    },
    "category": "Научные достижения"
  },
  {
    "title": "Год ** - образование московского княжества -",
    "date": "1276 год",
    "description": "* ** 1276 год ** - Образование Московского княжества - Москва",
    "location": {
      "name": "Москва",
      "lat": 55.75,
      "lng": 37.62
    },
    "category": "Становление государства"
  },
  {
    "title": "- перенос митрополичьей кафедры из киева во владимир - владимир",
    "date": "1299 год",
    "description": "* ** 1299 год ** - Перенос митрополичьей кафедры из Киева во Владимир - Владимир",
    "location": {
      "name": "Владимир",
      "lat": 56.13,
      "lng": 40.42
    },
    "category": "Дипломатические события"
  },
  {
    "title": "Новгородское восстание против князя всеволода мстиславича",
    "date": "1137",
    "description": "[ 1137 ] - **Новгородское восстание против князя Всеволода Мстиславича** - Новгород",
    "location": {
      "name": "Новгород",
      "lat": 58.52,
      "lng": 31.27
    },
    "category": "Революции и перевороты"
  },
  {
    "title": "Междоусобная борьба за киевский престол между изяславом",
    "date": "1146",
    "description": "[ 1146 ] - **Междоусобная борьба за Киевский престол между Изяславом Мстиславичем и Игорем Ольговичем** - Киев",
    "location": {
      "name": "Киев",
      "lat": 50.45,
      "lng": 30.52
    },
    "category": "Военные кампании"
  },
  {
    "title": "Первое упоминание москвы в летописи** - москва",
    "date": "1147",
    "description": "[ 1147 ] - **Первое упоминание Москвы в летописи** - Москва",
    "location": {
      "name": "Москва",
      "lat": 55.75,
      "lng": 37.62
    },
    "category": "Политические реформы"
  },
  {
    "title": "Основание города переяславля-залесского юрием долгоруким** - переяславль-залесский",
    "date": "1152",
    "description": "[ 1152 ] - **Основание города Переяславля-Залесского Юрием Долгоруким** - Переяславль-Залесский",
    "location": {
      "name": "Переяславль-Залесский",
      "lat": 50.881745848147666,
      "lng": 44.37430127860159
    },
    "category": "Культура и религия"
  },
  {
    "title": "Взятие киева войсками андрея боголюбского** - киев",
    "date": "1169",
    "description": "[ 1169 ] - **Взятие Киева войсками Андрея Боголюбского** - Киев",
    "location": {
      "name": "Киев",
      "lat": 50.45,
      "lng": 30.52
    },
    "category": "Экономические события"
  },
  {
    "title": "Липицкая битва** - река липица, близ юрьева-польского",
    "date": "1180",
    "description": "[ 1180 ] - **Липицкая битва** - Река Липица, близ Юрьева-Польского",
    "location": {
      "name": "Река Липица, близ Юрьева-Польского",
      "lat": 63.867369414083775,
      "lng": 28.918004918349364
    },
    "category": "Войны и сражения"
  },
  {
    "title": "Поход князя игоря святославича на половцев** -",
    "date": "1185",
    "description": "[ 1185 ] - **Поход князя Игоря Святославича на половцев** - Южная Русь, Половецкая степь",
    "location": {
      "name": "Южная Русь, Половецкая степь",
      "lat": 47.433187954135214,
      "lng": 43.12849748751211
    },
    "category": "Территориальные приобретения"
  },
  {
    "title": "Раздел галицкого княжества после смерти ярослава осмомысла**",
    "date": "1187",
    "description": "[ 1187 ] - **Раздел Галицкого княжества после смерти Ярослава Осмомысла** - Галицкое княжество",
    "location": {
      "name": "Галич",
      "lat": 52.93193951872955,
      "lng": 50.96092506259342
    },
    "category": "Становление государства"
  },
  {
    "title": "Основание города козельска** - козельск",
    "date": "1188",
    "description": "[ 1188 ] - **Основание города Козельска** - Козельск",
    "location": {
      "name": "Козельск",
      "lat": 52.61295532256752,
      "lng": 49.52053068798817
    },
    "category": "Революции и перевороты"
  },
  {
    "title": "Заключение мирного договора между новгородом и владимиро-суздальским княжеством",
    "date": "1195",
    "description": "[ 1195 ] - **Заключение мирного договора между Новгородом и Владимиро-Суздальским княжеством** - Новгород, Владимир",
    "location": {
      "name": "Новгород",
      "lat": 58.52,
      "lng": 31.27
    },
    "category": "Становление государства"
  },
  {
    "title": "Объединение галицкого и волынского княжеств романом мстиславичем**",
    "date": "1199",
    "description": "[ 1199 ] - **Объединение Галицкого и Волынского княжеств Романом Мстиславичем** - Галицко-Волынское княжество",
    "location": {
      "name": "Галицко-Волынское княжество",
      "lat": 51.41674912934823,
      "lng": 43.83084392695305
    },
    "category": "Становление государства"
  },
  {
    "title": "Начало правления всеволода большое гнездо во владимиро-суздальском княжестве",
    "date": "1206",
    "description": "[ 1206 ] - **Начало правления Всеволода Большое Гнездо во Владимиро-Суздальском княжестве** - Владимиро-Суздальское княжество",
    "location": {
      "name": "Владимиро-Суздальское княжество",
      "lat": 56.13,
      "lng": 40.42
    },
    "category": "Становление государства"
  },
  {
    "title": "Раздел владимиро-суздальского княжества между сыновьями всеволода большое гнездо",
    "date": "1212",
    "description": "[ 1212 ] - **Раздел Владимиро-Суздальского княжества между сыновьями Всеволода Большое Гнездо** - Владимиро-Суздальское княжество",
    "location": {
      "name": "Владимир",
      "lat": 56.13,
      "lng": 40.42
    },
    "category": "Становление государства"
  },
  {
    "title": "Липицкая битва",
    "date": "1216",
    "description": "[ 1216 ] - **Липицкая битва (вторая)** - Река Липица, близ Юрьева-Польского",
    "location": {
      "name": "Река Липица, близ Юрьева-Польского",
      "lat": 51.42203159795227,
      "lng": 29.144689533719013
    },
    "category": "Войны и сражения"
  },
  {
    "title": "Основание нижнего новгорода юрием всеволодовичем** - нижний",
    "date": "1221",
    "description": "[ 1221 ] - **Основание Нижнего Новгорода Юрием Всеволодовичем** - Нижний Новгород",
    "location": {
      "name": "Нижний Новгород",
      "lat": 56.32,
      "lng": 44.0
    },
    "category": "Военные кампании"
  },
  {
    "title": "Битва на реке калке** - река калка",
    "date": "1223",
    "description": "[ 1223 ] - **Битва на реке Калке** - Река Калка, Приазовье",
    "location": {
      "name": "Река Калка, Приазовье",
      "lat": 56.66196393781055,
      "lng": 41.50476540669553
    },
    "category": "Войны и сражения"
  },
  {
    "title": "Падение юрьева (тарту) под натиском крестоносцев** -",
    "date": "1224",
    "description": "[ 1224 ] - **Падение Юрьева (Тарту) под натиском крестоносцев** - Юрьев (Тарту)",
    "location": {
      "name": "Тарту",
      "lat": 53.17795757048577,
      "lng": 34.20531274117912
    },
    "category": "Революции и перевороты"
  },
  {
    "title": "Битва под старой руссой** - близ старой",
    "date": "1234",
    "description": "[ 1234 ] - **Битва под Старой Руссой** - Близ Старой Руссы",
    "location": {
      "name": "Старая Русса",
      "lat": 53.611499684736,
      "lng": 32.09953672808145
    },
    "category": "Войны и сражения"
  },
  {
    "title": "Монгольское нашествие на северо-восточную русь** - северо-восточная",
    "date": "1237-1238",
    "description": "[ 1237-1238 ] - **Монгольское нашествие на Северо-Восточную Русь** - Северо-Восточная Русь",
    "location": {
      "name": "Северо-Восточная Русь",
      "lat": 47.33132504167834,
      "lng": 30.82783065387844
    },
    "category": "Политические реформы"
  },
  {
    "title": "Битва на реке сити** - река сить",
    "date": "1238",
    "description": "[ 1238 ] - **Битва на реке Сити** - Река Сить, Ярославская область",
    "location": {
      "name": "Река Сить, Ярославская область",
      "lat": 52.20525860386717,
      "lng": 42.70895741598916
    },
    "category": "Войны и сражения"
  }
]