[
  {
    "title": "Вот максимально полный хронологический список важных исторических",
    "date": "1860-1870",
    "description": "Вот максимально полный хронологический список важных исторических событий по теме \"Александр II: реформы 1860-1870 -х годов\" из истории России:",
    "location": {
      "name": "Санкт-Петербург",
      "lat": 59.94,
      "lng": 30.31
    },
    "category": "Социальные реформы"
  },
  {
    "title": "Февраля 1855 ** - восшествие на престол",
    "date": "1855",
    "description": "* **18 февраля 1855 ** - Восшествие на престол Александра II - Санкт-Петербург",
    "location": {
      "name": "Санкт-Петербург",
      "lat": 59.94,
      "lng": 30.31
    },
    "category": "Социальные реформы"
  },
  {
    "title": "- подписание парижского мирного договора - париж",
    "date": "1856",
    "description": "* **30 марта 1856 ** - Подписание Парижского мирного договора - Париж",
    "location": {
      "name": "Париж",
      "lat": 48.86,
      "lng": 2.35
    },
    "category": "Дипломатические события"
  },
  {
    "title": "Января 1857 ** - секретный комитет \"о",
    "date": "1857",
    "description": "* **3 января 1857 ** - Секретный комитет \"О мерах к улучшению быта помещичьих крестьян\" - Санкт-Петербург",
    "location": {
      "name": "Санкт-Петербург",
      "lat": 59.94,
      "lng": 30.31
    },
    "category": "Культура и религия"
  },
  {
    "title": "Ноябрь 1857 ** - рескрипт александра ii",
    "date": "1857",
    "description": "* **Ноябрь 1857 ** - Рескрипт Александра II виленскому генерал-губернатору В",
    "location": {
      "name": "Вильно",
      "lat": 51.11291575898162,
      "lng": 31.205612332364716
    },
    "category": "Культура и религия"
  },
  {
    "title": "Февраль 1858 ** - рескрипт александра ii",
    "date": "1858",
    "description": "* **Февраль 1858 ** - Рескрипт Александра II петербургскому генерал-губернатору графу П",
    "location": {
      "name": "Санкт-Петербург",
      "lat": 59.94,
      "lng": 30.31
    },
    "category": "Войны и сражения"
  },
  {
    "title": "Декабрь 1858 ** - преобразование секретного комитета",
    "date": "1858",
    "description": "* **Декабрь 1858 ** - Преобразование Секретного комитета в Главный комитет по крестьянскому делу - Санкт-Петербург",
    "location": {
      "name": "Санкт-Петербург",
      "lat": 59.94,
      "lng": 30.31
    },
    "category": "Становление государства"
  },
  {
    "title": "Март 1859 ** - учреждение редакционных комиссий",
    "date": "1859",
    "description": "* **Март 1859 ** - Учреждение Редакционных комиссий - Санкт-Петербург",
    "location": {
      "name": "Санкт-Петербург",
      "lat": 59.94,
      "lng": 30.31
    },
    "category": "Восстания и бунты"
  },
  {
    "title": "Октябрь 1860 ** - завершение работы редакционных",
    "date": "1860",
    "description": "* **Октябрь 1860 ** - Завершение работы Редакционных комиссий - Санкт-Петербург",
    "location": {
      "name": "Санкт-Петербург",
      "lat": 59.94,
      "lng": 30.31
    },
    "category": "Изменения границ"
  },
  {
    "title": "- подписание манифеста об освобождении крестьян и",
    "date": "1861",
    "description": "* **19 февраля 1861 ** - Подписание Манифеста об освобождении крестьян и \"Положений о крестьянах, вышедших из крепостной зависимости\" - Санкт-Петербург",
    "location": {
      "name": "Санкт-Петербург",
      "lat": 59.94,
      "lng": 30.31
    },
    "category": "Военные кампании"
  },
  {
    "title": "- публикация манифеста об освобождении крестьян - санкт-петербург",
    "date": "1861",
    "description": "* **5 марта 1861 ** - Публикация Манифеста об освобождении крестьян - Санкт-Петербург",
    "location": {
      "name": "Санкт-Петербург",
      "lat": 59.94,
      "lng": 30.31
    },
    "category": "Восстания и бунты"
  },
  {
    "title": "Апрель 1861 ** - крестьянские волнения в",
    "date": "1861",
    "description": "* **Апрель 1861 ** - Крестьянские волнения в селе Бездна Казанской губернии - Село Бездна, Казанская губерния",
    "location": {
      "name": "Село Бездна, Казанская губерния",
      "lat": 52.72801758747723,
      "lng": 50.722470435089676
    },
    "category": "Социальные реформы"
  },
  {
    "title": "Января 1862 ** - \"временные правила о",
    "date": "1862",
    "description": "* **28 января 1862 ** - \"Временные правила о печати\" - Санкт-Петербург",
    "location": {
      "name": "Санкт-Петербург",
      "lat": 59.94,
      "lng": 30.31
    },
    "category": "Территориальные приобретения"
  },
  {
    "title": "Отставка министра народного просвещения е",
    "date": "1862",
    "description": "* ** 1862 ** - Отставка министра народного просвещения Е",
    "location": {
      "name": "Санкт-Петербург",
      "lat": 59.94,
      "lng": 30.31
    },
    "category": "Экономические события"
  },
  {
    "title": "Июня 1863 ** - университетский устав -",
    "date": "1863",
    "description": "* **18 июня 1863 ** - Университетский устав - Санкт-Петербург",
    "location": {
      "name": "Санкт-Петербург",
      "lat": 59.94,
      "lng": 30.31
    },
    "category": "Социальные реформы"
  },
  {
    "title": "- польское восстание - царство польское",
    "date": "1863-1864",
    "description": "* ** 1863-1864 ** - Польское восстание - Царство Польское, Западные губернии",
    "location": {
      "name": "Царство Польское",
      "lat": 61.85585904792033,
      "lng": 40.62447500981989
    },
    "category": "Революции и перевороты"
  },
  {
    "title": "- земская реформа - российская империя",
    "date": "1864",
    "description": "* ** 1864 ** - Земская реформа - Российская империя",
    "location": {
      "name": "Российская империя",
      "lat": 54.97214454678406,
      "lng": 31.31672266393462
    },
    "category": "Социальные реформы"
  },
  {
    "title": "- судебная реформа - российская империя",
    "date": "1864",
    "description": "* **20 ноября 1864 ** - Судебная реформа - Российская империя",
    "location": {
      "name": "Санкт-Петербург",
      "lat": 59.94,
      "lng": 30.31
    },
    "category": "Социальные реформы"
  },
  {
    "title": "- реформа начального образования - российская империя",
    "date": "1864",
    "description": "* ** 1864 ** - Реформа начального образования - Российская империя",
    "location": {
      "name": "Санкт-Петербург",
      "lat": 59.94,
      "lng": 30.31
    },
    "category": "Становление государства"
  },
  {
    "title": "Апреля 1865 ** - временные правила о",
    "date": "1865",
    "description": "* **6 апреля 1865 ** - Временные правила о печати - Санкт-Петербург",
    "location": {
      "name": "Санкт-Петербург",
      "lat": 59.94,
      "lng": 30.31
    },
    "category": "Становление государства"
  },
  {
    "title": "- военная реформа",
    "date": "1865",
    "description": "* ** 1865 ** - Военная реформа (начало) - Российская империя",
    "location": {
      "name": "Санкт-Петербург",
      "lat": 59.94,
      "lng": 30.31
    },
    "category": "Войны и сражения"
  },
  {
    "title": "Апреля 1866 ** - покушение д",
    "date": "1866",
    "description": "* **4 апреля 1866 ** - Покушение Д",
    "location": {
      "name": "Санкт-Петербург",
      "lat": 59.94,
      "lng": 30.31
    },
    "category": "Дипломатические события"
  },
  {
    "title": "Отставка министра внутренних дел п",
    "date": "1866",
    "description": "* ** 1866 ** - Отставка министра внутренних дел П",
    "location": {
      "name": "Санкт-Петербург",
      "lat": 59.94,
      "lng": 30.31
    },
    "category": "Становление государства"
  },
  {
    "title": "Марта 1867 ** - продажа аляски соединенным",
    "date": "1867",
    "description": "* **18 марта 1867 ** - Продажа Аляски Соединенным Штатам Америки - Вашингтон",
    "location": {
      "name": "Вашингтон",
      "lat": 56.38855521522149,
      "lng": 44.215745954002564
    },
    "category": "Экономические события"
  },
  {
    "title": "Начало реформы среднего образования - российская империя",
    "date": "1868",
    "description": "* ** 1868 ** - Начало реформы среднего образования - Российская империя",
    "location": {
      "name": "Санкт-Петербург",
      "lat": 59.94,
      "lng": 30.31
    },
    "category": "Становление государства"
  },
  {
    "title": "- городская реформа - российская империя",
    "date": "1870",
    "description": "* **16 июня 1870 ** - Городская реформа - Российская империя",
    "location": {
      "name": "Российская империя",
      "lat": 46.182786105477206,
      "lng": 34.1706447500971
    },
    "category": "Социальные реформы"
  },
  {
    "title": "- отмена нейтрализации черного моря - лондон",
    "date": "1870",
    "description": "* ** 1870 ** - Отмена нейтрализации Черного моря - Лондон",
    "location": {
      "name": "Лондон",
      "lat": 51.51,
      "lng": -0.13
    },
    "category": "Военные кампании"
  },
  {
    "title": "- русско-турецкая война - балканы",
    "date": "1877-1878",
    "description": "* ** 1877-1878 ** - Русско-турецкая война - Балканы, Кавказ",
    "location": {
      "name": "Балканы",
      "lat": 48.37526330517548,
      "lng": 46.275425821533034
    },
    "category": "Войны и сражения"
  },
  {
    "title": "Раскол \"земли и воли\" на \"черный передел\"",
    "date": "1879",
    "description": "* ** 1879 ** - Раскол \"Земли и воли\" на \"Черный передел\" и \"Народную волю\" - Российская империя",
    "location": {
      "name": "Санкт-Петербург",
      "lat": 59.94,
      "lng": 30.31
    },
    "category": "Восстания и бунты"
  },
  {
    "title": "Февраля 1880 ** - учреждение верховной распорядительной",
    "date": "1880",
    "description": "* **12 февраля 1880 ** - Учреждение Верховной распорядительной комиссии по охранению государственного порядка и общественного спокойствия - Санкт-Петербург",
    "location": {
      "name": "Санкт-Петербург",
      "lat": 59.94,
      "lng": 30.31
    },
    "category": "Становление государства"
  },
  {
    "title": "Марта 1881 ** - убийство александра ii",
    "date": "1881",
    "description": "* **1 марта 1881 ** - Убийство Александра II - Санкт-Петербург",
    "location": {
      "name": "Санкт-Петербург",
      "lat": 59.94,
      "lng": 30.31
    },
    "category": "Становление государства"
  },
  {
    "title": "Связанных с реформами александра ii в 1860-1870 -х годах",
    "date": "в 1860-1870",
    "description": "Конечно, вот продолжение списка исторических событий, связанных с реформами Александра II в 1860-1870 -х годах, с акцентом на менее известные, но важные аспекты:",
    "location": {
      "name": "Санкт-Петербург",
      "lat": 59.94,
      "lng": 30.31
    },
    "category": "Социальные реформы"
  },
  {
    "title": "Ноябрь** - **временные правила о выкупе земельных",
    "date": "1861",
    "description": "* ** 1861 , ноябрь** - **Временные правила о выкупе земельных наделов** - **Российская империя**",
    "location": {
      "name": "Российская империя",
      "lat": 54.13129113136705,
      "lng": 27.22605559462002
    },
    "category": "Дипломатические события"
  },
  {
    "title": "Польское восстание** - **царство польское, западный край**",
    "date": "1863",
    "description": "* ** 1863 ** - **Польское восстание** - **Царство Польское, Западный край**",
    "location": {
      "name": "Царство Польское",
      "lat": 46.97682303705004,
      "lng": 42.43024085392831
    },
    "category": "Революции и перевороты"
  },
  {
    "title": "Земская реформа введена в бессарабской области",
    "date": "1864",
    "description": "* ** 1864 ** - **Земская реформа введена в Бессарабской области** - **Бессарабская область**",
    "location": {
      "name": "Бессарабская область",
      "lat": 62.31848088386322,
      "lng": 34.132781218530575
    },
    "category": "Социальные реформы"
  },
  {
    "title": "Ноября** - **утверждение устава гимназий и прогимназий**",
    "date": "1864",
    "description": "* ** 1864 , 20 ноября** - **Утверждение Устава гимназий и прогимназий** - **Российская империя**",
    "location": {
      "name": "Санкт-Петербург",
      "lat": 59.94,
      "lng": 30.31
    },
    "category": "Социальные реформы"
  },
  {
    "title": "Временные правила о печати** - **российская империя**",
    "date": "1865",
    "description": "* ** 1865 ** - **Временные правила о печати** - **Российская империя**",
    "location": {
      "name": "Санкт-Петербург",
      "lat": 59.94,
      "lng": 30.31
    },
    "category": "Изменения границ"
  },
  {
    "title": "Апреля** - **первое покушение дмитрия каракозова на",
    "date": "1866",
    "description": "* ** 1866 , 4 апреля** - **Первое покушение Дмитрия Каракозова на Александра II** - **Санкт-Петербург, Летний сад**",
    "location": {
      "name": "Санкт-Петербург",
      "lat": 59.94,
      "lng": 30.31
    },
    "category": "Становление государства"
  },
  {
    "title": "Продажа аляски соединенным штатам америки** - **вашингтон",
    "date": "1867",
    "description": "* ** 1867 ** - **Продажа Аляски Соединенным Штатам Америки** - **Вашингтон, округ Колумбия**",
    "location": {
      "name": "Вашингтон",
      "lat": 62.011132469718376,
      "lng": 29.406586471432142
    },
    "category": "Экономические события"
  },
  {
    "title": "Учреждение главного управления по делам печати** -",
    "date": "1868",
    "description": "* ** 1868 ** - **Учреждение Главного управления по делам печати** - **Российская империя**",
    "location": {
      "name": "Санкт-Петербург",
      "lat": 59.94,
      "lng": 30.31
    },
    "category": "Изменения границ"
  },
  {
    "title": "Городовое положение** - **российская империя**",
    "date": "1870",
    "description": "* ** 1870 ** - **Городовое положение** - **Российская империя**",
    "location": {
      "name": "Санкт-Петербург",
      "lat": 59.94,
      "lng": 30.31
    },
    "category": "Становление государства"
  },
  {
    "title": "Отмена нейтрализации черного моря** - **лондонская конференция**",
    "date": "1870",
    "description": "* ** 1870 ** - **Отмена нейтрализации Черного моря** - **Лондонская конференция**",
    "location": {
      "name": "Лондон",
      "lat": 51.51,
      "lng": -0.13
    },
    "category": "Культура и религия"
  },
  {
    "title": "Установленных парижским мирным договором 1856 года после крымской войны",
    "date": "1856",
    "description": "* Россия добилась отмены ограничений на строительство флота и военных укреплений на Черном море, установленных Парижским мирным договором 1856 года после Крымской войны",
    "location": {
      "name": "Санкт-Петербург",
      "lat": 59.94,
      "lng": 30.31
    },
    "category": "Войны и сражения"
  },
  {
    "title": "Циркуляр о \"кухаркиных детях\"** - **российская империя**",
    "date": "1871",
    "description": "* ** 1871 ** - **Циркуляр о \"кухаркиных детях\"** - **Российская империя**",
    "location": {
      "name": "Санкт-Петербург",
      "lat": 59.94,
      "lng": 30.31
    },
    "category": "Экономические события"
  },
  {
    "title": "Учреждение московского политехнического музея** - **москва**",
    "date": "1872",
    "description": "* ** 1872 ** - **Учреждение Московского политехнического музея** - **Москва**",
    "location": {
      "name": "Москва",
      "lat": 55.75,
      "lng": 37.62
    },
    "category": "Социальные реформы"
  },
  {
    "title": "Союз трех императоров** - **берлин**",
    "date": "1873",
    "description": "* ** 1873 ** - **Союз трех императоров** - **Берлин**",
    "location": {
      "name": "Берлин",
      "lat": 52.52,
      "lng": 13.4
    },
    "category": "Дипломатические события"
  },
  {
    "title": "Военная реформа: введение всеобщей воинской повинности** -",
    "date": "1874",
    "description": "* ** 1874 ** - **Военная реформа: введение всеобщей воинской повинности** - **Российская империя**",
    "location": {
      "name": "Санкт-Петербург",
      "lat": 59.94,
      "lng": 30.31
    },
    "category": "Войны и сражения"
  },
  {
    "title": "Петербургский договор с японией",
    "date": "1875",
    "description": "* ** 1875 ** - **Петербургский договор с Японией** - **Санкт-Петербург**",
    "location": {
      "name": "Санкт-Петербург",
      "lat": 59.94,
      "lng": 30.31
    },
    "category": "Дипломатические события"
  },
  {
    "title": "Эмский указ** - **эмс, германия**",
    "date": "1876",
    "description": "* ** 1876 ** - **Эмский указ** - **Эмс, Германия**",
    "location": {
      "name": "Эмс",
      "lat": 54.68428872318978,
      "lng": 39.6030315711025
    },
    "category": "Войны и сражения"
  },
  {
    "title": "Русско-турецкая война** - **балканский полуостров, кавказ**",
    "date": "1877-1878",
    "description": "* ** 1877-1878 ** - **Русско-турецкая война** - **Балканский полуостров, Кавказ**",
    "location": {
      "name": "Балканский полуостров",
      "lat": 57.4980328191798,
      "lng": 35.93951845506829
    },
    "category": "Войны и сражения"
  },
  {
    "title": "Берлинский конгресс** - **берлин**",
    "date": "1878",
    "description": "* ** 1878 ** - **Берлинский конгресс** - **Берлин**",
    "location": {
      "name": "Берлин",
      "lat": 52.52,
      "lng": 13.4
    },
    "category": "Войны и сражения"
  },
  {
    "title": "Образование организации \"земля и воля\"** - **санкт-петербург**",
    "date": "1879",
    "description": "* ** 1879 ** - **Образование организации \"Земля и воля\"** - **Санкт-Петербург**",
    "location": {
      "name": "Санкт-Петербург",
      "lat": 59.94,
      "lng": 30.31
    },
    "category": "Становление государства"
  }
]