[
  {
    "title": "Февраль 17 (или 21) февраля 1598 **",
    "date": "1598",
    "description": "* **Февраль 17 (или 21) февраля 1598 ** - Земский собор избирает Бориса Годунова царем - Москва",
    "location": {
      "name": "Москва",
      "lat": 55.75,
      "lng": 37.62
    },
    "category": "Культура и религия"
  },
  {
    "title": "Сентябрь 1598 ** - венчание бориса годунова",
    "date": "1598",
    "description": "* **Сентябрь 1598 ** - Венчание Бориса Годунова на царство - Москва, Успенский собор",
    "location": {
      "name": "Москва",
      "lat": 55.75,
      "lng": 37.62
    },
    "category": "Культура и религия"
  },
  {
    "title": "Начало великого голода - центральная россия",
    "date": "1601",
    "description": "* ** 1601 ** - Начало Великого голода - Центральная Россия",
    "location": {
      "name": "Центральная Россия",
      "lat": 55.75,
      "lng": 37.62
    },
    "category": "Дипломатические события"
  },
  {
    "title": "Лето 1601 ** - первые случаи голодной",
    "date": "1601",
    "description": "* **Лето 1601 ** - Первые случаи голодной смерти и бегства крестьян - Центральная Россия",
    "location": {
      "name": "Центральная Россия",
      "lat": 55.75,
      "lng": 37.62
    },
    "category": "Дипломатические события"
  },
  {
    "title": "- указ о восстановлении юрьева дня - россия",
    "date": "1601",
    "description": "* **Осень 1601 ** - Указ о восстановлении Юрьева дня - Россия",
    "location": {
      "name": "Москва",
      "lat": 55.75,
      "lng": 37.62
    },
    "category": "Революции и перевороты"
  },
  {
    "title": "Второй год великого голода - центральная россия",
    "date": "1602",
    "description": "* ** 1602 ** - Второй год Великого голода - Центральная Россия",
    "location": {
      "name": "Центральная Россия",
      "lat": 55.75,
      "lng": 37.62
    },
    "category": "Научные достижения"
  },
  {
    "title": "Появление слухов о чудесно спасшемся царевиче дмитрии",
    "date": "1602",
    "description": "* ** 1602 ** - Появление слухов о чудесно спасшемся царевиче Дмитрии - Россия",
    "location": {
      "name": "Москва",
      "lat": 55.75,
      "lng": 37.62
    },
    "category": "Культура и религия"
  },
  {
    "title": "Усиление мер по борьбе с голодом: раздача",
    "date": "1602",
    "description": "* ** 1602 ** - Усиление мер по борьбе с голодом: раздача хлеба из государственных запасов - Москва и другие города",
    "location": {
      "name": "Москва",
      "lat": 55.75,
      "lng": 37.62
    },
    "category": "Становление государства"
  },
  {
    "title": "Бегство григория отрепьева в литву - москва",
    "date": "1602",
    "description": "* ** 1602 ** - Бегство Григория Отрепьева в Литву - Москва, затем Литва",
    "location": {
      "name": "Москва",
      "lat": 55.75,
      "lng": 37.62
    },
    "category": "Дипломатические события"
  },
  {
    "title": "Третий год великого голода - центральная россия",
    "date": "1603",
    "description": "* ** 1603 ** - Третий год Великого голода - Центральная Россия",
    "location": {
      "name": "Центральная Россия",
      "lat": 55.75,
      "lng": 37.62
    },
    "category": "Политические реформы"
  },
  {
    "title": "- восстание хлопка косолапа - центральная россия",
    "date": "1603",
    "description": "* **Весна 1603 ** - Восстание Хлопка Косолапа - Центральная Россия",
    "location": {
      "name": "Центральная Россия",
      "lat": 55.75,
      "lng": 37.62
    },
    "category": "Революции и перевороты"
  },
  {
    "title": "- битва у села добрыничи - село добрыничи",
    "date": "1603",
    "description": "* **Сентябрь 1603 ** - Битва у села Добрыничи - Село Добрыничи, недалеко от Кром",
    "location": {
      "name": "Село Добрыничи",
      "lat": 61.723121934196925,
      "lng": 48.82466139260855
    },
    "category": "Войны и сражения"
  },
  {
    "title": "Октябрь 1603 ** - казнь хлопка косолапа",
    "date": "1603",
    "description": "* **Октябрь 1603 ** - Казнь Хлопка Косолапа - Москва",
    "location": {
      "name": "Москва",
      "lat": 55.75,
      "lng": 37.62
    },
    "category": "Восстания и бунты"
  },
  {
    "title": "Осень 1603 ** - появление лжедмитрия i",
    "date": "1603",
    "description": "* **Осень 1603 ** - Появление Лжедмитрия I в Речи Посполитой - Речь Посполитая",
    "location": {
      "name": "Речь Посполитая",
      "lat": 57.062879008889624,
      "lng": 37.71624818949924
    },
    "category": "Культура и религия"
  },
  {
    "title": "Весна-лето 1604 ** - лжедмитрий i заручается",
    "date": "1604",
    "description": "* **Весна-Лето 1604 ** - Лжедмитрий I заручается поддержкой польской шляхты и католической церкви - Речь Посполитая",
    "location": {
      "name": "Речь Посполитая",
      "lat": 60.06814177741674,
      "lng": 35.68137631098666
    },
    "category": "Научные достижения"
  },
  {
    "title": "Осень 1604 ** - вторжение лжедмитрия i",
    "date": "1604",
    "description": "* **Осень 1604 ** - Вторжение Лжедмитрия I в Россию - Юго-западные русские земли",
    "location": {
      "name": "Юго-западные русские земли",
      "lat": 54.28917301732117,
      "lng": 48.08588171052577
    },
    "category": "Войны и сражения"
  },
  {
    "title": "Декабрь 1604 ** - осада новгорода-северского -",
    "date": "1604",
    "description": "* **Декабрь 1604 ** - Осада Новгорода-Северского - Новгород-Северский",
    "location": {
      "name": "Новгород-Северский",
      "lat": 58.52,
      "lng": 31.27
    },
    "category": "Войны и сражения"
  },
  {
    "title": "- битва при добрыничах - добрыничи",
    "date": "1605",
    "description": "* **Январь 21 1605 ** - Битва при Добрыничах - Добрыничи",
    "location": {
      "name": "Добрыничи",
      "lat": 45.343487126597694,
      "lng": 33.73183236230796
    },
    "category": "Войны и сражения"
  },
  {
    "title": "- смерть бориса годунова - москва",
    "date": "1605",
    "description": "* **Апрель 13 (23) 1605 ** - Смерть Бориса Годунова - Москва",
    "location": {
      "name": "Москва",
      "lat": 55.75,
      "lng": 37.62
    },
    "category": "Изменения границ"
  },
  {
    "title": "Апрель 1605 ** - федор ii годунов",
    "date": "1605",
    "description": "* **Апрель 1605 ** - Федор II Годунов становится царем - Москва",
    "location": {
      "name": "Москва",
      "lat": 55.75,
      "lng": 37.62
    },
    "category": "Войны и сражения"
  },
  {
    "title": "Май 7 (17) 1605 ** - переход",
    "date": "1605",
    "description": "* **Май 7 (17) 1605 ** - Переход царских войск на сторону Лжедмитрия I - Кромы",
    "location": {
      "name": "Кромы",
      "lat": 49.757093938058,
      "lng": 45.83072012033469
    },
    "category": "Культура и религия"
  },
  {
    "title": "Июнь 1 (11) 1605 ** - вступление",
    "date": "1605",
    "description": "* **Июнь 1 (11) 1605 ** - Вступление Лжедмитрия I в Москву - Москва",
    "location": {
      "name": "Москва",
      "lat": 55.75,
      "lng": 37.62
    },
    "category": "Военные кампании"
  },
  {
    "title": "Июнь 10 (20) 1605 ** - убийство",
    "date": "1605",
    "description": "* **Июнь 10 (20) 1605 ** - Убийство Федора II Годунова и его матери - Москва",
    "location": {
      "name": "Москва",
      "lat": 55.75,
      "lng": 37.62
    },
    "category": "Основание городов"
  },
  {
    "title": "Рост цен на хлеб в десятки раз",
    "date": "1601-1603",
    "description": "* ** 1601-1603 ** - Рост цен на хлеб в десятки раз - Центральная Россия",
    "location": {
      "name": "Центральная Россия",
      "lat": 55.75,
      "lng": 37.62
    },
    "category": "Изменения границ"
  },
  {
    "title": "Увеличение числа разбойничьих шаек - центральная россия",
    "date": "1601-1603",
    "description": "* ** 1601-1603 ** - Увеличение числа разбойничьих шаек - Центральная Россия",
    "location": {
      "name": "Центральная Россия",
      "lat": 55.75,
      "lng": 37.62
    },
    "category": "Войны и сражения"
  },
  {
    "title": "Запрет на продажу хлеба по завышенным ценам",
    "date": "1602",
    "description": "* ** 1602 ** - Запрет на продажу хлеба по завышенным ценам - Россия",
    "location": {
      "name": "Москва",
      "lat": 55.75,
      "lng": 37.62
    },
    "category": "Культура и религия"
  },
  {
    "title": "- открытие царских житниц для раздачи хлеба - москва",
    "date": "1603",
    "description": "* ** 1603 ** - Открытие царских житниц для раздачи хлеба - Москва",
    "location": {
      "name": "Москва",
      "lat": 55.75,
      "lng": 37.62
    },
    "category": "Научные достижения"
  },
  {
    "title": "Поддержка лжедмитрия i донскими казаками - дон",
    "date": "1604",
    "description": "* ** 1604 ** - Поддержка Лжедмитрия I донскими казаками - Дон",
    "location": {
      "name": "Дон",
      "lat": 47.23,
      "lng": 39.72
    },
    "category": "Восстания и бунты"
  },
  {
    "title": "Признание лжедмитрия i матерью ивана грозного, марией",
    "date": "1605",
    "description": "* ** 1605 ** - Признание Лжедмитрия I матерью Ивана Грозного, Марией Нагой - Москва",
    "location": {
      "name": "Москва",
      "lat": 55.75,
      "lng": 37.62
    },
    "category": "Территориальные приобретения"
  },
  {
    "title": "Год ** - **восстание холопов под предводительством",
    "date": "1602 год",
    "description": "* ** 1602 год ** - **Восстание холопов под предводительством Хлопка Косолапа** - Центральные уезды России (особенно окрестности Москвы)",
    "location": {
      "name": "Центральные уезды России (окрестности Москвы)",
      "lat": 47.37737708543836,
      "lng": 51.405331818430405
    },
    "category": "Революции и перевороты"
  },
  {
    "title": "Год ** - **указ о сыске беглых",
    "date": "1602 год",
    "description": "* ** 1602 год ** - **Указ о сыске беглых крестьян** - Москва",
    "location": {
      "name": "Москва",
      "lat": 55.75,
      "lng": 37.62
    },
    "category": "Изменения границ"
  },
  {
    "title": "Годы** - **распространение слухов о чудесном спасении",
    "date": "1602-1603",
    "description": "* ** 1602-1603 годы** - **Распространение слухов о чудесном спасении царевича Дмитрия** - Различные регионы России",
    "location": {
      "name": "Различные регионы России",
      "lat": 52.174305809891564,
      "lng": 44.002591516367104
    },
    "category": "Войны и сражения"
  },
  {
    "title": "Год ** - **появление григория отрепьева в",
    "date": "1603 год",
    "description": "* ** 1603 год ** - **Появление Григория Отрепьева в Речи Посполитой** - Чудов монастырь (Москва) / Речь Посполитая",
    "location": {
      "name": "Речь Посполитая",
      "lat": 63.190400913059975,
      "lng": 50.31999262417345
    },
    "category": "Культура и религия"
  },
  {
    "title": "Год ** - **моровое поветрие в пскове**",
    "date": "1603 год",
    "description": "* ** 1603 год ** - **Моровое поветрие в Пскове** - Псков",
    "location": {
      "name": "Псков",
      "lat": 57.82,
      "lng": 28.33
    },
    "category": "Культура и религия"
  },
  {
    "title": "Год ** - **восстание крестьян и казаков",
    "date": "1603 год",
    "description": "* ** 1603 год ** - **Восстание крестьян и казаков в районе Северского Донца** - Северский Донец",
    "location": {
      "name": "Северский Донец",
      "lat": 54.953882185025876,
      "lng": 50.41560575374081
    },
    "category": "Революции и перевороты"
  },
  {
    "title": "Годы** - **переговоры лжедмитрия i с польским",
    "date": "1603-1604",
    "description": "* ** 1603-1604 годы** - **Переговоры Лжедмитрия I с польским королем Сигизмундом III** - Краков",
    "location": {
      "name": "Краков",
      "lat": 50.25557348081574,
      "lng": 35.49219697728722
    },
    "category": "Изменения границ"
  },
  {
    "title": "Год ** - **начало похода лжедмитрия i",
    "date": "1604 год",
    "description": "* ** 1604 год ** - **Начало похода Лжедмитрия I на Москву** - Речь Посполитая / Южные рубежи России",
    "location": {
      "name": "Южные рубежи России",
      "lat": 49.351744851627394,
      "lng": 29.289822727981043
    },
    "category": "Научные достижения"
  },
  {
    "title": "Год ** - **переход городов чернигов и",
    "date": "1604 год",
    "description": "* ** 1604 год ** - **Переход городов Чернигов и Путивль на сторону Лжедмитрия I** - Чернигов, Путивль",
    "location": {
      "name": "Чернигов, Путивль",
      "lat": 60.42134655626764,
      "lng": 31.18873420021063
    },
    "category": "Восстания и бунты"
  },
  {
    "title": "Год ** - **битва под новгород-северским** -",
    "date": "1604 год",
    "description": "* ** 1604 год ** - **Битва под Новгород-Северским** - Новгород-Северский",
    "location": {
      "name": "Новгород-Северский",
      "lat": 58.52,
      "lng": 31.27
    },
    "category": "Войны и сражения"
  },
  {
    "title": "Год ** - **осада кром** - кромы",
    "date": "1604 год",
    "description": "* ** 1604 год ** - **Осада Кром** - Кромы",
    "location": {
      "name": "Кромы",
      "lat": 55.05481409373074,
      "lng": 42.64441407145864
    },
    "category": "Войны и сражения"
  },
  {
    "title": "Год ** - **начало массового дезертирства из",
    "date": "1604 год",
    "description": "* ** 1604 год ** - **Начало массового дезертирства из царской армии** - Различные регионы России",
    "location": {
      "name": "Различные регионы России",
      "lat": 47.46972893366918,
      "lng": 40.01738202408431
    },
    "category": "Политические реформы"
  },
  {
    "title": "Год ** - **смерть бориса годунова** -",
    "date": "1605 год",
    "description": "* ** 1605 год ** - **Смерть Бориса Годунова** - Москва",
    "location": {
      "name": "Москва",
      "lat": 55.75,
      "lng": 37.62
    },
    "category": "Научные достижения"
  },
  {
    "title": "Год ** - **восстание в москве против",
    "date": "1605 год",
    "description": "* ** 1605 год ** - **Восстание в Москве против Федора Годунова** - Москва",
    "location": {
      "name": "Москва",
      "lat": 55.75,
      "lng": 37.62
    },
    "category": "Революции и перевороты"
  },
  {
    "title": "Год ** - **присяга москвы лжедмитрию i**",
    "date": "1605 год",
    "description": "* ** 1605 год ** - **Присяга Москвы Лжедмитрию I** - Москва",
    "location": {
      "name": "Москва",
      "lat": 55.75,
      "lng": 37.62
    },
    "category": "Территориальные приобретения"
  },
  {
    "title": "Год ** - **расправы над сторонниками годуновых",
    "date": "1605 год",
    "description": "* ** 1605 год ** - **Расправы над сторонниками Годуновых в регионах** - Различные регионы России",
    "location": {
      "name": "Различные регионы России",
      "lat": 57.72757705259318,
      "lng": 45.61452616083669
    },
    "category": "Территориальные приобретения"
  }
]