[
  {
    "title": "Год ** - воцарение алексея михайловича -",
    "date": "1645 год",
    "description": "* ** 1645 год ** - Воцарение Алексея Михайловича - Москва",
    "location": {
      "name": "Москва",
      "lat": 55.75,
      "lng": 37.62
    },
    "category": "Дипломатические события"
  },
  {
    "title": "Год ** - введение соляного налога -",
    "date": "1646 год",
    "description": "* ** 1646 год ** - Введение соляного налога - Русское царство",
    "location": {
      "name": "Москва",
      "lat": 55.75,
      "lng": 37.62
    },
    "category": "Революции и перевороты"
  },
  {
    "title": "Год ** - соляной бунт - москва",
    "date": "1648 год",
    "description": "* ** 1648 год ** - Соляной бунт - Москва",
    "location": {
      "name": "Москва",
      "lat": 55.75,
      "lng": 37.62
    },
    "category": "Революции и перевороты"
  },
  {
    "title": "Год ** - начало работы земского собора",
    "date": "1648 год",
    "description": "* ** 1648 год ** - Начало работы Земского собора для разработки нового свода законов - Москва",
    "location": {
      "name": "Москва",
      "lat": 55.75,
      "lng": 37.62
    },
    "category": "Культура и религия"
  },
  {
    "title": "- восстание в козлове - козлов",
    "date": "1648 год",
    "description": "* ** 1648 год ** - Восстание в Козлове - Козлов (Мичуринск)",
    "location": {
      "name": "Козлов (Мичуринск)",
      "lat": 63.04585396463959,
      "lng": 43.0590300185256
    },
    "category": "Революции и перевороты"
  },
  {
    "title": "- восстание в курске - курск",
    "date": "1648 год",
    "description": "* ** 1648 год ** - Восстание в Курске - Курск",
    "location": {
      "name": "Курск",
      "lat": 50.53791045394516,
      "lng": 49.97681068892674
    },
    "category": "Революции и перевороты"
  },
  {
    "title": "- восстание в сольвычегодске - сольвычегодск",
    "date": "1648 год",
    "description": "* ** 1648 год ** - Восстание в Сольвычегодске - Сольвычегодск",
    "location": {
      "name": "Сольвычегодск",
      "lat": 54.34125244748937,
      "lng": 32.07749504613684
    },
    "category": "Революции и перевороты"
  },
  {
    "title": "- принятие соборного уложения - москва",
    "date": "1649 год",
    "description": "* ** 1649 год ** - Принятие Соборного уложения - Москва",
    "location": {
      "name": "Москва",
      "lat": 55.75,
      "lng": 37.62
    },
    "category": "Культура и религия"
  },
  {
    "title": "Год ** - установление бессрочного сыска беглых",
    "date": "1649 год",
    "description": "* ** 1649 год ** - Установление бессрочного сыска беглых крестьян - Русское царство",
    "location": {
      "name": "Русское царство",
      "lat": 51.85000155304054,
      "lng": 36.32890540417487
    },
    "category": "Территориальные приобретения"
  },
  {
    "title": "Год ** - начало церковной реформы патриарха",
    "date": "1653 год",
    "description": "* ** 1653 год ** - Начало церковной реформы патриарха Никона - Москва",
    "location": {
      "name": "Москва",
      "lat": 55.75,
      "lng": 37.62
    },
    "category": "Культура и религия"
  },
  {
    "title": "- русско-польская война - территория современных россии",
    "date": "1654-1667",
    "description": "* ** 1654-1667 годы** - Русско-польская война - Территория современных России, Украины, Белоруссии",
    "location": {
      "name": "Украина",
      "lat": 50.45,
      "lng": 30.52
    },
    "category": "Войны и сражения"
  },
  {
    "title": "Год ** - переяславская рада - переяслав",
    "date": "1654 год",
    "description": "* ** 1654 год ** - Переяславская Рада - Переяслав (Переяслав-Хмельницкий)",
    "location": {
      "name": "Переяслав-Хмельницкий",
      "lat": 54.85635225060445,
      "lng": 39.90495933284848
    },
    "category": "Основание городов"
  },
  {
    "title": "- русско-шведская война - прибалтика",
    "date": "1656-1658",
    "description": "* ** 1656-1658 годы** - Русско-шведская война - Прибалтика",
    "location": {
      "name": "Прибалтика",
      "lat": 61.885281491034135,
      "lng": 47.10095851017398
    },
    "category": "Войны и сражения"
  },
  {
    "title": "Год ** - конфликт между алексеем михайловичем",
    "date": "1658 год",
    "description": "* ** 1658 год ** - Конфликт между Алексеем Михайловичем и патриархом Никоном - Москва",
    "location": {
      "name": "Москва",
      "lat": 55.75,
      "lng": 37.62
    },
    "category": "Культура и религия"
  },
  {
    "title": "Год ** - медный бунт - москва",
    "date": "1662 год",
    "description": "* ** 1662 год ** - Медный бунт - Москва",
    "location": {
      "name": "Москва",
      "lat": 55.75,
      "lng": 37.62
    },
    "category": "Революции и перевороты"
  },
  {
    "title": "Годы** - церковный собор, осудивший старообрядцев -",
    "date": "1666-1667",
    "description": "* ** 1666-1667 годы** - Церковный собор, осудивший старообрядцев - Москва",
    "location": {
      "name": "Москва",
      "lat": 55.75,
      "lng": 37.62
    },
    "category": "Культура и религия"
  },
  {
    "title": "- андрусовское перемирие - андрусово",
    "date": "1667 год",
    "description": "* ** 1667 год ** - Андрусовское перемирие - Андрусово (Смоленская область)",
    "location": {
      "name": "Андрусово",
      "lat": 64.90525946115955,
      "lng": 35.74751606190799
    },
    "category": "Дипломатические события"
  },
  {
    "title": "Год ** - новоторговый устав - москва",
    "date": "1667 год",
    "description": "* ** 1667 год ** - Новоторговый устав - Москва",
    "location": {
      "name": "Москва",
      "lat": 55.75,
      "lng": 37.62
    },
    "category": "Социальные реформы"
  },
  {
    "title": "- создание регулярных войск - русское царство",
    "date": "1667 год",
    "description": "* ** 1667 год ** - Создание регулярных войск - Русское царство",
    "location": {
      "name": "Москва",
      "lat": 55.75,
      "lng": 37.62
    },
    "category": "Политические реформы"
  },
  {
    "title": "- соловецкое восстание - соловецкий монастырь",
    "date": "1668-1676",
    "description": "* ** 1668-1676 годы** - Соловецкое восстание - Соловецкий монастырь",
    "location": {
      "name": "Соловецкий монастырь",
      "lat": 53.16125194195654,
      "lng": 38.621203381674285
    },
    "category": "Культура и религия"
  },
  {
    "title": "- восстание степана разина - юг россии",
    "date": "1670-1671",
    "description": "* ** 1670-1671 годы** - Восстание Степана Разина - Юг России, Поволжье",
    "location": {
      "name": "Юг России, Поволжье",
      "lat": 62.22383317530143,
      "lng": 31.414047661321423
    },
    "category": "Революции и перевороты"
  },
  {
    "title": "Год ** - взятие царицына войсками степана",
    "date": "1670 год",
    "description": "* ** 1670 год ** - Взятие Царицына войсками Степана Разина - Царицын (Волгоград)",
    "location": {
      "name": "Царицын (Волгоград)",
      "lat": 48.7,
      "lng": 44.52
    },
    "category": "Политические реформы"
  },
  {
    "title": "Год ** - казнь степана разина -",
    "date": "1671 год",
    "description": "* ** 1671 год ** - Казнь Степана Разина - Москва",
    "location": {
      "name": "Москва",
      "lat": 55.75,
      "lng": 37.62
    },
    "category": "Восстания и бунты"
  },
  {
    "title": "- смерть алексея михайловича - москва",
    "date": "1676 год",
    "description": "* ** 1676 год ** - Смерть Алексея Михайловича - Москва",
    "location": {
      "name": "Москва",
      "lat": 55.75,
      "lng": 37.62
    },
    "category": "Войны и сражения"
  },
  {
    "title": "Год ** - начало русско-турецкой войны (1676-1681",
    "date": "1676 год",
    "description": "* ** 1676 год ** - Начало русско-турецкой войны (1676-1681) - Юг России, Украина",
    "location": {
      "name": "Юг России, Украина",
      "lat": 50.45,
      "lng": 30.52
    },
    "category": "Становление государства"
  },
  {
    "title": "Год** - начало русско-турецкой войны ( 1676-1681",
    "date": "1676-1681",
    "description": "* **1676 год** - Начало русско-турецкой войны ( 1676-1681 ) - Юг России, Украина",
    "location": {
      "name": "Юг России, Украина",
      "lat": 50.45,
      "lng": 30.52
    },
    "category": "Дипломатические события"
  },
  {
    "title": "Год ** - взятие чигирина русскими войсками",
    "date": "1676 год",
    "description": "* ** 1676 год ** - Взятие Чигирина русскими войсками - Чигирин (Украина)",
    "location": {
      "name": "Чигирин (Украина)",
      "lat": 50.45,
      "lng": 30.52
    },
    "category": "Войны и сражения"
  },
  {
    "title": "Годы** - подворная подать - русское царство",
    "date": "1679-1680",
    "description": "* ** 1679-1680 годы** - Подворная подать - Русское царство",
    "location": {
      "name": "Русское царство",
      "lat": 54.83670335448379,
      "lng": 49.100882129724056
    },
    "category": "Социальные реформы"
  },
  {
    "title": "Русско-польская война** - **территория речи посполитой, украина",
    "date": "1654-1667",
    "description": "* ** 1654-1667 ** - **Русско-польская война** - **Территория Речи Посполитой, Украина, Россия**",
    "location": {
      "name": "Украина",
      "lat": 50.45,
      "lng": 30.52
    },
    "category": "Войны и сражения"
  },
  {
    "title": "Русско-шведская война** - **прибалтика**",
    "date": "1656-1658",
    "description": "* ** 1656-1658 ** - **Русско-шведская война** - **Прибалтика**",
    "location": {
      "name": "Прибалтика",
      "lat": 59.53991201995566,
      "lng": 41.006406899148914
    },
    "category": "Войны и сражения"
  },
  {
    "title": "Указ об отмене урочных лет для сыска",
    "date": "1649",
    "description": "* ** 1649 ** - **Указ об отмене урочных лет для сыска беглых крестьян** - **Россия**",
    "location": {
      "name": "Москва",
      "lat": 55.75,
      "lng": 37.62
    },
    "category": "Территориальные приобретения"
  },
  {
    "title": "Медный бунт** - **москва**",
    "date": "1662",
    "description": "* ** 1662 ** - **Медный бунт** - **Москва**",
    "location": {
      "name": "Москва",
      "lat": 55.75,
      "lng": 37.62
    },
    "category": "Революции и перевороты"
  },
  {
    "title": "Новоторговый устав** - **россия**",
    "date": "1667",
    "description": "* ** 1667 ** - **Новоторговый устав** - **Россия**",
    "location": {
      "name": "Москва",
      "lat": 55.75,
      "lng": 37.62
    },
    "category": "Социальные реформы"
  },
  {
    "title": "Церковный собор, утвердивший реформы никона** - **москва**",
    "date": "1653",
    "description": "* ** 1653 ** - **Церковный собор, утвердивший реформы Никона** - **Москва**",
    "location": {
      "name": "Москва",
      "lat": 55.75,
      "lng": 37.62
    },
    "category": "Культура и религия"
  },
  {
    "title": "Переяславская рада** - **переяслав**",
    "date": "1654",
    "description": "* ** 1654 ** - **Переяславская рада** - **Переяслав**",
    "location": {
      "name": "Переяслав",
      "lat": 54.40539876529271,
      "lng": 29.264152743798896
    },
    "category": "Основание городов"
  },
  {
    "title": "Большой московский собор** - **москва**",
    "date": "1666-1667",
    "description": "* ** 1666-1667 ** - **Большой Московский собор** - **Москва**",
    "location": {
      "name": "Москва",
      "lat": 55.75,
      "lng": 37.62
    },
    "category": "Культура и религия"
  },
  {
    "title": "Восстание степана разина** - **дон, поволжье**",
    "date": "1670-1671",
    "description": "* ** 1670-1671 ** - **Восстание Степана Разина** - **Дон, Поволжье**",
    "location": {
      "name": "Дон, Поволжье",
      "lat": 52.873839109629735,
      "lng": 31.000996520083024
    },
    "category": "Революции и перевороты"
  },
  {
    "title": "Основание нерчинского острога** - **забайкалье**",
    "date": "1656",
    "description": "* ** 1656 ** - **Основание Нерчинского острога** - **Забайкалье**",
    "location": {
      "name": "Забайкалье",
      "lat": 57.690819190315764,
      "lng": 27.00150630675111
    },
    "category": "Социальные реформы"
  },
  {
    "title": "Принятие соборного уложения** - **москва**",
    "date": "1649",
    "description": "* ** 1649 ** - **Принятие Соборного Уложения** - **Москва**",
    "location": {
      "name": "Москва",
      "lat": 55.75,
      "lng": 37.62
    },
    "category": "Культура и религия"
  },
  {
    "title": "Патриаршество никона** - **москва**",
    "date": "1652-1666",
    "description": "* ** 1652-1666 ** - **Патриаршество Никона** - **Москва**",
    "location": {
      "name": "Москва",
      "lat": 55.75,
      "lng": 37.62
    },
    "category": "Социальные реформы"
  },
  {
    "title": "Смоленский поход алексея михайловича** - **смоленск**",
    "date": "1654",
    "description": "* ** 1654 ** - **Смоленский поход Алексея Михайловича** - **Смоленск**",
    "location": {
      "name": "Смоленск",
      "lat": 54.78,
      "lng": 32.05
    },
    "category": "Изменения границ"
  },
  {
    "title": "Учреждение приказа тайных дел** - **москва**",
    "date": "1667",
    "description": "* ** 1667 ** - **Учреждение Приказа тайных дел** - **Москва**",
    "location": {
      "name": "Москва",
      "lat": 55.75,
      "lng": 37.62
    },
    "category": "Культура и религия"
  },
  {
    "title": "Эпидемия чумы** - **россия**",
    "date": "1654-1655",
    "description": "* ** 1654-1655 ** - **Эпидемия чумы** - **Россия**",
    "location": {
      "name": "Москва",
      "lat": 55.75,
      "lng": 37.62
    },
    "category": "Социальные реформы"
  },
  {
    "title": "Первое представление придворного театра** - **москва, преображенское**",
    "date": "1672",
    "description": "* ** 1672 ** - **Первое представление придворного театра** - **Москва, Преображенское**",
    "location": {
      "name": "Преображенское",
      "lat": 49.79880420913791,
      "lng": 38.62294834340372
    },
    "category": "Культура и религия"
  },
  {
    "title": "Псковское восстание** - **псков**",
    "date": "1650",
    "description": "* ** 1650 ** - **Псковское восстание** - **Псков**",
    "location": {
      "name": "Псков",
      "lat": 57.82,
      "lng": 28.33
    },
    "category": "Революции и перевороты"
  },
  {
    "title": "Новгородское восстание** - **новгород**",
    "date": "1650",
    "description": "* ** 1650 ** - **Новгородское восстание** - **Новгород**",
    "location": {
      "name": "Новгород",
      "lat": 58.52,
      "lng": 31.27
    },
    "category": "Революции и перевороты"
  }
]