[
  {
    "title": "Год ** - **стоглавый собор** - москва",
    "date": "1551 год",
    "description": "* ** 1551 год ** - **Стоглавый собор** - Москва",
    "location": {
      "name": "Москва",
      "lat": 55.75,
      "lng": 37.62
    },
    "category": "Культура и религия"
  },
  {
    "title": "Е - 1640-е годы** - **деятельность кружка",
    "date": "1620",
    "description": "* ** 1620 -е - 1640-е годы** - **Деятельность кружка \"ревнителей благочестия\"** - Москва",
    "location": {
      "name": "Москва",
      "lat": 55.75,
      "lng": 37.62
    },
    "category": "Социальные реформы"
  },
  {
    "title": "Е - 1640 -е годы** - **деятельность",
    "date": "1640",
    "description": "* **1620-е - 1640 -е годы** - **Деятельность кружка \"ревнителей благочестия\"** - Москва",
    "location": {
      "name": "Москва",
      "lat": 55.75,
      "lng": 37.62
    },
    "category": "Политические реформы"
  },
  {
    "title": "Год ** - **назначение никона архимандритом новоспасского",
    "date": "1646 год",
    "description": "* ** 1646 год ** - **Назначение Никона архимандритом Новоспасского монастыря** - Москва",
    "location": {
      "name": "Москва",
      "lat": 55.75,
      "lng": 37.62
    },
    "category": "Культура и религия"
  },
  {
    "title": "Год ** - **\"уложение\" царя алексея михайловича**",
    "date": "1649 год",
    "description": "* ** 1649 год ** - **\"Уложение\" царя Алексея Михайловича** - Москва",
    "location": {
      "name": "Москва",
      "lat": 55.75,
      "lng": 37.62
    },
    "category": "Революции и перевороты"
  },
  {
    "title": "Год , 25 июля** - **избрание никона",
    "date": "1652 год",
    "description": "* ** 1652 год , 25 июля** - **Избрание Никона патриархом Московским и всея Руси** - Москва",
    "location": {
      "name": "Москва",
      "lat": 55.75,
      "lng": 37.62
    },
    "category": "Культура и религия"
  },
  {
    "title": "Год ** - **начало церковной реформы никона**",
    "date": "1653 год",
    "description": "* ** 1653 год ** - **Начало церковной реформы Никона** - Москва",
    "location": {
      "name": "Москва",
      "lat": 55.75,
      "lng": 37.62
    },
    "category": "Культура и религия"
  },
  {
    "title": "Год ** - **церковный собор, одобривший реформы",
    "date": "1654 год",
    "description": "* ** 1654 год ** - **Церковный собор, одобривший реформы Никона** - Москва",
    "location": {
      "name": "Москва",
      "lat": 55.75,
      "lng": 37.62
    },
    "category": "Культура и религия"
  },
  {
    "title": "Активное сопротивление реформам никона",
    "date": "1654-1666",
    "description": "* ** 1654-1666 годы** - **Активное сопротивление реформам Никона** - Разные регионы России",
    "location": {
      "name": "Разные регионы России",
      "lat": 63.63943685010632,
      "lng": 40.228170957409766
    },
    "category": "Социальные реформы"
  },
  {
    "title": "Год ** - **анафема на двоеперстие на",
    "date": "1656 год",
    "description": "* ** 1656 год ** - **Анафема на двоеперстие на Московском соборе** - Москва",
    "location": {
      "name": "Москва",
      "lat": 55.75,
      "lng": 37.62
    },
    "category": "Культура и религия"
  },
  {
    "title": "Год ** - **отъезд никона из москвы",
    "date": "1658 год",
    "description": "* ** 1658 год ** - **Отъезд Никона из Москвы и сложение патриарших полномочий** - Москва, Воскресенский (Новоиерусалимский) монастырь",
    "location": {
      "name": "Москва, Воскресенский (Новоиерусалимский) монастырь",
      "lat": 55.75,
      "lng": 37.62
    },
    "category": "Культура и религия"
  },
  {
    "title": "Год ** - **медный бунт** - москва",
    "date": "1662 год",
    "description": "* ** 1662 год ** - **Медный бунт** - Москва",
    "location": {
      "name": "Москва",
      "lat": 55.75,
      "lng": 37.62
    },
    "category": "Революции и перевороты"
  },
  {
    "title": "Годы** - **большой московский собор** - москва",
    "date": "1666-1667",
    "description": "* ** 1666-1667 годы** - **Большой Московский собор** - Москва",
    "location": {
      "name": "Москва",
      "lat": 55.75,
      "lng": 37.62
    },
    "category": "Культура и религия"
  },
  {
    "title": "После собора 1666-1667 годов: преследования и развитие",
    "date": "1666-1667",
    "description": "**После Собора 1666-1667 годов: Преследования и развитие старообрядчества:**",
    "location": {
      "name": "Москва",
      "lat": 55.75,
      "lng": 37.62
    },
    "category": "Культура и религия"
  },
  {
    "title": "Год ** - **ссылка протопопа аввакума в",
    "date": "1667 год",
    "description": "* ** 1667 год ** - **Ссылка протопопа Аввакума в Пустозерск** - Пустозерск (современный Нарьян-Мар)",
    "location": {
      "name": "Пустозерск",
      "lat": 60.05308415192897,
      "lng": 37.35363390525215
    },
    "category": "Восстания и бунты"
  },
  {
    "title": "Годы** - **восстание степана разина** - юг",
    "date": "1670-1671",
    "description": "* ** 1670-1671 годы** - **Восстание Степана Разина** - Юг России",
    "location": {
      "name": "Юг России",
      "lat": 48.092312218660815,
      "lng": 41.48550191531342
    },
    "category": "Революции и перевороты"
  },
  {
    "title": "Год ** - **соловецкое восстание** - соловецкий",
    "date": "1676 год",
    "description": "* ** 1676 год ** - **Соловецкое восстание** - Соловецкий монастырь",
    "location": {
      "name": "Соловецкий монастырь",
      "lat": 58.64095810440523,
      "lng": 41.9308757494956
    },
    "category": "Культура и религия"
  },
  {
    "title": "Год ** - **казнь протопопа аввакума и",
    "date": "1682 год",
    "description": "* ** 1682 год ** - **Казнь протопопа Аввакума и его соратников** - Пустозерск",
    "location": {
      "name": "Пустозерск",
      "lat": 52.636976661034964,
      "lng": 32.76111687274749
    },
    "category": "Войны и сражения"
  },
  {
    "title": "Год ** - **стрелецкий бунт** - москва",
    "date": "1682 год",
    "description": "* ** 1682 год ** - **Стрелецкий бунт** - Москва",
    "location": {
      "name": "Москва",
      "lat": 55.75,
      "lng": 37.62
    },
    "category": "Революции и перевороты"
  },
  {
    "title": "Годы** - **\"12 статей\" софьи алексеевны против",
    "date": "1685-1689",
    "description": "* ** 1685-1689 годы** - **\"12 статей\" Софьи Алексеевны против старообрядцев** - Москва",
    "location": {
      "name": "Москва",
      "lat": 55.75,
      "lng": 37.62
    },
    "category": "Основание городов"
  },
  {
    "title": "Год ** - **подавление стрелецкого бунта петром",
    "date": "1698 год",
    "description": "* ** 1698 год ** - **Подавление стрелецкого бунта Петром I** - Москва",
    "location": {
      "name": "Москва",
      "lat": 55.75,
      "lng": 37.62
    },
    "category": "Революции и перевороты"
  },
  {
    "title": "Год ** - **указ петра i о",
    "date": "1716 год",
    "description": "* ** 1716 год ** - **Указ Петра I о введении двойного оклада для старообрядцев** - Российская империя",
    "location": {
      "name": "Российская империя",
      "lat": 63.797562090852026,
      "lng": 28.57574691400459
    },
    "category": "Дипломатические события"
  },
  {
    "title": "Год ** - **учреждение синода** - санкт-петербург",
    "date": "1722 год",
    "description": "* ** 1722 год ** - **Учреждение Синода** - Санкт-Петербург",
    "location": {
      "name": "Санкт-Петербург",
      "lat": 59.94,
      "lng": 30.31
    },
    "category": "Восстания и бунты"
  },
  {
    "title": "Год , 17 апреля** - **указ николая",
    "date": "1905 год",
    "description": "* ** 1905 год , 17 апреля** - **Указ Николая II \"Об укреплении начал веротерпимости\"** - Российская империя",
    "location": {
      "name": "Санкт-Петербург",
      "lat": 59.94,
      "lng": 30.31
    },
    "category": "Становление государства"
  },
  {
    "title": "Год ** - **поместный собор русской православной",
    "date": "1917 год",
    "description": "* ** 1917 год ** - **Поместный собор Русской православной церкви** - Москва",
    "location": {
      "name": "Москва",
      "lat": 55.75,
      "lng": 37.62
    },
    "category": "Культура и религия"
  },
  {
    "title": "Год ** - **снятие анафем со старообрядцев",
    "date": "1971 год",
    "description": "* ** 1971 год ** - **Снятие анафем со старообрядцев Русской православной церковью** - Москва",
    "location": {
      "name": "Москва",
      "lat": 55.75,
      "lng": 37.62
    },
    "category": "Культура и религия"
  },
  {
    "title": "Год ** - **большой московский собор** -",
    "date": "1656 год",
    "description": "* ** 1656 год ** - **Большой Московский собор** - Москва, Русское царство",
    "location": {
      "name": "Москва",
      "lat": 55.75,
      "lng": 37.62
    },
    "category": "Культура и религия"
  },
  {
    "title": "Годы** - **великий московский собор** - москва",
    "date": "1666-1667",
    "description": "* ** 1666-1667 годы** - **Великий Московский собор** - Москва, Русское царство",
    "location": {
      "name": "Москва",
      "lat": 55.75,
      "lng": 37.62
    },
    "category": "Культура и религия"
  },
  {
    "title": "Восстание было жестоко подавлено царскими войсками в",
    "date": "в 1676",
    "description": "Восстание было жестоко подавлено царскими войсками в 1676 году",
    "location": {
      "name": "Соловецкий монастырь",
      "lat": 56.36308774719247,
      "lng": 30.31669680603841
    },
    "category": "Революции и перевороты"
  },
  {
    "title": "Годы** - **московский собор (собор о раскольниках)**",
    "date": "1681-1682",
    "description": "* ** 1681-1682 годы** - **Московский собор (Собор о раскольниках)** - Москва, Русское царство",
    "location": {
      "name": "Москва",
      "lat": 55.75,
      "lng": 37.62
    },
    "category": "Культура и религия"
  },
  {
    "title": "Год ** - **смерть протопопа аввакума** -",
    "date": "1682 год",
    "description": "* ** 1682 год ** - **Смерть протопопа Аввакума** - Пустозерск, Русское царство",
    "location": {
      "name": "Пустозерск",
      "lat": 56.95903022547077,
      "lng": 31.30416837258778
    },
    "category": "Культура и религия"
  },
  {
    "title": "Год ** - **\"12 статей\" царевны софьи**",
    "date": "1685 год",
    "description": "* ** 1685 год ** - **\"12 статей\" царевны Софьи** - Москва, Русское царство",
    "location": {
      "name": "Москва",
      "lat": 55.75,
      "lng": 37.62
    },
    "category": "Восстания и бунты"
  },
  {
    "title": "Год ** - **раскольничий бунт в москве**",
    "date": "1698 год",
    "description": "* ** 1698 год ** - **Раскольничий бунт в Москве** - Москва, Русское царство",
    "location": {
      "name": "Москва",
      "lat": 55.75,
      "lng": 37.62
    },
    "category": "Революции и перевороты"
  },
  {
    "title": "Год ** - **создание раскольнической конторы** -",
    "date": "1722 год",
    "description": "* ** 1722 год ** - **Создание Раскольнической конторы** - Санкт-Петербург, Российская империя",
    "location": {
      "name": "Санкт-Петербург",
      "lat": 59.94,
      "lng": 30.31
    },
    "category": "Становление государства"
  },
  {
    "title": "Год ** - **первые старообрядческие типографии** -",
    "date": "1723 год",
    "description": "* ** 1723 год ** - **Первые старообрядческие типографии** - Польша (Ветка), Речь Посполитая",
    "location": {
      "name": "Ветка",
      "lat": 52.96841619173139,
      "lng": 42.58838132142029
    },
    "category": "Становление государства"
  },
  {
    "title": "Год ** - **донское казачье восстание** -",
    "date": "1737 год",
    "description": "* ** 1737 год ** - **Донское казачье восстание** - Дон, Российская империя",
    "location": {
      "name": "Дон",
      "lat": 47.23,
      "lng": 39.72
    },
    "category": "Революции и перевороты"
  },
  {
    "title": "Год ** - **манифест екатерины ii о",
    "date": "1762 год",
    "description": "* ** 1762 год ** - **Манифест Екатерины II о дозволении возвращения старообрядцев из-за границы** - Российская империя",
    "location": {
      "name": "Санкт-Петербург",
      "lat": 59.94,
      "lng": 30.31
    },
    "category": "Изменения границ"
  },
  {
    "title": "Год ** - **жалованная грамота дворянству** -",
    "date": "1785 год",
    "description": "* ** 1785 год ** - **Жалованная грамота дворянству** - Российская империя",
    "location": {
      "name": "Санкт-Петербург",
      "lat": 59.94,
      "lng": 30.31
    },
    "category": "Экономические события"
  },
  {
    "title": "Год ** - **белокриницкая иерархия** - белая",
    "date": "1848 год",
    "description": "* ** 1848 год ** - **Белокриницкая иерархия** - Белая Криница, Австрийская империя (ныне Украина)",
    "location": {
      "name": "Белая Криница",
      "lat": 58.78824448144243,
      "lng": 35.425680046403656
    },
    "category": "Войны и сражения"
  },
  {
    "title": "Год ** - **указ \"об укреплении начал",
    "date": "1905 год",
    "description": "* ** 1905 год ** - **Указ \"Об укреплении начал веротерпимости\"** - Российская империя",
    "location": {
      "name": "Санкт-Петербург",
      "lat": 59.94,
      "lng": 30.31
    },
    "category": "Изменения границ"
  },
  {
    "title": "Год ** - **снятие анафем с дониконовских",
    "date": "1971 год",
    "description": "* ** 1971 год ** - **Снятие анафем с дониконовских обрядов** - Русская Православная Церковь",
    "location": {
      "name": "Москва",
      "lat": 55.75,
      "lng": 37.62
    },
    "category": "Культура и религия"
  },
  {
    "title": "Год ** - **1000-летие крещения руси** -",
    "date": "1988 год",
    "description": "* ** 1988 год ** - **1000-летие Крещения Руси** - СССР",
    "location": {
      "name": "Киев",
      "lat": 50.45,
      "lng": 30.52
    },
    "category": "Изменения границ"
  },
  {
    "title": "Год** - ** 1000 -летие крещения руси**",
    "date": "1000",
    "description": "* **1988 год** - ** 1000 -летие Крещения Руси** - СССР",
    "location": {
      "name": "Киев",
      "lat": 50.45,
      "lng": 30.52
    },
    "category": "Революции и перевороты"
  },
  {
    "title": "Празднование 1000 -летия крещения руси, которое способствовало",
    "date": "1000",
    "description": "* Празднование 1000 -летия Крещения Руси, которое способствовало росту религиозного самосознания и интереса к истории церкви, включая историю раскола",
    "location": {
      "name": "Киев",
      "lat": 50.45,
      "lng": 30.52
    },
    "category": "Культура и религия"
  },
  {
    "title": "Год ** - **освященный юбилейный собор русской",
    "date": "2000 год",
    "description": "* ** 2000 год ** - **Освященный юбилейный Собор Русской Православной Старообрядческой Церкви** - Москва, Россия",
    "location": {
      "name": "Москва",
      "lat": 55.75,
      "lng": 37.62
    },
    "category": "Культура и религия"
  }
]