[
  {
    "title": "Год ** - первое упоминание о русах",
    "date": "839 год",
    "description": "* ** 839 год ** - Первое упоминание о русах в западных источниках (Бертинские анналы) - Ингельхайм (Франкская империя)",
    "location": {
      "name": "Ингельхайм",
      "lat": 62.06054419269636,
      "lng": 45.43942035849595
    },
    "category": "Войны и сражения"
  },
  {
    "title": "Год ** - варяги берут дань с",
    "date": "859 год",
    "description": "* ** 859 год ** - Варяги берут дань с чуди, словен, мери, веси и кривичей - Новгородская земля",
    "location": {
      "name": "Новгородская земля",
      "lat": 58.52,
      "lng": 31.27
    },
    "category": "Экономические события"
  },
  {
    "title": "Год ** - призвание варягов (рюрика с",
    "date": "862 год",
    "description": "* ** 862 год ** - Призвание варягов (Рюрика с братьями) - Новгород",
    "location": {
      "name": "Новгород",
      "lat": 58.52,
      "lng": 31.27
    },
    "category": "Становление государства"
  },
  {
    "title": "Годы** - правление рюрика в новгороде -",
    "date": "862",
    "description": "* ** 862 -879 годы** - Правление Рюрика в Новгороде - Новгород",
    "location": {
      "name": "Новгород",
      "lat": 58.52,
      "lng": 31.27
    },
    "category": "Изменения границ"
  },
  {
    "title": "- восстание вадима храброго - новгород",
    "date": "864 год",
    "description": "* ** 864 год ** - Восстание Вадима Храброго - Новгород",
    "location": {
      "name": "Новгород",
      "lat": 58.52,
      "lng": 31.27
    },
    "category": "Революции и перевороты"
  },
  {
    "title": "- смерть рюрика - новгород",
    "date": "879 год",
    "description": "* ** 879 год ** - Смерть Рюрика - Новгород",
    "location": {
      "name": "Новгород",
      "lat": 58.52,
      "lng": 31.27
    },
    "category": "Восстания и бунты"
  },
  {
    "title": "Годы** - правление олега - новгород, киев",
    "date": "879",
    "description": "* ** 879 -912 годы** - Правление Олега - Новгород, Киев",
    "location": {
      "name": "Новгород, Киев",
      "lat": 50.45,
      "lng": 30.52
    },
    "category": "Экономические события"
  },
  {
    "title": "Год ** - захват киева олегом -",
    "date": "882 год",
    "description": "* ** 882 год ** - Захват Киева Олегом - Киев",
    "location": {
      "name": "Киев",
      "lat": 50.45,
      "lng": 30.52
    },
    "category": "Революции и перевороты"
  },
  {
    "title": "Годы** - подчинение олегом древлян, северян и",
    "date": "883",
    "description": "* ** 883 -885 годы** - Подчинение Олегом древлян, северян и радимичей - Восточная Европа",
    "location": {
      "name": "Восточная Европа",
      "lat": 50.0,
      "lng": 10.0
    },
    "category": "Дипломатические события"
  },
  {
    "title": "Год ** - первый поход олега на",
    "date": "907 год",
    "description": "* ** 907 год ** - Первый поход Олега на Константинополь - Константинополь (Царьград)",
    "location": {
      "name": "Константинополь",
      "lat": 41.01,
      "lng": 28.97
    },
    "category": "Становление государства"
  },
  {
    "title": "- заключение нового договора с византией - константинополь",
    "date": "911 год",
    "description": "* ** 911 год ** - Заключение нового договора с Византией - Константинополь (Царьград)",
    "location": {
      "name": "Константинополь",
      "lat": 41.01,
      "lng": 28.97
    },
    "category": "Дипломатические события"
  },
  {
    "title": "Годы** - правление игоря - киев",
    "date": "912",
    "description": "* ** 912 -945 годы** - Правление Игоря - Киев",
    "location": {
      "name": "Киев",
      "lat": 50.45,
      "lng": 30.52
    },
    "category": "Изменения границ"
  },
  {
    "title": "Год ** - первое столкновение с печенегами",
    "date": "915 год",
    "description": "* ** 915 год ** - Первое столкновение с печенегами - Южные границы Руси",
    "location": {
      "name": "Южные границы Руси",
      "lat": 49.72599672975331,
      "lng": 39.285914051084546
    },
    "category": "Изменения границ"
  },
  {
    "title": "Год ** - поход игоря на константинополь",
    "date": "941 год",
    "description": "* ** 941 год ** - Поход Игоря на Константинополь - Константинополь (Царьград)",
    "location": {
      "name": "Константинополь",
      "lat": 41.01,
      "lng": 28.97
    },
    "category": "Становление государства"
  },
  {
    "title": "Год ** - убийство игоря древлянами -",
    "date": "945 год",
    "description": "* ** 945 год ** - Убийство Игоря древлянами - Около Искоростеня",
    "location": {
      "name": "Около Искоростеня",
      "lat": 57.24324594528341,
      "lng": 38.211695052816005
    },
    "category": "Восстания и бунты"
  },
  {
    "title": "Годы** - правление ольги - киев",
    "date": "945",
    "description": "* ** 945 -964 годы** - Правление Ольги - Киев",
    "location": {
      "name": "Киев",
      "lat": 50.45,
      "lng": 30.52
    },
    "category": "Научные достижения"
  },
  {
    "title": "Год ** - месть ольги древлянам -",
    "date": "946 год",
    "description": "* ** 946 год ** - Месть Ольги древлянам - Искоростень и другие древлянские города",
    "location": {
      "name": "Искоростень",
      "lat": 59.96034331247657,
      "lng": 40.86372416048639
    },
    "category": "Социальные реформы"
  },
  {
    "title": "Год ** - установление \"уроков\" и \"погостов\"",
    "date": "947 год",
    "description": "* ** 947 год ** - Установление \"уроков\" и \"погостов\" Ольгой - Киевская земля",
    "location": {
      "name": "Киевская земля",
      "lat": 50.45,
      "lng": 30.52
    },
    "category": "Военные кампании"
  },
  {
    "title": "Годы** - правление святослава - киев",
    "date": "964",
    "description": "* ** 964 -972 годы** - Правление Святослава - Киев",
    "location": {
      "name": "Киев",
      "lat": 50.45,
      "lng": 30.52
    },
    "category": "Социальные реформы"
  },
  {
    "title": "Год ** - разгром хазарского каганата святославом",
    "date": "965 год",
    "description": "* ** 965 год ** - Разгром Хазарского каганата Святославом - Нижнее Поволжье",
    "location": {
      "name": "Нижнее Поволжье",
      "lat": 62.70494986138287,
      "lng": 33.35842517196454
    },
    "category": "Становление государства"
  },
  {
    "title": "- война с византией за дунайскую болгарию - дунайская болгария",
    "date": "968",
    "description": "* ** 968 -969 годы** - Война с Византией за Дунайскую Болгарию - Дунайская Болгария",
    "location": {
      "name": "Дунайская Болгария",
      "lat": 47.19858851097185,
      "lng": 39.17333309117353
    },
    "category": "Войны и сражения"
  },
  {
    "title": "Год ** - осада киева печенегами -",
    "date": "969 год",
    "description": "* ** 969 год ** - Осада Киева печенегами - Киев",
    "location": {
      "name": "Киев",
      "lat": 50.45,
      "lng": 30.52
    },
    "category": "Войны и сражения"
  },
  {
    "title": "Год ** - поражение святослава от византийцев",
    "date": "971 год",
    "description": "* ** 971 год ** - Поражение Святослава от византийцев под Доростолом - Доростол (Силистра)",
    "location": {
      "name": "Доростол (Силистра)",
      "lat": 53.25626637411258,
      "lng": 42.85670708392087
    },
    "category": "Изменения границ"
  },
  {
    "title": "Год ** - убийство святослава печенегами -",
    "date": "972 год",
    "description": "* ** 972 год ** - Убийство Святослава печенегами - Днепровские пороги",
    "location": {
      "name": "Днепровские пороги",
      "lat": 60.2952355203442,
      "lng": 47.53733949897757
    },
    "category": "Основание городов"
  },
  {
    "title": "Олегом и владимиром",
    "date": "972",
    "description": "* ** 972 -980 годы** - Междоусобица между сыновьями Святослава (Ярополком, Олегом и Владимиром) - Киев, Овруч",
    "location": {
      "name": "Киев",
      "lat": 50.45,
      "lng": 30.52
    },
    "category": "Дипломатические события"
  },
  {
    "title": "- правление владимира святославича",
    "date": "980-1015",
    "description": "* ** 980-1015 годы** - Правление Владимира Святославича (Владимира I) - Киев",
    "location": {
      "name": "Киев",
      "lat": 50.45,
      "lng": 30.52
    },
    "category": "Дипломатические события"
  },
  {
    "title": "- языческая реформа владимира - киев",
    "date": "980 год",
    "description": "* ** 980 год ** - Языческая реформа Владимира - Киев",
    "location": {
      "name": "Киев",
      "lat": 50.45,
      "lng": 30.52
    },
    "category": "Социальные реформы"
  },
  {
    "title": "- крещение руси - киев",
    "date": "988 год",
    "description": "* ** 988 год ** - Крещение Руси - Киев, Корсунь (Херсонес)",
    "location": {
      "name": "Киев",
      "lat": 50.45,
      "lng": 30.52
    },
    "category": "Революции и перевороты"
  },
  {
    "title": "Год ** - **первое упоминание руси в",
    "date": "852 год",
    "description": "* ** 852 год ** - **Первое упоминание Руси в Бертинских анналах** - **Западная Европа (Франкское государство)**",
    "location": {
      "name": "Западная Европа",
      "lat": 50.0,
      "lng": 10.0
    },
    "category": "Становление государства"
  },
  {
    "title": "Год ** - **поход руси на амастриду**",
    "date": "860 год",
    "description": "* ** 860 год ** - **Поход Руси на Амастриду** - **Причерноморье (Амастрида, Византия)**",
    "location": {
      "name": "Причерноморье (Амастрида, Византия)",
      "lat": 51.03826956284886,
      "lng": 32.482421806058895
    },
    "category": "Становление государства"
  },
  {
    "title": "Год (предположительно)** - **изгнание варягов из новгорода**",
    "date": "862 год",
    "description": "* ** 862 год (предположительно)** - **Изгнание варягов из Новгорода** - **Новгород**",
    "location": {
      "name": "Новгород",
      "lat": 58.52,
      "lng": 31.27
    },
    "category": "Территориальные приобретения"
  },
  {
    "title": "Год ** - **начало миссии кирилла и",
    "date": "863 год",
    "description": "* ** 863 год ** - **Начало миссии Кирилла и Мефодия в Моравии** - **Моравия (Великая Моравия)**",
    "location": {
      "name": "Моравия",
      "lat": 54.510476802112734,
      "lng": 42.43605207523269
    },
    "category": "Основание городов"
  },
  {
    "title": "Год ** - **поход аскольда и дира",
    "date": "866 год",
    "description": "* ** 866 год ** - **Поход Аскольда и Дира на Константинополь** - **Константинополь (Византия)**",
    "location": {
      "name": "Константинополь",
      "lat": 41.01,
      "lng": 28.97
    },
    "category": "Военные кампании"
  },
  {
    "title": "Е годы** - **появление первых христианских общин",
    "date": "870",
    "description": "* ** 870 -е годы** - **Появление первых христианских общин в Киеве** - **Киев**",
    "location": {
      "name": "Киев",
      "lat": 50.45,
      "lng": 30.52
    },
    "category": "Культура и религия"
  },
  {
    "title": "Год ** - **убийство аскольда и дира",
    "date": "882 год",
    "description": "* ** 882 год ** - **Убийство Аскольда и Дира Олегом** - **Киев**",
    "location": {
      "name": "Киев",
      "lat": 50.45,
      "lng": 30.52
    },
    "category": "Территориальные приобретения"
  },
  {
    "title": "Годы** - **покорение олегом древлян, северян и",
    "date": "883",
    "description": "* ** 883 -885 годы** - **Покорение Олегом древлян, северян и радимичей** - **Восточная Европа (территории древлян, северян, радимичей)**",
    "location": {
      "name": "Восточная Европа",
      "lat": 50.0,
      "lng": 10.0
    },
    "category": "Изменения границ"
  },
  {
    "title": "Год ** - **первый поход олега на",
    "date": "907 год",
    "description": "* ** 907 год ** - **Первый поход Олега на Константинополь** - **Константинополь (Византия)**",
    "location": {
      "name": "Константинополь",
      "lat": 41.01,
      "lng": 28.97
    },
    "category": "Военные кампании"
  },
  {
    "title": "Заключение второго договора между русью и византией",
    "date": "911 год",
    "description": "* ** 911 год ** - **Заключение второго договора между Русью и Византией** - **Константинополь (Византия)**",
    "location": {
      "name": "Константинополь",
      "lat": 41.01,
      "lng": 28.97
    },
    "category": "Дипломатические события"
  },
  {
    "title": "Год ** - **первое столкновение руси с",
    "date": "915 год",
    "description": "* ** 915 год ** - **Первое столкновение Руси с печенегами** - **Южные границы Руси**",
    "location": {
      "name": "Южные границы Руси",
      "lat": 62.360270484864536,
      "lng": 29.46926534047156
    },
    "category": "Изменения границ"
  },
  {
    "title": "Год ** - **поход игоря на печенегов**",
    "date": "920 год",
    "description": "* ** 920 год ** - **Поход Игоря на печенегов** - **Южные границы Руси**",
    "location": {
      "name": "Южные границы Руси",
      "lat": 59.14959657176799,
      "lng": 28.289610622316072
    },
    "category": "Изменения границ"
  },
  {
    "title": "Год ** - **первый поход игоря на",
    "date": "941 год",
    "description": "* ** 941 год ** - **Первый поход Игоря на Константинополь** - **Константинополь (Византия)**",
    "location": {
      "name": "Константинополь",
      "lat": 41.01,
      "lng": 28.97
    },
    "category": "Основание городов"
  },
  {
    "title": "Заключение договора между русью и византией",
    "date": "944 год",
    "description": "* ** 944 год ** - **Заключение договора между Русью и Византией (после похода Игоря)** - **Константинополь (Византия)**",
    "location": {
      "name": "Константинополь",
      "lat": 41.01,
      "lng": 28.97
    },
    "category": "Дипломатические события"
  },
  {
    "title": "Год ** - **убийство игоря древлянами** -",
    "date": "945 год",
    "description": "* ** 945 год ** - **Убийство Игоря древлянами** - **Земля древлян**",
    "location": {
      "name": "Земля древлян",
      "lat": 45.62506539715418,
      "lng": 45.58897832403673
    },
    "category": "Социальные реформы"
  },
  {
    "title": "Год ** - **месть ольги древлянам** -",
    "date": "946 год",
    "description": "* ** 946 год ** - **Месть Ольги древлянам** - **Земля древлян (Искоростень)**",
    "location": {
      "name": "Искоростень",
      "lat": 52.002737469199424,
      "lng": 32.84299596945217
    },
    "category": "Экономические события"
  },
  {
    "title": "Год ** - **начало походов святослава** -",
    "date": "964 год",
    "description": "* ** 964 год ** - **Начало походов Святослава** - **Восточная Европа**",
    "location": {
      "name": "Восточная Европа",
      "lat": 50.0,
      "lng": 10.0
    },
    "category": "Военные кампании"
  },
  {
    "title": "Год ** - **разгром хазарского каганата святославом**",
    "date": "965 год",
    "description": "* ** 965 год ** - **Разгром Хазарского каганата Святославом** - **Поволжье**",
    "location": {
      "name": "Поволжье",
      "lat": 46.55231977611214,
      "lng": 30.635418344211708
    },
    "category": "Научные достижения"
  },
  {
    "title": "Годы** - **война святослава с болгарией** -",
    "date": "968",
    "description": "* ** 968 -969 годы** - **Война Святослава с Болгарией** - **Болгария**",
    "location": {
      "name": "Болгария",
      "lat": 55.70623187505014,
      "lng": 39.510240610943555
    },
    "category": "Войны и сражения"
  },
  {
    "title": "Год ** - **война святослава с византией**",
    "date": "971 год",
    "description": "* ** 971 год ** - **Война Святослава с Византией** - **Болгария (Доростол)**",
    "location": {
      "name": "Доростол",
      "lat": 47.27021504956423,
      "lng": 35.38271861559909
    },
    "category": "Войны и сражения"
  }
]