[
  {
    "title": "Вот максимально полный хронологический список важных исторических",
    "date": "1860-1870",
    "description": "Вот максимально полный хронологический список важных исторических событий по теме \"Александр II: реформы 1860-1870 -х годов\":",
    "location": {
      "name": "Санкт-Петербург",
      "lat": 59.94,
      "lng": 30.31
    },
    "category": "Социальные реформы"
  },
  {
    "title": "Февраля** - вступление александра ii на престол",
    "date": "1855",
    "description": "* ** 1855 , 19 февраля** - Вступление Александра II на престол - Санкт-Петербург",
    "location": {
      "name": "Санкт-Петербург",
      "lat": 59.94,
      "lng": 30.31
    },
    "category": "Революции и перевороты"
  },
  {
    "title": "- подписание парижского мирного договора - париж",
    "date": "1856",
    "description": "* ** 1856 , 30 марта** - Подписание Парижского мирного договора - Париж",
    "location": {
      "name": "Париж",
      "lat": 48.86,
      "lng": 2.35
    },
    "category": "Дипломатические события"
  },
  {
    "title": "Января** - секретный комитет \"для обсуждения мер",
    "date": "1857",
    "description": "* ** 1857 , 3 января** - Секретный комитет \"для обсуждения мер по устройству быта помещичьих крестьян\" - Санкт-Петербург",
    "location": {
      "name": "Санкт-Петербург",
      "lat": 59.94,
      "lng": 30.31
    },
    "category": "Изменения границ"
  },
  {
    "title": "Ноябрь** - рескрипт александра ii генерал-губернатору в",
    "date": "1857",
    "description": "* ** 1857 , ноябрь** - Рескрипт Александра II генерал-губернатору В",
    "location": {
      "name": "Санкт-Петербург",
      "lat": 59.94,
      "lng": 30.31
    },
    "category": "Военные кампании"
  },
  {
    "title": "Февраль** - рескрипт александра ii генерал-губернатору игнатьеву",
    "date": "1858",
    "description": "* ** 1858 , февраль** - Рескрипт Александра II генерал-губернатору Игнатьеву - Санкт-Петербург",
    "location": {
      "name": "Санкт-Петербург",
      "lat": 59.94,
      "lng": 30.31
    },
    "category": "Революции и перевороты"
  },
  {
    "title": "Февраль** - преобразование секретного комитета в главный",
    "date": "1858",
    "description": "* ** 1858 , февраль** - Преобразование Секретного комитета в Главный комитет по крестьянскому делу - Санкт-Петербург",
    "location": {
      "name": "Санкт-Петербург",
      "lat": 59.94,
      "lng": 30.31
    },
    "category": "Становление государства"
  },
  {
    "title": "Март** - образование редакционных комиссий под руководством",
    "date": "1859",
    "description": "* ** 1859 , март** - Образование Редакционных комиссий под руководством Я",
    "location": {
      "name": "Санкт-Петербург",
      "lat": 59.94,
      "lng": 30.31
    },
    "category": "Становление государства"
  },
  {
    "title": "- смерть я",
    "date": "1860",
    "description": "* ** 1860 , февраль** - Смерть Я",
    "location": {
      "name": "Санкт-Петербург",
      "lat": 59.94,
      "lng": 30.31
    },
    "category": "Территориальные приобретения"
  },
  {
    "title": "Октябрь** - завершение работы редакционных комиссий -",
    "date": "1860",
    "description": "* ** 1860 , октябрь** - Завершение работы Редакционных комиссий - Санкт-Петербург",
    "location": {
      "name": "Санкт-Петербург",
      "lat": 59.94,
      "lng": 30.31
    },
    "category": "Экономические события"
  },
  {
    "title": "- подписание манифеста об освобождении крестьян и",
    "date": "1861",
    "description": "* ** 1861 , 19 февраля** - Подписание Манифеста об освобождении крестьян и \"Положений о крестьянах, вышедших из крепостной зависимости\" - Санкт-Петербург",
    "location": {
      "name": "Санкт-Петербург",
      "lat": 59.94,
      "lng": 30.31
    },
    "category": "Военные кампании"
  },
  {
    "title": "Март-апрель** - крестьянские волнения, вызванные условиями освобождения",
    "date": "1861",
    "description": "* ** 1861 , март-апрель** - Крестьянские волнения, вызванные условиями освобождения - Центральная Россия, Поволжье",
    "location": {
      "name": "Центральная Россия, Поволжье",
      "lat": 55.75,
      "lng": 37.62
    },
    "category": "Культура и религия"
  },
  {
    "title": "Апрель** - волнения в селе бездна казанской",
    "date": "1861",
    "description": "* ** 1861 , апрель** - Волнения в селе Бездна Казанской губернии - Село Бездна, Казанская губерния",
    "location": {
      "name": "Село Бездна, Казанская губерния",
      "lat": 63.02608366998649,
      "lng": 29.807408254979382
    },
    "category": "Становление государства"
  },
  {
    "title": "Август** - временные правила о волостном и",
    "date": "1861",
    "description": "* ** 1861 , август** - Временные правила о волостном и сельском управлении крестьян - Российская империя",
    "location": {
      "name": "Российская империя",
      "lat": 62.87967027266784,
      "lng": 47.50835991510277
    },
    "category": "Экономические события"
  },
  {
    "title": "Января** - \"временные правила о печати\" -",
    "date": "1862",
    "description": "* ** 1862 , 28 января** - \"Временные правила о печати\" - Российская империя",
    "location": {
      "name": "Санкт-Петербург",
      "lat": 59.94,
      "lng": 30.31
    },
    "category": "Войны и сражения"
  },
  {
    "title": "Января** - новый университетский устав - российская",
    "date": "1863",
    "description": "* ** 1863 , 1 января** - Новый университетский устав - Российская империя",
    "location": {
      "name": "Санкт-Петербург",
      "lat": 59.94,
      "lng": 30.31
    },
    "category": "Социальные реформы"
  },
  {
    "title": "Июня** - положение о поземельном устройстве государственных",
    "date": "1863",
    "description": "* ** 1863 , 18 июня** - Положение о поземельном устройстве государственных крестьян - Российская империя",
    "location": {
      "name": "Российская империя",
      "lat": 52.21537977269054,
      "lng": 28.261755748324596
    },
    "category": "Становление государства"
  },
  {
    "title": "- земская реформа - российская империя",
    "date": "1864",
    "description": "* ** 1864 , 1 января** - Земская реформа - Российская империя",
    "location": {
      "name": "Российская империя",
      "lat": 54.2814499061239,
      "lng": 27.648458698181955
    },
    "category": "Социальные реформы"
  },
  {
    "title": "- судебная реформа - российская империя",
    "date": "1864",
    "description": "* ** 1864 , 20 ноября** - Судебная реформа - Российская империя",
    "location": {
      "name": "Санкт-Петербург",
      "lat": 59.94,
      "lng": 30.31
    },
    "category": "Социальные реформы"
  },
  {
    "title": "Апреля** - временные правила о печати -",
    "date": "1865",
    "description": "* ** 1865 , 6 апреля** - Временные правила о печати - Российская империя",
    "location": {
      "name": "Санкт-Петербург",
      "lat": 59.94,
      "lng": 30.31
    },
    "category": "Научные достижения"
  },
  {
    "title": "Апреля** - первое покушение на александра ii",
    "date": "1866",
    "description": "* ** 1866 , 4 апреля** - Первое покушение на Александра II (Д",
    "location": {
      "name": "Санкт-Петербург",
      "lat": 59.94,
      "lng": 30.31
    },
    "category": "Социальные реформы"
  },
  {
    "title": "Апреля** - продажа аляски соединенным штатам америки",
    "date": "1867",
    "description": "* ** 1867 , 15 апреля** - Продажа Аляски Соединенным Штатам Америки - Вашингтон",
    "location": {
      "name": "Вашингтон",
      "lat": 57.71176689833093,
      "lng": 36.730684624641555
    },
    "category": "Социальные реформы"
  },
  {
    "title": "- городская реформа - российская империя",
    "date": "1870",
    "description": "* ** 1870 , 16 июня** - Городская реформа - Российская империя",
    "location": {
      "name": "Российская империя",
      "lat": 64.32881216820044,
      "lng": 38.43350042046469
    },
    "category": "Социальные реформы"
  },
  {
    "title": "- военная реформа",
    "date": "1874",
    "description": "* ** 1874 , 1 января** - Военная реформа (введение всеобщей воинской повинности) - Российская империя",
    "location": {
      "name": "Санкт-Петербург",
      "lat": 59.94,
      "lng": 30.31
    },
    "category": "Войны и сражения"
  },
  {
    "title": "- русско-турецкая война - балканы",
    "date": "1877-1878",
    "description": "* ** 1877-1878 ** - Русско-турецкая война - Балканы, Кавказ",
    "location": {
      "name": "Балканы",
      "lat": 50.281760315672315,
      "lng": 35.206613092730656
    },
    "category": "Войны и сражения"
  },
  {
    "title": "- подписание сан-стефанского мирного договора - сан-стефано",
    "date": "1878",
    "description": "* ** 1878 , 3 марта** - Подписание Сан-Стефанского мирного договора - Сан-Стефано (близ Стамбула)",
    "location": {
      "name": "Сан-Стефано",
      "lat": 56.87556073903687,
      "lng": 39.539677220156804
    },
    "category": "Дипломатические события"
  },
  {
    "title": "Июля** - подписание берлинского трактата - берлин",
    "date": "1878",
    "description": "* ** 1878 , 13 июля** - Подписание Берлинского трактата - Берлин",
    "location": {
      "name": "Берлин",
      "lat": 52.52,
      "lng": 13.4
    },
    "category": "Становление государства"
  },
  {
    "title": "- создание организации",
    "date": "1879",
    "description": "* ** 1879 , август** - Создание организации \"Народная воля\" - Российская империя",
    "location": {
      "name": "Санкт-Петербург",
      "lat": 59.94,
      "lng": 30.31
    },
    "category": "Восстания и бунты"
  },
  {
    "title": "Ноябрь** - покушение на царский поезд под",
    "date": "1879",
    "description": "* ** 1879 , ноябрь** - Покушение на царский поезд под Москвой - Московская губерния",
    "location": {
      "name": "Московская губерния",
      "lat": 63.47139301205918,
      "lng": 40.01536938911386
    },
    "category": "Революции и перевороты"
  },
  {
    "title": "Февраль** - взрыв в зимнем дворце -",
    "date": "1880",
    "description": "* ** 1880 , февраль** - Взрыв в Зимнем дворце - Санкт-Петербург",
    "location": {
      "name": "Санкт-Петербург",
      "lat": 59.94,
      "lng": 30.31
    },
    "category": "Территориальные приобретения"
  },
  {
    "title": "Август** - учреждение верховной распорядительной комиссии по",
    "date": "1880",
    "description": "* ** 1880 , август** - Учреждение Верховной распорядительной комиссии по охране государственного порядка и общественного спокойствия - Российская империя",
    "location": {
      "name": "Санкт-Петербург",
      "lat": 59.94,
      "lng": 30.31
    },
    "category": "Становление государства"
  },
  {
    "title": "Марта** - убийство александра ii - санкт-петербург",
    "date": "1881",
    "description": "* ** 1881 , 1 марта** - Убийство Александра II - Санкт-Петербург",
    "location": {
      "name": "Санкт-Петербург",
      "lat": 59.94,
      "lng": 30.31
    },
    "category": "Основание городов"
  },
  {
    "title": "Февраля** - **манифест об отмене крепостного права**",
    "date": "1861",
    "description": "* ** 1861 , 19 февраля** - **Манифест об отмене крепостного права** - Российская империя",
    "location": {
      "name": "Санкт-Петербург",
      "lat": 59.94,
      "lng": 30.31
    },
    "category": "Политические реформы"
  },
  {
    "title": "Января** - **положение о губернских и уездных",
    "date": "1864",
    "description": "* ** 1864 , 1 января** - **Положение о губернских и уездных земских учреждениях** - Российская империя",
    "location": {
      "name": "Санкт-Петербург",
      "lat": 59.94,
      "lng": 30.31
    },
    "category": "Изменения границ"
  },
  {
    "title": "Ноября** - **судебная реформа** - российская империя",
    "date": "1864",
    "description": "* ** 1864 , 20 ноября** - **Судебная реформа** - Российская империя",
    "location": {
      "name": "Санкт-Петербург",
      "lat": 59.94,
      "lng": 30.31
    },
    "category": "Социальные реформы"
  },
  {
    "title": "Июня** - **университетский устав** - российская империя",
    "date": "1863",
    "description": "* ** 1863 , 18 июня** - **Университетский устав** - Российская империя",
    "location": {
      "name": "Санкт-Петербург",
      "lat": 59.94,
      "lng": 30.31
    },
    "category": "Социальные реформы"
  },
  {
    "title": "Июня** - **городовое положение** - российская империя",
    "date": "1870",
    "description": "* ** 1870 , 16 июня** - **Городовое положение** - Российская империя",
    "location": {
      "name": "Санкт-Петербург",
      "lat": 59.94,
      "lng": 30.31
    },
    "category": "Войны и сражения"
  },
  {
    "title": "Временные правила о крестьянских учреждениях** - российская",
    "date": "1861-1863",
    "description": "* ** 1861-1863 ** - **Временные правила о крестьянских учреждениях** - Российская империя",
    "location": {
      "name": "Санкт-Петербург",
      "lat": 59.94,
      "lng": 30.31
    },
    "category": "Основание городов"
  },
  {
    "title": "Реформа народного просвещения** - российская империя",
    "date": "1863",
    "description": "* ** 1863 ** - **Реформа народного просвещения** - Российская империя",
    "location": {
      "name": "Санкт-Петербург",
      "lat": 59.94,
      "lng": 30.31
    },
    "category": "Социальные реформы"
  },
  {
    "title": "Временные правила о печати** - российская империя",
    "date": "1865",
    "description": "* ** 1865 ** - **Временные правила о печати** - Российская империя",
    "location": {
      "name": "Санкт-Петербург",
      "lat": 59.94,
      "lng": 30.31
    },
    "category": "Военные кампании"
  },
  {
    "title": "Продажа аляски** - вашингтон, сша",
    "date": "1867",
    "description": "* ** 1867 ** - **Продажа Аляски** - Вашингтон, США",
    "location": {
      "name": "Вашингтон, США",
      "lat": 52.42827905177908,
      "lng": 38.44422633697745
    },
    "category": "Территориальные приобретения"
  },
  {
    "title": "Военная реформа** - российская империя",
    "date": "1874",
    "description": "* ** 1874 ** - **Военная реформа** - Российская империя",
    "location": {
      "name": "Санкт-Петербург",
      "lat": 59.94,
      "lng": 30.31
    },
    "category": "Войны и сражения"
  },
  {
    "title": "А теперь еще 15-20 исторических событий по",
    "date": "1860-1870",
    "description": "А теперь еще 15-20 исторических событий по теме \"Александр II: реформы 1860-1870 -х годов",
    "category": "Социальные реформы"
  },
  {
    "title": "Июня** - **учреждение главного выкупного учреждения** -",
    "date": "1861",
    "description": "* ** 1861 , 26 июня** - **Учреждение Главного выкупного учреждения** - Санкт-Петербург, Российская империя",
    "location": {
      "name": "Санкт-Петербург",
      "lat": 59.94,
      "lng": 30.31
    },
    "category": "Политические реформы"
  },
  {
    "title": "Мая** - **циркуляр министра внутренних дел валуева",
    "date": "1863",
    "description": "* ** 1863 , 14 мая** - **Циркуляр министра внутренних дел Валуева о преподавании на украинском языке** - Санкт-Петербург, Российская империя",
    "location": {
      "name": "Санкт-Петербург",
      "lat": 59.94,
      "lng": 30.31
    },
    "category": "Экономические события"
  },
  {
    "title": "Июля** - **учреждение военно-окружных судов** - российская",
    "date": "1864",
    "description": "* ** 1864 , 9 июля** - **Учреждение военно-окружных судов** - Российская империя",
    "location": {
      "name": "Санкт-Петербург",
      "lat": 59.94,
      "lng": 30.31
    },
    "category": "Войны и сражения"
  },
  {
    "title": "Июня** - **утверждение нового таможенного тарифа** -",
    "date": "1865",
    "description": "* ** 1865 , 2 июня** - **Утверждение нового таможенного тарифа** - Санкт-Петербург, Российская империя",
    "location": {
      "name": "Санкт-Петербург",
      "lat": 59.94,
      "lng": 30.31
    },
    "category": "Войны и сражения"
  },
  {
    "title": "Апреля** - **покушение дмитрия каракозова на александра",
    "date": "1866",
    "description": "* ** 1866 , 4 апреля** - **Покушение Дмитрия Каракозова на Александра II** - Санкт-Петербург, Российская империя",
    "location": {
      "name": "Санкт-Петербург",
      "lat": 59.94,
      "lng": 30.31
    },
    "category": "Политические реформы"
  },
  {
    "title": "Апреля** - **подписание лондонской конвенции о нейтралитете",
    "date": "1867",
    "description": "* ** 1867 , 19 апреля** - **Подписание Лондонской конвенции о нейтралитете Люксембурга** - Лондон, Великобритания",
    "location": {
      "name": "Лондон",
      "lat": 51.51,
      "lng": -0.13
    },
    "category": "Революции и перевороты"
  },
  {
    "title": "Января** - **открытие московской консерватории** - москва",
    "date": "1868",
    "description": "* ** 1868 , 1 января** - **Открытие Московской консерватории** - Москва, Российская империя",
    "location": {
      "name": "Москва",
      "lat": 55.75,
      "lng": 37.62
    },
    "category": "Научные достижения"
  },
  {
    "title": "Ноября** - **убийство студента ивана иванова членами",
    "date": "1869",
    "description": "* ** 1869 , 20 ноября** - **Убийство студента Ивана Иванова членами организации \"Народная расправа\"** - Москва, Российская империя",
    "location": {
      "name": "Москва",
      "lat": 55.75,
      "lng": 37.62
    },
    "category": "Революции и перевороты"
  },
  {
    "title": "Циркуляр горчакова об отмене ограничительных статей парижского мирного договора 1856 года",
    "date": "1870",
    "description": "* ** 1870 , 31 октября** - **Циркуляр Горчакова об отмене ограничительных статей Парижского мирного договора 1856 года** - Санкт-Петербург, Российская империя",
    "location": {
      "name": "Санкт-Петербург",
      "lat": 59.94,
      "lng": 30.31
    },
    "category": "Дипломатические события"
  },
  {
    "title": "Марта** - **лондонская конвенция об отмене нейтрализации",
    "date": "1871",
    "description": "* ** 1871 , 13 марта** - **Лондонская конвенция об отмене нейтрализации Черного моря** - Лондон, Великобритания",
    "location": {
      "name": "Лондон",
      "lat": 51.51,
      "lng": -0.13
    },
    "category": "Основание городов"
  },
  {
    "title": "Января** - **учреждение главного управления по делам",
    "date": "1872",
    "description": "* ** 1872 , 1 января** - **Учреждение Главного управления по делам печати** - Санкт-Петербург, Российская империя",
    "location": {
      "name": "Санкт-Петербург",
      "lat": 59.94,
      "lng": 30.31
    },
    "category": "Революции и перевороты"
  },
  {
    "title": "Мая** - **заключение союза трех императоров** -",
    "date": "1873",
    "description": "* ** 1873 , 6 мая** - **Заключение Союза трех императоров** - Вена, Австро-Венгрия",
    "location": {
      "name": "Вена",
      "lat": 48.21,
      "lng": 16.37
    },
    "category": "Дипломатические события"
  },
  {
    "title": "Января** - **введение новых правил о найме",
    "date": "1874",
    "description": "* ** 1874 , 1 января** - **Введение новых правил о найме на сельскохозяйственные работы** - Российская империя",
    "location": {
      "name": "Российская империя",
      "lat": 54.25598328722437,
      "lng": 34.584027451474256
    },
    "category": "Экономические события"
  },
  {
    "title": "Петербургский договор с японией об обмене территориями",
    "date": "1875",
    "description": "* ** 1875 , 7 мая** - **Петербургский договор с Японией об обмене территориями** - Санкт-Петербург, Российская империя",
    "location": {
      "name": "Санкт-Петербург",
      "lat": 59.94,
      "lng": 30.31
    },
    "category": "Изменения границ"
  },
  {
    "title": "Декабря** - **первая политическая демонстрация у казанского",
    "date": "1876",
    "description": "* ** 1876 , 6 декабря** - **Первая политическая демонстрация у Казанского собора** - Санкт-Петербург, Российская империя",
    "location": {
      "name": "Санкт-Петербург",
      "lat": 59.94,
      "lng": 30.31
    },
    "category": "Культура и религия"
  },
  {
    "title": "Русско-турецкая война** - балканский полуостров, кавказ",
    "date": "1877-1878",
    "description": "* ** 1877-1878 ** - **Русско-турецкая война** - Балканский полуостров, Кавказ",
    "location": {
      "name": "Балканский полуостров, Кавказ",
      "lat": 43.0,
      "lng": 44.0
    },
    "category": "Войны и сражения"
  },
  {
    "title": "Сан-стефанский мирный договор",
    "date": "1878",
    "description": "* ** 1878 , 3 марта** - **Сан-Стефанский мирный договор** - Сан-Стефано, Османская империя",
    "location": {
      "name": "Сан-Стефано",
      "lat": 58.480186559761776,
      "lng": 48.362573284160504
    },
    "category": "Дипломатические события"
  },
  {
    "title": "Июля** - **берлинский конгресс** - берлин, германия",
    "date": "1878",
    "description": "* ** 1878 , 13 июля** - **Берлинский конгресс** - Берлин, Германия",
    "location": {
      "name": "Берлин",
      "lat": 52.52,
      "lng": 13.4
    },
    "category": "Становление государства"
  },
  {
    "title": "Декабря** - **раскол \"земли и воли\" на",
    "date": "1879",
    "description": "* ** 1879 , 17 декабря** - **Раскол \"Земли и воли\" на \"Народную волю\" и \"Черный передел\"** - Санкт-Петербург, Российская империя",
    "location": {
      "name": "Санкт-Петербург",
      "lat": 59.94,
      "lng": 30.31
    },
    "category": "Становление государства"
  },
  {
    "title": "Февраля** - **учреждение верховной распорядительной комиссии по",
    "date": "1880",
    "description": "* ** 1880 , 12 февраля** - **Учреждение Верховной распорядительной комиссии по охранению государственного порядка и общественного спокойствия** - Санкт-Петербург, Российская империя",
    "location": {
      "name": "Санкт-Петербург",
      "lat": 59.94,
      "lng": 30.31
    },
    "category": "Становление государства"
  }
]