[
  {
    "title": "- начало правления владимира святославича в киеве - киев",
    "date": "980 год",
    "description": "* ** 980 год ** - Начало правления Владимира Святославича в Киеве - Киев",
    "location": {
      "name": "Киев",
      "lat": 50.45,
      "lng": 30.52
    },
    "category": "Дипломатические события"
  },
  {
    "title": "- крещение руси - киев",
    "date": "990",
    "description": "* ** 990 -е годы** - Крещение Руси - Киев",
    "location": {
      "name": "Киев",
      "lat": 50.45,
      "lng": 30.52
    },
    "category": "Основание городов"
  },
  {
    "title": "Год ** - начало правления ярослава мудрого",
    "date": "1019 год",
    "description": "* ** 1019 год ** - Начало правления Ярослава Мудрого в Киеве - Киев",
    "location": {
      "name": "Киев",
      "lat": 50.45,
      "lng": 30.52
    },
    "category": "Изменения границ"
  },
  {
    "title": "- смерть ярослава мудрого и начало периода раздробленности - киев",
    "date": "1054 год",
    "description": "* ** 1054 год ** - Смерть Ярослава Мудрого и начало периода раздробленности - Киев",
    "location": {
      "name": "Киев",
      "lat": 50.45,
      "lng": 30.52
    },
    "category": "Революции и перевороты"
  },
  {
    "title": "- первое упоминание о владимире в летописях - владимир",
    "date": "1076 год",
    "description": "* ** 1076 год ** - Первое упоминание о Владимире в летописях - Владимир",
    "location": {
      "name": "Владимир",
      "lat": 56.13,
      "lng": 40.42
    },
    "category": "Дипломатические события"
  },
  {
    "title": "Год ** - разорение суздаля половцами -",
    "date": "1096 год",
    "description": "* ** 1096 год ** - Разорение Суздаля половцами - Суздаль",
    "location": {
      "name": "Суздаль",
      "lat": 56.42,
      "lng": 40.44
    },
    "category": "Научные достижения"
  },
  {
    "title": "- основание владимира мономахом - владимир",
    "date": "1108 год",
    "description": "* ** 1108 год ** - Основание Владимира Мономахом - Владимир",
    "location": {
      "name": "Владимир",
      "lat": 56.13,
      "lng": 40.42
    },
    "category": "Дипломатические события"
  },
  {
    "title": "- правление владимира мономаха в киеве - киев",
    "date": "1113-1125",
    "description": "* ** 1113-1125 годы** - Правление Владимира Мономаха в Киеве - Киев",
    "location": {
      "name": "Киев",
      "lat": 50.45,
      "lng": 30.52
    },
    "category": "Дипломатические события"
  },
  {
    "title": "Год ** - перенос столицы из ростова",
    "date": "1125 год",
    "description": "* ** 1125 год ** - Перенос столицы из Ростова в Суздаль Юрием Долгоруким - Суздаль",
    "location": {
      "name": "Суздаль",
      "lat": 56.42,
      "lng": 40.44
    },
    "category": "Дипломатические события"
  },
  {
    "title": "Год ** - первое упоминание о москве",
    "date": "1147 год",
    "description": "* ** 1147 год ** - Первое упоминание о Москве в летописях - Москва",
    "location": {
      "name": "Москва",
      "lat": 55.75,
      "lng": 37.62
    },
    "category": "Войны и сражения"
  },
  {
    "title": "- рождение всеволода большое гнездо - дмитров",
    "date": "1154 год",
    "description": "* ** 1154 год ** - Рождение Всеволода Большое Гнездо - Дмитров",
    "location": {
      "name": "Дмитров",
      "lat": 60.61478753736324,
      "lng": 44.29775985620634
    },
    "category": "Территориальные приобретения"
  },
  {
    "title": "Год ** - укрепление москвы юрием долгоруким",
    "date": "1156 год",
    "description": "* ** 1156 год ** - Укрепление Москвы Юрием Долгоруким - Москва",
    "location": {
      "name": "Москва",
      "lat": 55.75,
      "lng": 37.62
    },
    "category": "Становление государства"
  },
  {
    "title": "- смерть юрия долгорукого - киев",
    "date": "1157 год",
    "description": "* ** 1157 год ** - Смерть Юрия Долгорукого - Киев",
    "location": {
      "name": "Киев",
      "lat": 50.45,
      "lng": 30.52
    },
    "category": "Революции и перевороты"
  },
  {
    "title": "Годы** - правление андрея боголюбского - владимир",
    "date": "1157-1174",
    "description": "* ** 1157-1174 годы** - Правление Андрея Боголюбского - Владимир",
    "location": {
      "name": "Владимир",
      "lat": 56.13,
      "lng": 40.42
    },
    "category": "Дипломатические события"
  },
  {
    "title": "- строительство успенского собора во владимире - владимир",
    "date": "1158-1160",
    "description": "* ** 1158-1160 годы** - Строительство Успенского собора во Владимире - Владимир",
    "location": {
      "name": "Владимир",
      "lat": 56.13,
      "lng": 40.42
    },
    "category": "Культура и религия"
  },
  {
    "title": "Год ** - поход андрея боголюбского на",
    "date": "1164 год",
    "description": "* ** 1164 год ** - Поход Андрея Боголюбского на волжских булгар - Волжская Булгария",
    "location": {
      "name": "Волжская Булгария",
      "lat": 60.09797366933542,
      "lng": 34.67746919756702
    },
    "category": "Культура и религия"
  },
  {
    "title": "- основание церкви покрова на нерли - боголюбово",
    "date": "1165 год",
    "description": "* ** 1165 год ** - Основание церкви Покрова на Нерли - Боголюбово",
    "location": {
      "name": "Боголюбово",
      "lat": 50.863756906264825,
      "lng": 37.255082941051214
    },
    "category": "Революции и перевороты"
  },
  {
    "title": "Год ** - взятие киева войсками андрея",
    "date": "1169 год",
    "description": "* ** 1169 год ** - Взятие Киева войсками Андрея Боголюбского - Киев",
    "location": {
      "name": "Киев",
      "lat": 50.45,
      "lng": 30.52
    },
    "category": "Экономические события"
  },
  {
    "title": "Год ** - убийство андрея боголюбского -",
    "date": "1174 год",
    "description": "* ** 1174 год ** - Убийство Андрея Боголюбского - Боголюбово",
    "location": {
      "name": "Боголюбово",
      "lat": 51.1147838861916,
      "lng": 48.813120993392275
    },
    "category": "Войны и сражения"
  },
  {
    "title": "Годы** - правление всеволода большое гнездо -",
    "date": "1176-1212",
    "description": "* ** 1176-1212 годы** - Правление Всеволода Большое Гнездо - Владимир",
    "location": {
      "name": "Владимир",
      "lat": 56.13,
      "lng": 40.42
    },
    "category": "Дипломатические события"
  },
  {
    "title": "Год ** - поход игоря святославича против",
    "date": "1185 год",
    "description": "* ** 1185 год ** - Поход Игоря Святославича против половцев (описан в \"Слове о полку Игореве\") - Южная Русь",
    "location": {
      "name": "Южная Русь",
      "lat": 47.96813850921742,
      "lng": 37.75686195972082
    },
    "category": "Социальные реформы"
  },
  {
    "title": "- начало строительства дмитриевского собора во владимире - владимир",
    "date": "1194 год",
    "description": "* ** 1194 год ** - Начало строительства Дмитриевского собора во Владимире - Владимир",
    "location": {
      "name": "Владимир",
      "lat": 56.13,
      "lng": 40.42
    },
    "category": "Культура и религия"
  },
  {
    "title": "- смерть всеволода большое гнездо и начало междоусобиц - владимир",
    "date": "1212 год",
    "description": "* ** 1212 год ** - Смерть Всеволода Большое Гнездо и начало междоусобиц - Владимир",
    "location": {
      "name": "Владимир",
      "lat": 56.13,
      "lng": 40.42
    },
    "category": "Дипломатические события"
  },
  {
    "title": "- липицкая битва - юрьев-польский",
    "date": "1216 год",
    "description": "* ** 1216 год ** - Липицкая битва - Юрьев-Польский",
    "location": {
      "name": "Юрьев-Польский",
      "lat": 64.10727754083203,
      "lng": 33.24090762775909
    },
    "category": "Войны и сражения"
  },
  {
    "title": "Год ** - начало правления юрия всеволодовича",
    "date": "1218 год",
    "description": "* ** 1218 год ** - Начало правления Юрия Всеволодовича - Владимир",
    "location": {
      "name": "Владимир",
      "lat": 56.13,
      "lng": 40.42
    },
    "category": "Дипломатические события"
  },
  {
    "title": "- основание нижнего новгорода - нижний новгород",
    "date": "1221 год",
    "description": "* ** 1221 год ** - Основание Нижнего Новгорода - Нижний Новгород",
    "location": {
      "name": "Нижний Новгород",
      "lat": 56.32,
      "lng": 44.0
    },
    "category": "Основание городов"
  },
  {
    "title": "- битва на реке калке - река калка",
    "date": "1223 год",
    "description": "* ** 1223 год ** - Битва на реке Калке - Река Калка (современная Донецкая область)",
    "location": {
      "name": "Донецкая область",
      "lat": 47.97972033124797,
      "lng": 51.9017230238141
    },
    "category": "Войны и сражения"
  },
  {
    "title": "Годы** - монгольское нашествие на русь -",
    "date": "1237-1238",
    "description": "* ** 1237-1238 годы** - Монгольское нашествие на Русь - Северо-Восточная Русь",
    "location": {
      "name": "Северо-Восточная Русь",
      "lat": 64.96677212384736,
      "lng": 48.96924553122999
    },
    "category": "Военные кампании"
  },
  {
    "title": "- битва на реке сити - река сить",
    "date": "1238 год",
    "description": "* ** 1238 год ** - Битва на реке Сити - Река Сить (Ярославская область)",
    "location": {
      "name": "Ярославская область",
      "lat": 59.41851391795426,
      "lng": 27.771552028936114
    },
    "category": "Войны и сражения"
  },
  {
    "title": "Годы** - правление ярослава всеволодовича - владимир",
    "date": "1238-1246",
    "description": "* ** 1238-1246 годы** - Правление Ярослава Всеволодовича - Владимир",
    "location": {
      "name": "Владимир",
      "lat": 56.13,
      "lng": 40.42
    },
    "category": "Дипломатические события"
  },
  {
    "title": "Год ** - признание ярославом всеволодовичем власти",
    "date": "1243 год",
    "description": "* ** 1243 год ** - Признание Ярославом Всеволодовичем власти Золотой Орды - Сарай",
    "location": {
      "name": "Сарай",
      "lat": 48.65662668153084,
      "lng": 34.16421488341668
    },
    "category": "Изменения границ"
  },
  {
    "title": "- неврюева рать - владимирская земля",
    "date": "1252 год",
    "description": "* ** 1252 год ** - Неврюева рать - Владимирская земля",
    "location": {
      "name": "Владимирская земля",
      "lat": 56.13,
      "lng": 40.42
    },
    "category": "Дипломатические события"
  },
  {
    "title": "- смерть александра невского - городец",
    "date": "1263 год",
    "description": "* ** 1263 год ** - Смерть Александра Невского - Городец",
    "location": {
      "name": "Городец",
      "lat": 57.752967508134404,
      "lng": 41.90585764930297
    },
    "category": "Политические реформы"
  },
  {
    "title": "Перенесение резиденции юрия долгорукого в суздаль** -",
    "date": "1155",
    "description": "* ** 1155 ** - **Перенесение резиденции Юрия Долгорукого в Суздаль** - Суздаль",
    "location": {
      "name": "Суздаль",
      "lat": 56.42,
      "lng": 40.44
    },
    "category": "Основание городов"
  },
  {
    "title": "Начало строительства успенского собора во владимире",
    "date": "1158",
    "description": "* ** 1158 ** - **Начало строительства Успенского собора во Владимире** - Владимир",
    "location": {
      "name": "Владимир",
      "lat": 56.13,
      "lng": 40.42
    },
    "category": "Культура и религия"
  },
  {
    "title": "Изгнание бояр из владимира",
    "date": "1162",
    "description": "* ** 1162 ** - **Изгнание бояр из Владимира** - Владимир",
    "location": {
      "name": "Владимир",
      "lat": 56.13,
      "lng": 40.42
    },
    "category": "Дипломатические события"
  },
  {
    "title": "Поход андрея боголюбского на волжских булгар** -",
    "date": "1164",
    "description": "* ** 1164 ** - **Поход Андрея Боголюбского на волжских булгар** - Волжская Булгария",
    "location": {
      "name": "Волжская Булгария",
      "lat": 60.15538420342904,
      "lng": 29.661295757577598
    },
    "category": "Восстания и бунты"
  },
  {
    "title": "Разграбление киева войсками андрея боголюбского** - киев",
    "date": "1169",
    "description": "* ** 1169 ** - **Разграбление Киева войсками Андрея Боголюбского** - Киев",
    "location": {
      "name": "Киев",
      "lat": 50.45,
      "lng": 30.52
    },
    "category": "Дипломатические события"
  },
  {
    "title": "Убийство андрея боголюбского в боголюбово** - боголюбово",
    "date": "1174",
    "description": "* ** 1174 ** - **Убийство Андрея Боголюбского в Боголюбово** - Боголюбово",
    "location": {
      "name": "Боголюбово",
      "lat": 50.73650812378244,
      "lng": 49.60858598898993
    },
    "category": "Восстания и бунты"
  },
  {
    "title": "Борьба за власть между племянниками андрея боголюбского**",
    "date": "1175",
    "description": "* ** 1175 ** - **Борьба за власть между племянниками Андрея Боголюбского** - Владимир, Ростов",
    "location": {
      "name": "Владимир, Ростов",
      "lat": 56.13,
      "lng": 40.42
    },
    "category": "Дипломатические события"
  },
  {
    "title": "Вокняжение всеволода большое гнездо во владимире",
    "date": "1176",
    "description": "* ** 1176 ** - **Вокняжение Всеволода Большое Гнездо во Владимире** - Владимир",
    "location": {
      "name": "Владимир",
      "lat": 56.13,
      "lng": 40.42
    },
    "category": "Дипломатические события"
  },
  {
    "title": "Поход всеволода большое гнездо на рязань** -",
    "date": "1180",
    "description": "* ** 1180 ** - **Поход Всеволода Большое Гнездо на Рязань** - Рязань",
    "location": {
      "name": "Рязань",
      "lat": 61.172164494802566,
      "lng": 40.5766919994953
    },
    "category": "Изменения границ"
  },
  {
    "title": "Поход всеволода большое гнездо на волжских булгар**",
    "date": "1183",
    "description": "* ** 1183 ** - **Поход Всеволода Большое Гнездо на волжских булгар** - Волжская Булгария",
    "location": {
      "name": "Волжская Булгария",
      "lat": 48.76894373073171,
      "lng": 47.55487836417932
    },
    "category": "Социальные реформы"
  },
  {
    "title": "Строительство дмитриевского собора во владимире",
    "date": "1185",
    "description": "* ** 1185 ** - **Строительство Дмитриевского собора во Владимире** - Владимир",
    "location": {
      "name": "Владимир",
      "lat": 56.13,
      "lng": 40.42
    },
    "category": "Культура и религия"
  },
  {
    "title": "Борьба за владимирский престол между сыновьями всеволода большое гнездо",
    "date": "1206-1212",
    "description": "* ** 1206-1212 ** - **Борьба за владимирский престол между сыновьями Всеволода Большое Гнездо** - Владимир",
    "location": {
      "name": "Владимир",
      "lat": 56.13,
      "lng": 40.42
    },
    "category": "Дипломатические события"
  },
  {
    "title": "Липицкая битва** - река липица (близ юрьева-польского",
    "date": "1216",
    "description": "* ** 1216 ** - **Липицкая битва** - Река Липица (близ Юрьева-Польского)",
    "location": {
      "name": "Река Липица (близ Юрьева-Польского)",
      "lat": 46.905851112649884,
      "lng": 33.18880618257639
    },
    "category": "Войны и сражения"
  },
  {
    "title": "Вокняжение юрия всеволодовича во владимире",
    "date": "1218",
    "description": "* ** 1218 ** - **Вокняжение Юрия Всеволодовича во Владимире** - Владимир",
    "location": {
      "name": "Владимир",
      "lat": 56.13,
      "lng": 40.42
    },
    "category": "Дипломатические события"
  },
  {
    "title": "Основание нижнего новгорода** - нижний новгород",
    "date": "1221",
    "description": "* ** 1221 ** - **Основание Нижнего Новгорода** - Нижний Новгород",
    "location": {
      "name": "Нижний Новгород",
      "lat": 56.32,
      "lng": 44.0
    },
    "category": "Изменения границ"
  },
  {
    "title": "Разорение владимира монголами",
    "date": "1237",
    "description": "* ** 1237 ** - **Разорение Владимира монголами** - Владимир",
    "location": {
      "name": "Владимир",
      "lat": 56.13,
      "lng": 40.42
    },
    "category": "Дипломатические события"
  },
  {
    "title": "Битва на реке сить** - река сить",
    "date": "1238",
    "description": "* ** 1238 ** - **Битва на реке Сить** - Река Сить (Ярославская область)",
    "location": {
      "name": "Ярославская область",
      "lat": 63.61846227362257,
      "lng": 43.69377240342027
    },
    "category": "Войны и сражения"
  },
  {
    "title": "Правление ярослава всеволодовича** - владимир",
    "date": "1238-1246",
    "description": "* ** 1238-1246 ** - **Правление Ярослава Всеволодовича** - Владимир",
    "location": {
      "name": "Владимир",
      "lat": 56.13,
      "lng": 40.42
    },
    "category": "Дипломатические события"
  },
  {
    "title": "Признание ярославом всеволодовичем власти золотой орды** -",
    "date": "1243",
    "description": "* ** 1243 ** - **Признание Ярославом Всеволодовичем власти Золотой Орды** - Золотая Орда",
    "location": {
      "name": "Сарай-Бату",
      "lat": 64.89375583027133,
      "lng": 50.15943714947659
    },
    "category": "Восстания и бунты"
  },
  {
    "title": "- владимиро-суздальское княжество",
    "date": "1252",
    "description": "* ** 1252 ** - **Неврюева рать** - Владимиро-Суздальское княжество",
    "location": {
      "name": "Владимиро-Суздальское княжество",
      "lat": 56.13,
      "lng": 40.42
    },
    "category": "Становление государства"
  }
]