[
  {
    "title": "Год ** - **основание шведской крепости ландскрона**",
    "date": "1300 год",
    "description": "* ** 1300 год ** - **Основание шведской крепости Ландскрона** - Устье реки Охты, Нева",
    "location": {
      "name": "Устье реки Охты, Нева",
      "lat": 49.69626783337708,
      "lng": 45.337082730195895
    },
    "category": "Военные кампании"
  },
  {
    "title": "Год ** - **разрушение ландскроны новгородцами** -",
    "date": "1301 год",
    "description": "* ** 1301 год ** - **Разрушение Ландскроны новгородцами** - Устье реки Охты, Нева",
    "location": {
      "name": "Устье реки Охты, Нева",
      "lat": 51.050729603380184,
      "lng": 38.914612100514375
    },
    "category": "Изменения границ"
  },
  {
    "title": "Год ** - **ореховский мир** - орешек",
    "date": "1323 год",
    "description": "* ** 1323 год ** - **Ореховский мир** - Орешек (Шлиссельбург)",
    "location": {
      "name": "Орешек",
      "lat": 46.362767366913225,
      "lng": 44.26292752396968
    },
    "category": "Дипломатические события"
  },
  {
    "title": "Год ** - **основание ивангорода** - нарва",
    "date": "1492 год",
    "description": "* ** 1492 год ** - **Основание Ивангорода** - Нарва (Ивангород)",
    "location": {
      "name": "Ивангород",
      "lat": 55.14317871831102,
      "lng": 43.31952247700699
    },
    "category": "Становление государства"
  },
  {
    "title": "Плюсское перемирие",
    "date": "1583 год",
    "description": "* ** 1583 год ** - **Плюсское перемирие** - Плюсса (между Нарвой и Ивангородом)",
    "location": {
      "name": "Плюсса",
      "lat": 59.22876378256191,
      "lng": 29.02127645116608
    },
    "category": "Дипломатические события"
  },
  {
    "title": "Год ** - **начало русско-шведской войны** -",
    "date": "1590 год",
    "description": "* ** 1590 год ** - **Начало русско-шведской войны** - Район Невы и Финского залива",
    "location": {
      "name": "Район Невы и Финского залива",
      "lat": 52.09453375159251,
      "lng": 29.3993010086383
    },
    "category": "Социальные реформы"
  },
  {
    "title": "Год ** - **тявзинский мир** - тявзино",
    "date": "1595 год",
    "description": "* ** 1595 год ** - **Тявзинский мир** - Тявзино (близ Нарвы)",
    "location": {
      "name": "Тявзино",
      "lat": 52.669204560799464,
      "lng": 34.105201808552636
    },
    "category": "Дипломатические события"
  },
  {
    "title": "Год ** - **захват новгорода шведами** -",
    "date": "1611 год",
    "description": "* ** 1611 год ** - **Захват Новгорода шведами** - Новгород",
    "location": {
      "name": "Новгород",
      "lat": 58.52,
      "lng": 31.27
    },
    "category": "Научные достижения"
  },
  {
    "title": "Год ** - **столбовский мир** - столбово",
    "date": "1617 год",
    "description": "* ** 1617 год ** - **Столбовский мир** - Столбово (близ Тихвина)",
    "location": {
      "name": "Столбово",
      "lat": 58.74954895308851,
      "lng": 47.975774831594165
    },
    "category": "Дипломатические события"
  },
  {
    "title": "Год ** - **проект канала между волгой",
    "date": "1642 год",
    "description": "* ** 1642 год ** - **Проект канала между Волгой и Невой** - Россия",
    "location": {
      "name": "Волга",
      "lat": 55.0,
      "lng": 46.0
    },
    "category": "Политические реформы"
  },
  {
    "title": "Год ** - **первое посещение петром i",
    "date": "1698 год",
    "description": "* ** 1698 год ** - **Первое посещение Петром I Европы (Великое посольство)** - Европа",
    "location": {
      "name": "Амстердам",
      "lat": 63.71815346759577,
      "lng": 28.85131209007745
    },
    "category": "Экономические события"
  },
  {
    "title": "Год ** - **начало северной войны** -",
    "date": "1700 год",
    "description": "* ** 1700 год ** - **Начало Северной войны** - Район Нарвы",
    "location": {
      "name": "Район Нарвы",
      "lat": 59.7252011885239,
      "lng": 41.66243156144829
    },
    "category": "Становление государства"
  },
  {
    "title": "Год ** - **битва при нарве** -",
    "date": "1700 год",
    "description": "* ** 1700 год ** - **Битва при Нарве** - Нарва",
    "location": {
      "name": "Нарва",
      "lat": 45.302908384778334,
      "lng": 30.077304246431996
    },
    "category": "Войны и сражения"
  },
  {
    "title": "Год ** - **взятие нотебурга (орешка)** -",
    "date": "1702 год",
    "description": "* ** 1702 год ** - **Взятие Нотебурга (Орешка)** - Нотебург (Орешек, Шлиссельбург)",
    "location": {
      "name": "Шлиссельбург",
      "lat": 64.25703602078558,
      "lng": 31.02755463264068
    },
    "category": "Становление государства"
  },
  {
    "title": "Год , 1 мая (12 мая по",
    "date": "1703 год",
    "description": "* ** 1703 год , 1 мая (12 мая по новому стилю)** - **Взятие Ниеншанца** - Устье реки Охты, Нева",
    "location": {
      "name": "Устье реки Охты, Нева",
      "lat": 49.098083474586126,
      "lng": 40.54150727549941
    },
    "category": "Социальные реформы"
  },
  {
    "title": "Год , 16 (27) мая** - **основание",
    "date": "1703 год",
    "description": "* ** 1703 год , 16 (27) мая** - **Основание Санкт-Петербурга** - Заячий остров, Нева",
    "location": {
      "name": "Заячий остров, Нева",
      "lat": 47.35364815492595,
      "lng": 49.451075665888055
    },
    "category": "Экономические события"
  },
  {
    "title": "Год , 29 июня (10 июля)** -",
    "date": "1703 год",
    "description": "* ** 1703 год , 29 июня (10 июля)** - **Освящение Петропавловского собора** - Петропавловская крепость",
    "location": {
      "name": "Петропавловская крепость",
      "lat": 57.378706544340126,
      "lng": 31.38180195720503
    },
    "category": "Культура и религия"
  },
  {
    "title": "Год ** - **основание кронштадта** - остров",
    "date": "1703 год",
    "description": "* ** 1703 год ** - **Основание Кронштадта** - Остров Котлин, Финский залив",
    "location": {
      "name": "Остров Котлин",
      "lat": 55.237244121228656,
      "lng": 41.107546940485484
    },
    "category": "Революции и перевороты"
  },
  {
    "title": "Основание адмиралтейской верфи",
    "date": "1704 год",
    "description": "* ** 1704 год ** - **Основание Адмиралтейской верфи** - Берег Невы",
    "location": {
      "name": "Берег Невы",
      "lat": 57.944973669730174,
      "lng": 39.75783068691236
    },
    "category": "Дипломатические события"
  },
  {
    "title": "Год ** - **взятие нарвы и дерпта**",
    "date": "1704 год",
    "description": "* ** 1704 год ** - **Взятие Нарвы и Дерпта** - Нарва, Дерпт (Тарту)",
    "location": {
      "name": "Нарва, Дерпт (Тарту)",
      "lat": 53.547742635641946,
      "lng": 39.7377204002525
    },
    "category": "Становление государства"
  },
  {
    "title": "Год ** - **начало строительства летнего сада",
    "date": "1706 год",
    "description": "* ** 1706 год ** - **Начало строительства Летнего сада и Летнего дворца** - Санкт-Петербург",
    "location": {
      "name": "Санкт-Петербург",
      "lat": 59.94,
      "lng": 30.31
    },
    "category": "Военные кампании"
  },
  {
    "title": "Год ** - **захват выборга и риги**",
    "date": "1710 год",
    "description": "* ** 1710 год ** - **Захват Выборга и Риги** - Выборг, Рига",
    "location": {
      "name": "Выборг, Рига",
      "lat": 56.95,
      "lng": 24.11
    },
    "category": "Революции и перевороты"
  },
  {
    "title": "Год ** - **перенос столицы из москвы",
    "date": "1712 год",
    "description": "* ** 1712 год ** - **Перенос столицы из Москвы в Санкт-Петербург** - Санкт-Петербург",
    "location": {
      "name": "Санкт-Петербург",
      "lat": 59.94,
      "lng": 30.31
    },
    "category": "Территориальные приобретения"
  },
  {
    "title": "Морское сражение при гангуте",
    "date": "1714 год",
    "description": "* ** 1714 год ** - **Морское сражение при Гангуте** - Полуостров Гангут (Ханко)",
    "location": {
      "name": "Полуостров Гангут (Ханко)",
      "lat": 55.15921805449931,
      "lng": 39.333681896064334
    },
    "category": "Войны и сражения"
  },
  {
    "title": "Год ** - **основание коллегий** - санкт-петербург",
    "date": "1718 год",
    "description": "* ** 1718 год ** - **Основание Коллегий** - Санкт-Петербург",
    "location": {
      "name": "Санкт-Петербург",
      "lat": 59.94,
      "lng": 30.31
    },
    "category": "Социальные реформы"
  },
  {
    "title": "Год ** - **ништадтский мир** - ништадт",
    "date": "1721 год",
    "description": "* ** 1721 год ** - **Ништадтский мир** - Ништадт (Уусикаупунки)",
    "location": {
      "name": "Ништадт",
      "lat": 52.615085783899836,
      "lng": 29.9589605345807
    },
    "category": "Дипломатические события"
  },
  {
    "title": "Год ** - **основание академии наук** -",
    "date": "1724 год",
    "description": "* ** 1724 год ** - **Основание Академии наук** - Санкт-Петербург",
    "location": {
      "name": "Санкт-Петербург",
      "lat": 59.94,
      "lng": 30.31
    },
    "category": "Научные достижения"
  },
  {
    "title": "Год ** - **смерть петра i** -",
    "date": "1725 год",
    "description": "* ** 1725 год ** - **Смерть Петра I** - Санкт-Петербург",
    "location": {
      "name": "Санкт-Петербург",
      "lat": 59.94,
      "lng": 30.31
    },
    "category": "Социальные реформы"
  },
  {
    "title": "Год ** - **перенос столицы обратно в",
    "date": "1728 год",
    "description": "* ** 1728 год ** - **Перенос столицы обратно в Москву** - Москва",
    "location": {
      "name": "Москва",
      "lat": 55.75,
      "lng": 37.62
    },
    "category": "Основание городов"
  },
  {
    "title": "Год ** - **возвращение столицы в санкт-петербург**",
    "date": "1732 год",
    "description": "* ** 1732 год ** - **Возвращение столицы в Санкт-Петербург** - Санкт-Петербург",
    "location": {
      "name": "Санкт-Петербург",
      "lat": 59.94,
      "lng": 30.31
    },
    "category": "Социальные реформы"
  },
  {
    "title": "Год ** - **большой петербургский пожар** -",
    "date": "1737 год",
    "description": "* ** 1737 год ** - **Большой петербургский пожар** - Санкт-Петербург",
    "location": {
      "name": "Санкт-Петербург",
      "lat": 59.94,
      "lng": 30.31
    },
    "category": "Территориальные приобретения"
  },
  {
    "title": "Год ** - **манифест о вольности дворянства**",
    "date": "1762 год",
    "description": "* ** 1762 год ** - **Манифест о вольности дворянства** - Санкт-Петербург",
    "location": {
      "name": "Санкт-Петербург",
      "lat": 59.94,
      "lng": 30.31
    },
    "category": "Военные кампании"
  },
  {
    "title": "Годы** - **правление екатерины ii** - санкт-петербург",
    "date": "1762-1796",
    "description": "* ** 1762-1796 годы** - **Правление Екатерины II** - Санкт-Петербург",
    "location": {
      "name": "Санкт-Петербург",
      "lat": 59.94,
      "lng": 30.31
    },
    "category": "Дипломатические события"
  },
  {
    "title": "Год ** - **восстание декабристов** - сенатская",
    "date": "1825 год",
    "description": "* ** 1825 год ** - **Восстание декабристов** - Сенатская площадь, Санкт-Петербург",
    "location": {
      "name": "Санкт-Петербург",
      "lat": 59.94,
      "lng": 30.31
    },
    "category": "Революции и перевороты"
  },
  {
    "title": "Год , 9 января** - **кровавое воскресенье**",
    "date": "1905 год",
    "description": "* ** 1905 год , 9 января** - **Кровавое воскресенье** - Санкт-Петербург",
    "location": {
      "name": "Санкт-Петербург",
      "lat": 59.94,
      "lng": 30.31
    },
    "category": "Становление государства"
  },
  {
    "title": "Год ** - **переименование санкт-петербурга в петроград**",
    "date": "1914 год",
    "description": "* ** 1914 год ** - **Переименование Санкт-Петербурга в Петроград** - Санкт-Петербург (Петроград)",
    "location": {
      "name": "Санкт-Петербург",
      "lat": 59.94,
      "lng": 30.31
    },
    "category": "Изменения границ"
  },
  {
    "title": "Год ** - **февральская револю",
    "date": "1917 год",
    "description": "* ** 1917 год ** - **Февральская револю",
    "location": {
      "name": "Петроград",
      "lat": 59.94,
      "lng": 30.31
    },
    "category": "Культура и религия"
  },
  {
    "title": "Мая (7 июня по новому стилю)** -",
    "date": "1703",
    "description": "* ** 1703 , 27 мая (7 июня по новому стилю)** - **Основание Петропавловской крепости** - Заячий остров",
    "location": {
      "name": "Заячий остров",
      "lat": 52.61081522542855,
      "lng": 49.93284947025252
    },
    "category": "Научные достижения"
  },
  {
    "title": "Лето-осень** - **строительство первых жилых домов** -",
    "date": "1703",
    "description": "* ** 1703 , лето-осень** - **Строительство первых жилых домов** - Петроградская сторона",
    "location": {
      "name": "Петроградская сторона",
      "lat": 59.94,
      "lng": 30.31
    },
    "category": "Изменения границ"
  },
  {
    "title": "Март** - **основание кронштадта** - остров котлин",
    "date": "1704",
    "description": "* ** 1704 , март** - **Основание Кронштадта** - Остров Котлин",
    "location": {
      "name": "Остров Котлин",
      "lat": 50.445055926337915,
      "lng": 41.28344349403135
    },
    "category": "Изменения границ"
  },
  {
    "title": "Лето** - **первые иностранные корабли в санкт-петербурге**",
    "date": "1704",
    "description": "* ** 1704 , лето** - **Первые иностранные корабли в Санкт-Петербурге** - Нева",
    "location": {
      "name": "Санкт-Петербург",
      "lat": 59.94,
      "lng": 30.31
    },
    "category": "Военные кампании"
  },
  {
    "title": "Апрель** - **перестройка петропавловской крепости в камне**",
    "date": "1706",
    "description": "* ** 1706 , апрель** - **Перестройка Петропавловской крепости в камне** - Заячий остров",
    "location": {
      "name": "Заячий остров",
      "lat": 45.71023957274472,
      "lng": 34.39176383977819
    },
    "category": "Дипломатические события"
  },
  {
    "title": "Основание аптекарского острова и аптекарского огорода** -",
    "date": "1707",
    "description": "* ** 1707 ** - **Основание Аптекарского острова и Аптекарского огорода** - Аптекарский остров",
    "location": {
      "name": "Санкт-Петербург",
      "lat": 59.94,
      "lng": 30.31
    },
    "category": "Изменения границ"
  },
  {
    "title": "Перенос двора петра i в санкт-петербург** -",
    "date": "1710",
    "description": "* ** 1710 ** - **Перенос двора Петра I в Санкт-Петербург** - Петроградская сторона",
    "location": {
      "name": "Петроградская сторона",
      "lat": 59.94,
      "lng": 30.31
    },
    "category": "Культура и религия"
  },
  {
    "title": "Перенос столицы из москвы в санкт-петербург** -",
    "date": "1712",
    "description": "* ** 1712 ** - **Перенос столицы из Москвы в Санкт-Петербург** - Санкт-Петербург",
    "location": {
      "name": "Санкт-Петербург",
      "lat": 59.94,
      "lng": 30.31
    },
    "category": "Восстания и бунты"
  },
  {
    "title": "Указ о запрете каменного строительства по всей",
    "date": "1714",
    "description": "* ** 1714 ** - **Указ о запрете каменного строительства по всей России, кроме Санкт-Петербурга** - Российская империя",
    "location": {
      "name": "Санкт-Петербург",
      "lat": 59.94,
      "lng": 30.31
    },
    "category": "Становление государства"
  },
  {
    "title": "Основание морской академии** - санкт-петербург",
    "date": "1715",
    "description": "* ** 1715 ** - **Основание Морской академии** - Санкт-Петербург",
    "location": {
      "name": "Санкт-Петербург",
      "lat": 59.94,
      "lng": 30.31
    },
    "category": "Становление государства"
  },
  {
    "title": "Утверждение первого генерального плана санкт-петербурга** - санкт-петербург",
    "date": "1716",
    "description": "* ** 1716 ** - **Утверждение первого генерального плана Санкт-Петербурга** - Санкт-Петербург",
    "location": {
      "name": "Санкт-Петербург",
      "lat": 59.94,
      "lng": 30.31
    },
    "category": "Территориальные приобретения"
  },
  {
    "title": "Начало строительства кунсткамеры** - санкт-петербург",
    "date": "1718",
    "description": "* ** 1718 ** - **Начало строительства Кунсткамеры** - Санкт-Петербург",
    "location": {
      "name": "Санкт-Петербург",
      "lat": 59.94,
      "lng": 30.31
    },
    "category": "Политические реформы"
  },
  {
    "title": "Открытие первых типографий** - санкт-петербург",
    "date": "1719",
    "description": "* ** 1719 ** - **Открытие первых типографий** - Санкт-Петербург",
    "location": {
      "name": "Санкт-Петербург",
      "lat": 59.94,
      "lng": 30.31
    },
    "category": "Научные достижения"
  },
  {
    "title": "Окончание северной войны и ништадтский мир** -",
    "date": "1721",
    "description": "* ** 1721 ** - **Окончание Северной войны и Ништадтский мир** - Ништадт (Уусикаупунки, Финляндия)",
    "location": {
      "name": "Ништадт",
      "lat": 63.05469135454686,
      "lng": 32.430809433044885
    },
    "category": "Дипломатические события"
  },
  {
    "title": "Торжественное перенесение мощей александра невского в санкт-петербург**",
    "date": "1723",
    "description": "* ** 1723 ** - **Торжественное перенесение мощей Александра Невского в Санкт-Петербург** - Александро-Невский монастырь",
    "location": {
      "name": "Санкт-Петербург",
      "lat": 59.94,
      "lng": 30.31
    },
    "category": "Культура и религия"
  },
  {
    "title": "Основание академии наук** - санкт-петербург",
    "date": "1724",
    "description": "* ** 1724 ** - **Основание Академии наук** - Санкт-Петербург",
    "location": {
      "name": "Санкт-Петербург",
      "lat": 59.94,
      "lng": 30.31
    },
    "category": "Научные достижения"
  },
  {
    "title": "Января (8 февраля по новому стилю)** -",
    "date": "1725",
    "description": "* ** 1725 , 28 января (8 февраля по новому стилю)** - **Смерть Петра I** - Санкт-Петербург, Зимний дворец",
    "location": {
      "name": "Санкт-Петербург",
      "lat": 59.94,
      "lng": 30.31
    },
    "category": "Политические реформы"
  },
  {
    "title": "Открытие первого университета при академии наук** -",
    "date": "1725",
    "description": "* ** 1725 ** - **Открытие первого университета при Академии наук** - Санкт-Петербург",
    "location": {
      "name": "Санкт-Петербург",
      "lat": 59.94,
      "lng": 30.31
    },
    "category": "Научные достижения"
  }
]