[
  {
    "title": "Год ** - вступление россии в антитурецкую",
    "date": "1686 год",
    "description": "* ** 1686 год ** - Вступление России в антитурецкую Священную лигу - Москва",
    "location": {
      "name": "Москва",
      "lat": 55.75,
      "lng": 37.62
    },
    "category": "Военные кампании"
  },
  {
    "title": "Год , весна** - начало подготовки к",
    "date": "1695 год",
    "description": "* ** 1695 год , весна** - Начало подготовки к первому Азовскому походу - Москва, Воронеж",
    "location": {
      "name": "Москва, Воронеж",
      "lat": 55.75,
      "lng": 37.62
    },
    "category": "Социальные реформы"
  },
  {
    "title": "Год , апрель** - выступление русской армии",
    "date": "1695 год",
    "description": "* ** 1695 год , апрель** - Выступление русской армии из Москвы - Москва",
    "location": {
      "name": "Москва",
      "lat": 55.75,
      "lng": 37.62
    },
    "category": "Социальные реформы"
  },
  {
    "title": "Год , июнь** - начало осады азова",
    "date": "1695 год",
    "description": "* ** 1695 год , июнь** - Начало осады Азова - Азов",
    "location": {
      "name": "Азов",
      "lat": 48.02903570188001,
      "lng": 51.17594914023073
    },
    "category": "Территориальные приобретения"
  },
  {
    "title": "Год , июль** - первая попытка штурма",
    "date": "1695 год",
    "description": "* ** 1695 год , июль** - Первая попытка штурма Азова - Азов",
    "location": {
      "name": "Азов",
      "lat": 49.191399053190146,
      "lng": 35.20006190921417
    },
    "category": "Войны и сражения"
  },
  {
    "title": "Год , август** - вторая попытка штурма",
    "date": "1695 год",
    "description": "* ** 1695 год , август** - Вторая попытка штурма Азова - Азов",
    "location": {
      "name": "Азов",
      "lat": 53.974104843014786,
      "lng": 51.09226434157928
    },
    "category": "Войны и сражения"
  },
  {
    "title": "Год , сентябрь** - снятие осады азова",
    "date": "1695 год",
    "description": "* ** 1695 год , сентябрь** - Снятие осады Азова - Азов",
    "location": {
      "name": "Азов",
      "lat": 55.884024278231166,
      "lng": 36.660191633005134
    },
    "category": "Становление государства"
  },
  {
    "title": "Год , осень-зима** - анализ причин неудачи",
    "date": "1695 год",
    "description": "* ** 1695 год , осень-зима** - Анализ причин неудачи первого Азовского похода - Москва, Воронеж",
    "location": {
      "name": "Москва, Воронеж",
      "lat": 55.75,
      "lng": 37.62
    },
    "category": "Основание городов"
  },
  {
    "title": "Год , зима-весна** - строительство флота на",
    "date": "1696 год",
    "description": "* ** 1696 год , зима-весна** - Строительство флота на реке Воронеж - Воронеж",
    "location": {
      "name": "Воронеж",
      "lat": 60.126725711282155,
      "lng": 41.141018235572005
    },
    "category": "Социальные реформы"
  },
  {
    "title": "Год , май** - выступление русской армии",
    "date": "1696 год",
    "description": "* ** 1696 год , май** - Выступление русской армии ко второму Азовскому походу - Москва, Воронеж",
    "location": {
      "name": "Москва, Воронеж",
      "lat": 55.75,
      "lng": 37.62
    },
    "category": "Экономические события"
  },
  {
    "title": "Год , май** - прибытие флота к",
    "date": "1696 год",
    "description": "* ** 1696 год , май** - Прибытие флота к Азову - Азовское море, устье Дона",
    "location": {
      "name": "Азов",
      "lat": 52.922628414856575,
      "lng": 45.37583073567306
    },
    "category": "Восстания и бунты"
  },
  {
    "title": "- сражение у каланчи - азовское море",
    "date": "1696 год",
    "description": "* ** 1696 год , май** - Сражение у Каланчи - Азовское море, устье Дона",
    "location": {
      "name": "Устье Дона",
      "lat": 45.1128624098776,
      "lng": 51.01156683799856
    },
    "category": "Войны и сражения"
  },
  {
    "title": "Год , июнь** - начало бомбардировки азова",
    "date": "1696 год",
    "description": "* ** 1696 год , июнь** - Начало бомбардировки Азова с моря и суши - Азов",
    "location": {
      "name": "Азов",
      "lat": 64.42630925120119,
      "lng": 28.579441165377496
    },
    "category": "Изменения границ"
  },
  {
    "title": "Год , июль** - капитуляция азова -",
    "date": "1696 год",
    "description": "* ** 1696 год , июль** - Капитуляция Азова - Азов",
    "location": {
      "name": "Азов",
      "lat": 61.44465772532471,
      "lng": 37.72738518065567
    },
    "category": "Дипломатические события"
  },
  {
    "title": "Год , июль** - взятие крепости лютик",
    "date": "1696 год",
    "description": "* ** 1696 год , июль** - Взятие крепости Лютик - Устье Дона",
    "location": {
      "name": "Устье Дона",
      "lat": 49.30967239389566,
      "lng": 31.121594840961837
    },
    "category": "Культура и религия"
  },
  {
    "title": "Год , июль** - торжественный въезд петра",
    "date": "1696 год",
    "description": "* ** 1696 год , июль** - Торжественный въезд Петра I в Москву после взятия Азова - Москва",
    "location": {
      "name": "Москва",
      "lat": 55.75,
      "lng": 37.62
    },
    "category": "Культура и религия"
  },
  {
    "title": "Год , октябрь** - боярская дума постановляет",
    "date": "1696 год",
    "description": "* ** 1696 год , октябрь** - Боярская дума постановляет \"Морским судам быть\" - Москва",
    "location": {
      "name": "Москва",
      "lat": 55.75,
      "lng": 37.62
    },
    "category": "Экономические события"
  },
  {
    "title": "Год ** - отправка \"великого посольства\" в",
    "date": "1697 год",
    "description": "* ** 1697 год ** - Отправка \"Великого посольства\" в Европу - Москва, Европа",
    "location": {
      "name": "Москва",
      "lat": 55.75,
      "lng": 37.62
    },
    "category": "Становление государства"
  },
  {
    "title": "- основание таганрога - таганрог",
    "date": "1698 год",
    "description": "* ** 1698 год ** - Основание Таганрога - Таганрог",
    "location": {
      "name": "Таганрог",
      "lat": 54.227194754928675,
      "lng": 50.60477609205215
    },
    "category": "Научные достижения"
  },
  {
    "title": "Год , январь** - карловицкий конгресс -",
    "date": "1699 год",
    "description": "* ** 1699 год , январь** - Карловицкий конгресс - Карловцы (совр",
    "location": {
      "name": "Карловцы",
      "lat": 50.58039254069901,
      "lng": 46.250586539077204
    },
    "category": "Научные достижения"
  },
  {
    "title": "- константинопольский мирный договор - константинополь",
    "date": "1700 год",
    "description": "* ** 1700 год , июль** - Константинопольский мирный договор - Константинополь",
    "location": {
      "name": "Константинополь",
      "lat": 41.01,
      "lng": 28.97
    },
    "category": "Дипломатические события"
  },
  {
    "title": "Год , август** - объявление войны швеции",
    "date": "1700 год",
    "description": "* ** 1700 год , август** - Объявление войны Швеции - Москва",
    "location": {
      "name": "Москва",
      "lat": 55.75,
      "lng": 37.62
    },
    "category": "Военные кампании"
  },
  {
    "title": "Год ** - прутский поход - прут",
    "date": "1711 год",
    "description": "* ** 1711 год ** - Прутский поход - Прут (Молдова)",
    "location": {
      "name": "Прут (Молдова)",
      "lat": 45.623655660911346,
      "lng": 36.00413797391575
    },
    "category": "Революции и перевороты"
  },
  {
    "title": "- подписание прутского мирного договора - гуш",
    "date": "1711 год",
    "description": "* ** 1711 год ** - Подписание Прутского мирного договора - Гуш (Молдова)",
    "location": {
      "name": "Гуш, Молдова",
      "lat": 47.10899514552041,
      "lng": 37.428673981593406
    },
    "category": "Дипломатические события"
  },
  {
    "title": "- русско-турецкая война - юг россии",
    "date": "1736-1739",
    "description": "* ** 1736-1739 годы** - Русско-турецкая война - Юг России, Крым, Азов",
    "location": {
      "name": "Крым",
      "lat": 45.3,
      "lng": 34.2
    },
    "category": "Войны и сражения"
  },
  {
    "title": "Год ** - взятие азова русскими войсками",
    "date": "1736 год",
    "description": "* ** 1736 год ** - Взятие Азова русскими войсками - Азов",
    "location": {
      "name": "Азов",
      "lat": 59.248325019255404,
      "lng": 46.01878539000522
    },
    "category": "Культура и религия"
  },
  {
    "title": "- белградский мирный договор - белград",
    "date": "1739 год",
    "description": "* ** 1739 год ** - Белградский мирный договор - Белград",
    "location": {
      "name": "Белград",
      "lat": 61.28847895627136,
      "lng": 50.31833032842006
    },
    "category": "Дипломатические события"
  },
  {
    "title": "- кючук-кайнарджийский мирный договор - кючук-кайнарджа",
    "date": "1774 год",
    "description": "* ** 1774 год ** - Кючук-Кайнарджийский мирный договор - Кючук-Кайнарджа (совр",
    "location": {
      "name": "Кючук-Кайнарджа",
      "lat": 49.997642500464075,
      "lng": 34.67910236369883
    },
    "category": "Дипломатические события"
  },
  {
    "title": "Весна] - **строительство галер в преображенском** -",
    "date": "1695",
    "description": "* [ 1695 , весна] - **Строительство галер в Преображенском** - Преображенское (под Москвой)",
    "location": {
      "name": "Преображенское",
      "lat": 56.53957739266542,
      "lng": 36.12094685842622
    },
    "category": "Территориальные приобретения"
  },
  {
    "title": "Май] - **переброска артиллерии по рекам** -",
    "date": "1695",
    "description": "* [ 1695 , май] - **Переброска артиллерии по рекам** - Воронеж, Дон",
    "location": {
      "name": "Воронеж, Дон",
      "lat": 47.61215784130566,
      "lng": 46.79588149944448
    },
    "category": "Культура и религия"
  },
  {
    "title": "Июнь] - **первые столкновения с турецкой кавалерией**",
    "date": "1695",
    "description": "* [ 1695 , июнь] - **Первые столкновения с турецкой кавалерией** - Окрестности Азова",
    "location": {
      "name": "Окрестности Азова",
      "lat": 45.27583643985374,
      "lng": 30.226730097354963
    },
    "category": "Дипломатические события"
  },
  {
    "title": "Июль] - **попытка штурма каланчи** - каланча",
    "date": "1695",
    "description": "* [ 1695 , июль] - **Попытка штурма Каланчи** - Каланча (турецкая башня у Азова)",
    "location": {
      "name": "Азов",
      "lat": 52.18361568243396,
      "lng": 51.81097118658487
    },
    "category": "Войны и сражения"
  },
  {
    "title": "Август] - **бомбардировка азова** - азов",
    "date": "1695",
    "description": "* [ 1695 , август] - **Бомбардировка Азова** - Азов",
    "location": {
      "name": "Азов",
      "lat": 49.74352945396697,
      "lng": 46.94324846321879
    },
    "category": "Научные достижения"
  },
  {
    "title": "Сентябрь] - **попытка подкопа под крепость** -",
    "date": "1695",
    "description": "* [ 1695 , сентябрь] - **Попытка подкопа под крепость** - Азов",
    "location": {
      "name": "Азов",
      "lat": 63.797787221949754,
      "lng": 38.758364785422536
    },
    "category": "Политические реформы"
  },
  {
    "title": "Октябрь] - **отступление русских войск** - от",
    "date": "1695",
    "description": "* [ 1695 , октябрь] - **Отступление русских войск** - От Азова к Азовским степям",
    "location": {
      "name": "Азов",
      "lat": 48.0693787554566,
      "lng": 36.087959343579136
    },
    "category": "Научные достижения"
  },
  {
    "title": "Январь] - **указ о строительстве флота** -",
    "date": "1696",
    "description": "* [ 1696 , январь] - **Указ о строительстве флота** - Воронеж",
    "location": {
      "name": "Воронеж",
      "lat": 45.789420414729456,
      "lng": 30.420180712628408
    },
    "category": "Культура и религия"
  },
  {
    "title": "Весна] - **спуск на воду первых кораблей",
    "date": "1696",
    "description": "* [ 1696 , весна] - **Спуск на воду первых кораблей Азовской флотилии** - Воронежская верфь",
    "location": {
      "name": "Воронежская верфь",
      "lat": 63.740340473930594,
      "lng": 41.32243761188577
    },
    "category": "Основание городов"
  },
  {
    "title": "Май] - **блокада азова с моря** -",
    "date": "1696",
    "description": "* [ 1696 , май] - **Блокада Азова с моря** - Азовское море",
    "location": {
      "name": "Азовское море",
      "lat": 60.79073147127097,
      "lng": 49.891157890119764
    },
    "category": "Основание городов"
  },
  {
    "title": "Июнь] - **бой у устья дона** -",
    "date": "1696",
    "description": "* [ 1696 , июнь] - **Бой у устья Дона** - Устье Дона",
    "location": {
      "name": "Устье Дона",
      "lat": 55.934784797027135,
      "lng": 50.690863832976746
    },
    "category": "Войны и сражения"
  },
  {
    "title": "Июль] - **капитуляция азова** - азов",
    "date": "1696",
    "description": "* [ 1696 , июль] - **Капитуляция Азова** - Азов",
    "location": {
      "name": "Азов",
      "lat": 52.50728508779672,
      "lng": 32.3868960201142
    },
    "category": "Войны и сражения"
  },
  {
    "title": "Август] - **взятие лютика** - устье дона",
    "date": "1696",
    "description": "* [ 1696 , август] - **Взятие Лютика** - Устье Дона",
    "location": {
      "name": "Азов",
      "lat": 50.34833935908701,
      "lng": 44.23745709997142
    },
    "category": "Основание городов"
  },
  {
    "title": "Сентябрь] - **торжественный въезд петра i в",
    "date": "1696",
    "description": "* [ 1696 , сентябрь] - **Торжественный въезд Петра I в Москву** - Москва",
    "location": {
      "name": "Москва",
      "lat": 55.75,
      "lng": 37.62
    },
    "category": "Революции и перевороты"
  },
  {
    "title": "Май] - **начало великого посольства** - москва",
    "date": "1697",
    "description": "* [ 1697 , май] - **Начало Великого посольства** - Москва",
    "location": {
      "name": "Москва",
      "lat": 55.75,
      "lng": 37.62
    },
    "category": "Становление государства"
  },
  {
    "title": "Июль] - **строительство таганрога** - таганрог",
    "date": "1698",
    "description": "* [ 1698 , июль] - **Строительство Таганрога** - Таганрог",
    "location": {
      "name": "Таганрог",
      "lat": 53.2028206911386,
      "lng": 42.42516464437013
    },
    "category": "Восстания и бунты"
  },
  {
    "title": "Карловицкий мирный конгресс",
    "date": "1699",
    "description": "* [ 1699 , январь] - **Карловицкий мирный конгресс** - Карловцы (совр",
    "location": {
      "name": "Карловцы",
      "lat": 49.922941891793116,
      "lng": 48.45359363907276
    },
    "category": "Дипломатические события"
  },
  {
    "title": "Константинопольский мирный договор",
    "date": "1700",
    "description": "* [ 1700 , июль] - **Константинопольский мирный договор** - Константинополь",
    "location": {
      "name": "Константинополь",
      "lat": 41.01,
      "lng": 28.97
    },
    "category": "Дипломатические события"
  },
  {
    "title": "Август] - **начало северной войны** - нарва",
    "date": "1700",
    "description": "* [ 1700 , август] - **Начало Северной войны** - Нарва",
    "location": {
      "name": "Нарва",
      "lat": 60.292350492531185,
      "lng": 50.08076789736961
    },
    "category": "Становление государства"
  },
  {
    "title": "Июль] - **прутский поход** - река прут",
    "date": "1711",
    "description": "* [ 1711 , июль] - **Прутский поход** - Река Прут",
    "location": {
      "name": "Река Прут",
      "lat": 61.18130088230967,
      "lng": 44.41715903335673
    },
    "category": "Дипломатические события"
  }
]