[
  {
    "title": "Год ** - **битва при клушине** -",
    "date": "1610 год",
    "description": "* ** 1610 год ** - **Битва при Клушине** - Клушино (между Вязьмой и Можайском)",
    "location": {
      "name": "Клушино",
      "lat": 54.185029501713835,
      "lng": 31.533989332853224
    },
    "category": "Войны и сражения"
  },
  {
    "title": "Деулинское перемирие",
    "date": "1618 год",
    "description": "* ** 1618 год ** - **Деулинское перемирие** - Деулино (близ Троице-Сергиева монастыря)",
    "location": {
      "name": "Деулино",
      "lat": 48.45244735845429,
      "lng": 33.93692163275193
    },
    "category": "Культура и религия"
  },
  {
    "title": "Перемирие между россией и речью посполитой",
    "date": "1609-1618",
    "description": "* Перемирие между Россией и Речью Посполитой, завершившее русско-польскую войну 1609-1618 годов",
    "location": {
      "name": "Деулино",
      "lat": 51.863993653607196,
      "lng": 46.44368479747166
    },
    "category": "Дипломатические события"
  },
  {
    "title": "Год ** - **поляновский мир** - река",
    "date": "1634 год",
    "description": "* ** 1634 год ** - **Поляновский мир** - река Поляновка (между Вязьмой и Дорогобужем)",
    "location": {
      "name": "Река Поляновка (между Вязьмой и Дорогобужем)",
      "lat": 50.87590842178719,
      "lng": 39.14814294947768
    },
    "category": "Дипломатические события"
  },
  {
    "title": "Андрусовское перемирие",
    "date": "1667 год",
    "description": "* ** 1667 год ** - **Андрусовское перемирие** - Андрусово (близ Смоленска)",
    "location": {
      "name": "Андрусово",
      "lat": 61.73301971248944,
      "lng": 45.80720990698158
    },
    "category": "Дипломатические события"
  },
  {
    "title": "Год ** - **вечный мир** - москва",
    "date": "1686 год",
    "description": "* ** 1686 год ** - **Вечный мир** - Москва",
    "location": {
      "name": "Москва",
      "lat": 55.75,
      "lng": 37.62
    },
    "category": "Дипломатические события"
  },
  {
    "title": "Год ** - **начало войны за польское",
    "date": "1733 год",
    "description": "* ** 1733 год ** - **Начало войны за Польское наследство** - Польша",
    "location": {
      "name": "Польша",
      "lat": 48.59868594755997,
      "lng": 39.073762157026366
    },
    "category": "Социальные реформы"
  },
  {
    "title": "Год ** - **осада данцига** - данциг",
    "date": "1734 год",
    "description": "* ** 1734 год ** - **Осада Данцига** - Данциг (Гданьск)",
    "location": {
      "name": "Гданьск",
      "lat": 46.09744568771442,
      "lng": 50.395886367110606
    },
    "category": "Войны и сражения"
  },
  {
    "title": "Год ** - **избрание станислава августа понятовского",
    "date": "1764 год",
    "description": "* ** 1764 год ** - **Избрание Станислава Августа Понятовского королем Польши** - Варшава",
    "location": {
      "name": "Варшава",
      "lat": 64.30214693293713,
      "lng": 42.65281706049738
    },
    "category": "Военные кампании"
  },
  {
    "title": "Год ** - **барская конфедерация** - бар",
    "date": "1768 год",
    "description": "* ** 1768 год ** - **Барская конфедерация** - Бар (Подолье)",
    "location": {
      "name": "Бар",
      "lat": 48.48,
      "lng": 135.08
    },
    "category": "Изменения границ"
  },
  {
    "title": "Год ** - **первый раздел польши** -",
    "date": "1772 год",
    "description": "* ** 1772 год ** - **Первый раздел Польши** - Санкт-Петербург",
    "location": {
      "name": "Санкт-Петербург",
      "lat": 59.94,
      "lng": 30.31
    },
    "category": "Изменения границ"
  },
  {
    "title": "Год ** - **сейм ратифицирует первый раздел",
    "date": "1773 год",
    "description": "* ** 1773 год ** - **Сейм ратифицирует Первый раздел Польши** - Варшава",
    "location": {
      "name": "Варшава",
      "lat": 52.45055115961583,
      "lng": 33.682800570899474
    },
    "category": "Изменения границ"
  },
  {
    "title": "Год ** - **принятие конституции 3 мая**",
    "date": "1791 год",
    "description": "* ** 1791 год ** - **Принятие Конституции 3 мая** - Варшава",
    "location": {
      "name": "Варшава",
      "lat": 53.736715821426344,
      "lng": 43.544931101836724
    },
    "category": "Научные достижения"
  },
  {
    "title": "Русско-польская война",
    "date": "1792 год",
    "description": "* ** 1792 год ** - **Русско-польская война (Война за Конституцию)** - Польша",
    "location": {
      "name": "Польша",
      "lat": 60.914636727128155,
      "lng": 27.12531944944996
    },
    "category": "Войны и сражения"
  },
  {
    "title": "Год ** - **второй раздел польши** -",
    "date": "1793 год",
    "description": "* ** 1793 год ** - **Второй раздел Польши** - Санкт-Петербург",
    "location": {
      "name": "Санкт-Петербург",
      "lat": 59.94,
      "lng": 30.31
    },
    "category": "Изменения границ"
  },
  {
    "title": "Год ** - **восстание костюшко** - польша",
    "date": "1794 год",
    "description": "* ** 1794 год ** - **Восстание Костюшко** - Польша",
    "location": {
      "name": "Варшава",
      "lat": 59.2363242162231,
      "lng": 41.16305520964792
    },
    "category": "Революции и перевороты"
  },
  {
    "title": "Год ** - **штурм праги (предместье варшавы)**",
    "date": "1794 год",
    "description": "* ** 1794 год ** - **Штурм Праги (предместье Варшавы)** - Прага (предместье Варшавы)",
    "location": {
      "name": "Прага (предместье Варшавы)",
      "lat": 46.589341013645985,
      "lng": 51.83110872415698
    },
    "category": "Войны и сражения"
  },
  {
    "title": "Год ** - **третий раздел польши** -",
    "date": "1795 год",
    "description": "* ** 1795 год ** - **Третий раздел Польши** - Санкт-Петербург",
    "location": {
      "name": "Санкт-Петербург",
      "lat": 59.94,
      "lng": 30.31
    },
    "category": "Изменения границ"
  },
  {
    "title": "Год ** - **конвенция о разделе польши**",
    "date": "1797 год",
    "description": "* ** 1797 год ** - **Конвенция о разделе Польши** - Санкт-Петербург",
    "location": {
      "name": "Санкт-Петербург",
      "lat": 59.94,
      "lng": 30.31
    },
    "category": "Изменения границ"
  },
  {
    "title": "Год ** - **тильзитский мир** - тильзит",
    "date": "1807 год",
    "description": "* ** 1807 год ** - **Тильзитский мир** - Тильзит (Советск)",
    "location": {
      "name": "Тильзит",
      "lat": 46.89164514790764,
      "lng": 32.91171785465748
    },
    "category": "Дипломатические события"
  },
  {
    "title": "Год ** - **австро-польская война** - польша",
    "date": "1809 год",
    "description": "* ** 1809 год ** - **Австро-польская война** - Польша",
    "location": {
      "name": "Варшава",
      "lat": 57.66529597220071,
      "lng": 33.22743838153017
    },
    "category": "Войны и сражения"
  },
  {
    "title": "Отечественная война 1812 года",
    "date": "1812 год",
    "description": "* ** 1812 год ** - **Отечественная война 1812 года** - Россия",
    "location": {
      "name": "Бородино",
      "lat": 55.52,
      "lng": 35.83
    },
    "category": "Войны и сражения"
  },
  {
    "title": "Год ** - **венский конгресс** - вена",
    "date": "1815 год",
    "description": "* ** 1815 год ** - **Венский конгресс** - Вена",
    "location": {
      "name": "Вена",
      "lat": 48.21,
      "lng": 16.37
    },
    "category": "Революции и перевороты"
  },
  {
    "title": "Годы** - **ноябрьское восстание** - царство польское",
    "date": "1830-1831",
    "description": "* ** 1830-1831 годы** - **Ноябрьское восстание** - Царство Польское",
    "location": {
      "name": "Варшава",
      "lat": 62.67518225836485,
      "lng": 44.42781774628425
    },
    "category": "Революции и перевороты"
  },
  {
    "title": "Год ** - **органический статут царства польского**",
    "date": "1832 год",
    "description": "* ** 1832 год ** - **Органический статут Царства Польского** - Санкт-Петербург",
    "location": {
      "name": "Санкт-Петербург",
      "lat": 59.94,
      "lng": 30.31
    },
    "category": "Политические реформы"
  },
  {
    "title": "Годы** - **январское восстание** - царство польское",
    "date": "1863-1864",
    "description": "* ** 1863-1864 годы** - **Январское восстание** - Царство Польское, Литва, Белоруссия, Правобережная Украина",
    "location": {
      "name": "Царство Польское",
      "lat": 46.6892353006476,
      "lng": 46.781651646470635
    },
    "category": "Революции и перевороты"
  },
  {
    "title": "Крестьянская реформа в царстве польском",
    "date": "1864 год",
    "description": "* ** 1864 год ** - **Крестьянская реформа в Царстве Польском** - Царство Польское",
    "location": {
      "name": "Царство Польское",
      "lat": 53.56709433990197,
      "lng": 37.22091169122129
    },
    "category": "Социальные реформы"
  },
  {
    "title": "Год ** - **запрет польского языка в",
    "date": "1864 год",
    "description": "* ** 1864 год ** - **Запрет польского языка в образовании и делопроизводстве** - Царство Польское",
    "location": {
      "name": "Царство Польское",
      "lat": 52.7529237468162,
      "lng": 37.49811287936203
    },
    "category": "Становление государства"
  },
  {
    "title": "Годы** - **революция 1905-1907 годов в россии**",
    "date": "1905-1907",
    "description": "* ** 1905-1907 годы** - **Революция 1905-1907 годов в России** - Российская империя, в том числе Царство Польское",
    "location": {
      "name": "Российская империя",
      "lat": 57.815050699580716,
      "lng": 32.803404464192695
    },
    "category": "Революции и перевороты"
  },
  {
    "title": "Начало первой мировой войны",
    "date": "1914 год",
    "description": "* ** 1914 год ** - **Начало Первой мировой войны** - Европа",
    "location": {
      "name": "Санкт-Петербург",
      "lat": 59.94,
      "lng": 30.31
    },
    "category": "Дипломатические события"
  },
  {
    "title": "Год ** - **оккупация царства польского германией",
    "date": "1915 год",
    "description": "* ** 1915 год ** - **Оккупация Царства Польского Германией и Австро-В",
    "location": {
      "name": "Царство Польское",
      "lat": 47.96292673624576,
      "lng": 35.01180172859696
    },
    "category": "Политические реформы"
  },
  {
    "title": "Война за польское наследство** - **польша, европа**",
    "date": "1733-1735",
    "description": "* ** 1733-1735 ** - **Война за польское наследство** - **Польша, Европа**",
    "location": {
      "name": "Польша",
      "lat": 53.529786682026526,
      "lng": 27.40993645869719
    },
    "category": "Войны и сражения"
  },
  {
    "title": "Избрание станислава августа понятовского королем польши** -",
    "date": "1764",
    "description": "* ** 1764 ** - **Избрание Станислава Августа Понятовского королем Польши** - **Варшава**",
    "location": {
      "name": "Варшава",
      "lat": 45.08958710091234,
      "lng": 32.2773618740025
    },
    "category": "Военные кампании"
  },
  {
    "title": "Дело репнина** - **польша**",
    "date": "1766-1767",
    "description": "* ** 1766-1767 ** - **Дело Репнина** - **Польша**",
    "location": {
      "name": "Варшава",
      "lat": 47.06302947946695,
      "lng": 47.53074415714795
    },
    "category": "Территориальные приобретения"
  },
  {
    "title": "Барская конфедерация** - **польша**",
    "date": "1768-1772",
    "description": "* ** 1768-1772 ** - **Барская конфедерация** - **Польша**",
    "location": {
      "name": "Польша",
      "lat": 46.98736880718346,
      "lng": 33.9718943678762
    },
    "category": "Дипломатические события"
  },
  {
    "title": "Похищение короля станислава августа понятовского** - **варшава**",
    "date": "1771",
    "description": "* ** 1771 ** - **Похищение короля Станислава Августа Понятовского** - **Варшава**",
    "location": {
      "name": "Варшава",
      "lat": 49.44301969338616,
      "lng": 41.90743363097281
    },
    "category": "Территориальные приобретения"
  },
  {
    "title": "Первый раздел польши** - **санкт-петербург, вена, берлин**",
    "date": "1772",
    "description": "* ** 1772 ** - **Первый раздел Польши** - **Санкт-Петербург, Вена, Берлин**",
    "location": {
      "name": "Санкт-Петербург, Вена, Берлин",
      "lat": 59.94,
      "lng": 30.31
    },
    "category": "Изменения границ"
  },
  {
    "title": "Учреждение постоянного совета** - **варшава**",
    "date": "1775",
    "description": "* ** 1775 ** - **Учреждение Постоянного Совета** - **Варшава**",
    "location": {
      "name": "Варшава",
      "lat": 60.65821075192091,
      "lng": 42.656129766573
    },
    "category": "Революции и перевороты"
  },
  {
    "title": "Четырехлетний сейм (великий сейм)** - **варшава**",
    "date": "1788-1792",
    "description": "* ** 1788-1792 ** - **Четырехлетний сейм (Великий сейм)** - **Варшава**",
    "location": {
      "name": "Варшава",
      "lat": 56.12855777695248,
      "lng": 37.14719552213467
    },
    "category": "Изменения границ"
  },
  {
    "title": "Принятие конституции 3 мая 1791 года вызывает",
    "date": "1791",
    "description": "Принятие Конституции 3 мая 1791 года вызывает резкое недовольство России и Пруссии",
    "location": {
      "name": "Варшава",
      "lat": 61.74097593800454,
      "lng": 33.096204350459296
    },
    "category": "Дипломатические события"
  },
  {
    "title": "Принятие конституции 3 мая 1791 год а",
    "date": "3 мая 1791 год",
    "description": "Принятие Конституции 3 мая 1791 год а вызывает резкое недовольство России и Пруссии",
    "location": {
      "name": "Варшава",
      "lat": 46.96703371787397,
      "lng": 36.89170279847146
    },
    "category": "Основание городов"
  },
  {
    "title": "Второй раздел польши** - **санкт-петербург, берлин**",
    "date": "1793",
    "description": "* ** 1793 ** - **Второй раздел Польши** - **Санкт-Петербург, Берлин**",
    "location": {
      "name": "Санкт-Петербург",
      "lat": 59.94,
      "lng": 30.31
    },
    "category": "Изменения границ"
  },
  {
    "title": "Восстание костюшко** - **польша, литва, белоруссия**",
    "date": "1794",
    "description": "* ** 1794 ** - **Восстание Костюшко** - **Польша, Литва, Белоруссия**",
    "location": {
      "name": "Польша, Литва, Белоруссия",
      "lat": 54.69,
      "lng": 25.27
    },
    "category": "Революции и перевороты"
  },
  {
    "title": "Штурм праги (варшавской)** - **прага (предместье варшавы)**",
    "date": "1794",
    "description": "* ** 1794 ** - **Штурм Праги (Варшавской)** - **Прага (предместье Варшавы)**",
    "location": {
      "name": "Прага (предместье Варшавы)",
      "lat": 52.29348228238408,
      "lng": 46.71390654767078
    },
    "category": "Войны и сражения"
  },
  {
    "title": "Третий раздел польши** - **санкт-петербург, вена, берлин**",
    "date": "1795",
    "description": "* ** 1795 ** - **Третий раздел Польши** - **Санкт-Петербург, Вена, Берлин**",
    "location": {
      "name": "Санкт-Петербург",
      "lat": 59.94,
      "lng": 30.31
    },
    "category": "Изменения границ"
  },
  {
    "title": "Конвенция о непоминании польши** - **санкт-петербург**",
    "date": "1797",
    "description": "* ** 1797 ** - **Конвенция о непоминании Польши** - **Санкт-Петербург**",
    "location": {
      "name": "Санкт-Петербург",
      "lat": 59.94,
      "lng": 30.31
    },
    "category": "Изменения границ"
  },
  {
    "title": "Смерть последнего короля польши станислава августа понятовского**",
    "date": "1798",
    "description": "* ** 1798 ** - **Смерть последнего короля Польши Станислава Августа Понятовского** - **Санкт-Петербург**",
    "location": {
      "name": "Санкт-Петербург",
      "lat": 59.94,
      "lng": 30.31
    },
    "category": "Научные достижения"
  },
  {
    "title": "Создание варшавского герцогства** - **тильзит**",
    "date": "1807",
    "description": "* ** 1807 ** - **Создание Варшавского герцогства** - **Тильзит**",
    "location": {
      "name": "Тильзит",
      "lat": 58.65252260182994,
      "lng": 51.5390621232617
    },
    "category": "Социальные реформы"
  },
  {
    "title": "Окончательная ликвидация варшавского герцогства** - **европа**",
    "date": "1813",
    "description": "* ** 1813 ** - **Окончательная ликвидация Варшавского герцогства** - **Европа**",
    "location": {
      "name": "Варшава",
      "lat": 59.9145796882374,
      "lng": 32.281140292740936
    },
    "category": "Экономические события"
  },
  {
    "title": "Венский конгресс и создание царства польского",
    "date": "1815",
    "description": "* ** 1815 ** - **Венский конгресс и создание Царства Польского** - **Вена**",
    "location": {
      "name": "Вена",
      "lat": 48.21,
      "lng": 16.37
    },
    "category": "Восстания и бунты"
  },
  {
    "title": "Ноябрьское восстание** - **царство польское**",
    "date": "1830-1831",
    "description": "* ** 1830-1831 ** - **Ноябрьское восстание** - **Царство Польское**",
    "location": {
      "name": "Варшава",
      "lat": 63.79467155319484,
      "lng": 37.11775204880567
    },
    "category": "Революции и перевороты"
  },
  {
    "title": "Январское восстание** - **царство польское, литва, белоруссия",
    "date": "1863-1864",
    "description": "* ** 1863-1864 ** - **Январское восстание** - **Царство Польское, Литва, Белоруссия, Украина**",
    "location": {
      "name": "Царство Польское",
      "lat": 45.68176615363959,
      "lng": 31.288392446898563
    },
    "category": "Революции и перевороты"
  }
]