[
  {
    "title": "Год ** - перенос столицы галицкого княжества",
    "date": "1141 год",
    "description": "* ** 1141 год ** - Перенос столицы Галицкого княжества в Галич - Галич",
    "location": {
      "name": "Галич",
      "lat": 48.28868482054935,
      "lng": 46.43522433670309
    },
    "category": "Становление государства"
  },
  {
    "title": "Год ** - начало правления ярослава осмомысла",
    "date": "1153 год",
    "description": "* ** 1153 год ** - Начало правления Ярослава Осмомысла в Галиче - Галич",
    "location": {
      "name": "Галич",
      "lat": 60.128869696975066,
      "lng": 48.91765718070074
    },
    "category": "Территориальные приобретения"
  },
  {
    "title": "Год ** - первое упоминание украины в",
    "date": "1187 год",
    "description": "* ** 1187 год ** - Первое упоминание Украины в летописи - Киевская Русь (вероятно, окрестности Переяславля)",
    "location": {
      "name": "Окрестности Переяславля",
      "lat": 58.86351408128938,
      "lng": 50.3989752311321
    },
    "category": "Военные кампании"
  },
  {
    "title": "- образование галицко-волынского княжества - владимир-волынский",
    "date": "1199 год",
    "description": "* ** 1199 год ** - Образование Галицко-Волынского княжества - Владимир-Волынский",
    "location": {
      "name": "Владимир-Волынский",
      "lat": 56.13,
      "lng": 40.42
    },
    "category": "Становление государства"
  },
  {
    "title": "Год ** - гибель романа мстиславича в",
    "date": "1205 год",
    "description": "* ** 1205 год ** - Гибель Романа Мстиславича в битве под Завихостом - Завихост (Польша)",
    "location": {
      "name": "Завихост",
      "lat": 49.89617770166226,
      "lng": 35.00864041152318
    },
    "category": "Политические реформы"
  },
  {
    "title": "- спишский договор - спиш",
    "date": "1214 год",
    "description": "* ** 1214 год ** - Спишский договор - Спиш (Словакия)",
    "location": {
      "name": "Спиш",
      "lat": 62.03600804932962,
      "lng": 41.765281926419306
    },
    "category": "Дипломатические события"
  },
  {
    "title": "- битва на реке калке - река калка",
    "date": "1223 год",
    "description": "* ** 1223 год ** - Битва на реке Калке - Река Калка (современная Донецкая область)",
    "location": {
      "name": "Донецкая область",
      "lat": 47.24903930811555,
      "lng": 49.38875002583697
    },
    "category": "Войны и сражения"
  },
  {
    "title": "Год ** - даниил романович занимает галич",
    "date": "1238 год",
    "description": "* ** 1238 год ** - Даниил Романович занимает Галич - Галич",
    "location": {
      "name": "Галич",
      "lat": 57.95704733782545,
      "lng": 41.98779794392944
    },
    "category": "Дипломатические события"
  },
  {
    "title": "Год ** - взятие киева монголами -",
    "date": "1240 год",
    "description": "* ** 1240 год ** - Взятие Киева монголами - Киев",
    "location": {
      "name": "Киев",
      "lat": 50.45,
      "lng": 30.52
    },
    "category": "Военные кампании"
  },
  {
    "title": "- битва под легницей - легница",
    "date": "1241 год",
    "description": "* ** 1241 год ** - Битва под Легницей - Легница (Польша)",
    "location": {
      "name": "Легница",
      "lat": 45.27149961096637,
      "lng": 35.797091848308476
    },
    "category": "Войны и сражения"
  },
  {
    "title": "- битва под ярославом - ярослав",
    "date": "1245 год",
    "description": "* ** 1245 год ** - Битва под Ярославом - Ярослав (близ Дрогобыча)",
    "location": {
      "name": "Ярослав (близ Дрогобыча)",
      "lat": 50.348989348752035,
      "lng": 37.84058316151731
    },
    "category": "Войны и сражения"
  },
  {
    "title": "Год ** - поездка даниила романовича в",
    "date": "1246 год",
    "description": "* ** 1246 год ** - Поездка Даниила Романовича в Орду - Золотая Орда (вероятно, Сарай-Бату)",
    "location": {
      "name": "Сарай-Бату",
      "lat": 63.404716033828606,
      "lng": 33.13061365456248
    },
    "category": "Экономические события"
  },
  {
    "title": "- коронация даниила романовича - дорогичин",
    "date": "1253 год",
    "description": "* ** 1253 год ** - Коронация Даниила Романовича - Дорогичин",
    "location": {
      "name": "Дорогичин",
      "lat": 51.2966551822219,
      "lng": 39.858614718647026
    },
    "category": "Экономические события"
  },
  {
    "title": "Год ** - поход бурундая на галицко-волынскую",
    "date": "1259 год",
    "description": "* ** 1259 год ** - Поход Бурундая на Галицко-Волынскую Русь - Галицко-Волынская Русь",
    "location": {
      "name": "Галицко-Волынская Русь",
      "lat": 64.98747389000798,
      "lng": 40.4528167794038
    },
    "category": "Культура и религия"
  },
  {
    "title": "- смерть даниила романовича - холм",
    "date": "1264 год",
    "description": "* ** 1264 год ** - Смерть Даниила Романовича - Холм",
    "location": {
      "name": "Холм",
      "lat": 52.26907985651344,
      "lng": 34.33388640209514
    },
    "category": "Экономические события"
  },
  {
    "title": "Е годы** - правление льва даниловича -",
    "date": "1270",
    "description": "* ** 1270 -е годы** - Правление Льва Даниловича - Галицко-Волынская Русь",
    "location": {
      "name": "Галицко-Волынская Русь",
      "lat": 48.94191304813991,
      "lng": 31.59767832268529
    },
    "category": "Становление государства"
  },
  {
    "title": "Год ** - перенос столицы княжества во",
    "date": "1282 год",
    "description": "* ** 1282 год ** - Перенос столицы княжества во Львов - Львов",
    "location": {
      "name": "Львов",
      "lat": 62.89127234491396,
      "lng": 48.65213413622294
    },
    "category": "Становление государства"
  },
  {
    "title": "Год ** - участие галицко-волынских войск в",
    "date": "1288 год",
    "description": "* ** 1288 год ** - Участие галицко-волынских войск в походе на Польшу - Польша",
    "location": {
      "name": "Польша",
      "lat": 56.81696382168373,
      "lng": 35.59976375255051
    },
    "category": "Социальные реформы"
  },
  {
    "title": "- смерть владимира васильковича - владимир-волынский",
    "date": "1301 год",
    "description": "* ** 1301 год ** - Смерть Владимира Васильковича - Владимир-Волынский",
    "location": {
      "name": "Владимир-Волынский",
      "lat": 56.13,
      "lng": 40.42
    },
    "category": "Дипломатические события"
  },
  {
    "title": "Год ** - образование галицкой митрополии -",
    "date": "1303 год",
    "description": "* ** 1303 год ** - Образование Галицкой митрополии - Галич",
    "location": {
      "name": "Галич",
      "lat": 49.7720823339399,
      "lng": 43.09176406180393
    },
    "category": "Становление государства"
  },
  {
    "title": "- смерть андрея и льва юрьевичей - галицко-волынская русь",
    "date": "1323 год",
    "description": "* ** 1323 год ** - Смерть Андрея и Льва Юрьевичей - Галицко-Волынская Русь (вероятно, в бою с татарами)",
    "location": {
      "name": "Галицко-Волынская Русь",
      "lat": 56.802402140865894,
      "lng": 29.90462350410649
    },
    "category": "Становление государства"
  },
  {
    "title": "Год ** - начало правления юрия ii",
    "date": "1325 год",
    "description": "* ** 1325 год ** - Начало правления Юрия II Болеслава - Галицко-Волынская Русь",
    "location": {
      "name": "Галицко-Волынская Русь",
      "lat": 54.32880769285866,
      "lng": 50.18874020278306
    },
    "category": "Политические реформы"
  },
  {
    "title": "- отравление юрия ii болеслава - владимир-волынский",
    "date": "1340 год",
    "description": "* ** 1340 год ** - Отравление Юрия II Болеслава - Владимир-Волынский",
    "location": {
      "name": "Владимир-Волынский",
      "lat": 56.13,
      "lng": 40.42
    },
    "category": "Дипломатические события"
  },
  {
    "title": "- захват львова казимиром iii - львов",
    "date": "1340 год",
    "description": "* ** 1340 год ** - Захват Львова Казимиром III - Львов",
    "location": {
      "name": "Львов",
      "lat": 50.41453304764877,
      "lng": 35.52451277008306
    },
    "category": "Дипломатические события"
  },
  {
    "title": "Год ** - окончательное присоединение галиции к",
    "date": "1349 год",
    "description": "* ** 1349 год ** - Окончательное присоединение Галиции к Польше - Галиция",
    "location": {
      "name": "Галиция",
      "lat": 56.34630750608201,
      "lng": 37.66180215405621
    },
    "category": "Изменения границ"
  },
  {
    "title": "Год ** - раздел галицко-волынской руси -",
    "date": "1352 год",
    "description": "* ** 1352 год ** - Раздел Галицко-Волынской Руси - Галицко-Волынская Русь",
    "location": {
      "name": "Галиция и Волынь",
      "lat": 52.6694831960896,
      "lng": 51.76251297790394
    },
    "category": "Изменения границ"
  },
  {
    "title": "Год ** - волынская земля окончательно закрепляется",
    "date": "1366 год",
    "description": "* ** 1366 год ** - Волынская земля окончательно закрепляется за Литвой - Волынь",
    "location": {
      "name": "Волынь",
      "lat": 49.32534201326856,
      "lng": 35.029264870141446
    },
    "category": "Становление государства"
  },
  {
    "title": "Год ** - кревская уния - крево",
    "date": "1385 год",
    "description": "* ** 1385 год ** - Кревская уния - Крево (Литва)",
    "location": {
      "name": "Крево",
      "lat": 64.01311472734119,
      "lng": 44.106803109277905
    },
    "category": "Социальные реформы"
  },
  {
    "title": "Поход даниила романовича на польшу** - **польша**",
    "date": "1219",
    "description": "* ** 1219 ** - **Поход Даниила Романовича на Польшу** - **Польша**",
    "location": {
      "name": "Польша",
      "lat": 60.994566830662436,
      "lng": 49.6233668126807
    },
    "category": "Изменения границ"
  },
  {
    "title": "Съезд князей в дорогочине** - **дорогочин**",
    "date": "1227",
    "description": "* ** 1227 ** - **Съезд князей в Дорогочине** - **Дорогочин**",
    "location": {
      "name": "Дорогочин",
      "lat": 51.64534038881514,
      "lng": 51.26693254191181
    },
    "category": "Дипломатические события"
  },
  {
    "title": "Поход даниила романовича на ятвягов** - **ятвягия",
    "date": "1230",
    "description": "* ** 1230 ** - **Поход Даниила Романовича на Ятвягов** - **Ятвягия (совр",
    "location": {
      "name": "Ятвягия",
      "lat": 51.99309714748307,
      "lng": 39.626246600756474
    },
    "category": "Основание городов"
  },
  {
    "title": "Взятие галича даниилом романовичем** - **галич**",
    "date": "1233",
    "description": "* ** 1233 ** - **Взятие Галича Даниилом Романовичем** - **Галич**",
    "location": {
      "name": "Галич",
      "lat": 62.73398940771243,
      "lng": 35.38604672726629
    },
    "category": "Восстания и бунты"
  },
  {
    "title": "Участие даниила романовича в борьбе за киев**",
    "date": "1235",
    "description": "* ** 1235 ** - **Участие Даниила Романовича в борьбе за Киев** - **Киев**",
    "location": {
      "name": "Киев",
      "lat": 50.45,
      "lng": 30.52
    },
    "category": "Социальные реформы"
  },
  {
    "title": "Оборона владимира-волынского от монголов",
    "date": "1241",
    "description": "* ** 1241 ** - **Оборона Владимира-Волынского от монголов** - **Владимир-Волынский**",
    "location": {
      "name": "Владимир-Волынский",
      "lat": 56.13,
      "lng": 40.42
    },
    "category": "Войны и сражения"
  },
  {
    "title": "Битва под ярославом** - **ярослав (совр",
    "date": "1245",
    "description": "* ** 1245 ** - **Битва под Ярославом** - **Ярослав (совр",
    "location": {
      "name": "Ярославль",
      "lat": 57.63,
      "lng": 39.87
    },
    "category": "Войны и сражения"
  },
  {
    "title": "Поездка даниила романовича к батыю** - **сарай-бату",
    "date": "1247",
    "description": "* ** 1247 ** - **Поездка Даниила Романовича к Батыю** - **Сарай-Бату (столица Золотой Орды)**",
    "location": {
      "name": "Сарай-Бату",
      "lat": 63.332283992305335,
      "lng": 33.15965150959022
    },
    "category": "Революции и перевороты"
  },
  {
    "title": "Коронация даниила романовича в дорогочине** - **дорогочин**",
    "date": "1253",
    "description": "* ** 1253 ** - **Коронация Даниила Романовича в Дорогочине** - **Дорогочин**",
    "location": {
      "name": "Дорогочин",
      "lat": 49.58465587427841,
      "lng": 46.06344549806484
    },
    "category": "Изменения границ"
  },
  {
    "title": "Военные действия даниила романовича против орды** -",
    "date": "1254-1255",
    "description": "* ** 1254-1255 ** - **Военные действия Даниила Романовича против Орды** - **Галицко-Волынская Русь**",
    "location": {
      "name": "Галицко-Волынская Русь",
      "lat": 45.67609627532667,
      "lng": 30.58346677202015
    },
    "category": "Войны и сражения"
  },
  {
    "title": "Поход бурундая на галицко-волынскую русь** - **галицко-волынская",
    "date": "1259",
    "description": "* ** 1259 ** - **Поход Бурундая на Галицко-Волынскую Русь** - **Галицко-Волынская Русь**",
    "location": {
      "name": "Галицко-Волынская Русь",
      "lat": 59.79622369973923,
      "lng": 40.27004697767053
    },
    "category": "Дипломатические события"
  },
  {
    "title": "Смерть даниила романовича** - **холм**",
    "date": "1264",
    "description": "* ** 1264 ** - **Смерть Даниила Романовича** - **Холм**",
    "location": {
      "name": "Холм",
      "lat": 63.01195125634897,
      "lng": 42.35878505913482
    },
    "category": "Войны и сражения"
  },
  {
    "title": "Строительство каменных церквей во владимире-волынском",
    "date": "1270",
    "description": "* ** 1270 -е годы** - **Строительство каменных церквей во Владимире-Волынском** - **Владимир-Волынский**",
    "location": {
      "name": "Владимир-Волынский",
      "lat": 56.13,
      "lng": 40.42
    },
    "category": "Дипломатические события"
  },
  {
    "title": "Поход талабуги и алгуя на польшу через",
    "date": "1287",
    "description": "* ** 1287 ** - **Поход Талабуги и Алгуя на Польшу через Галицко-Волынскую Русь** - **Галицко-Волынская Русь, Польша**",
    "location": {
      "name": "Галицко-Волынская Русь, Польша",
      "lat": 57.60477241196965,
      "lng": 44.025388886487
    },
    "category": "Социальные реформы"
  },
  {
    "title": "Борьба за власть после смерти владимира васильковича",
    "date": "1288-1289",
    "description": "* ** 1288-1289 ** - **Борьба за власть после смерти Владимира Васильковича** - **Галицко-Волынская Русь**",
    "location": {
      "name": "Галицко-Волынская Русь",
      "lat": 54.39366144723063,
      "lng": 40.03364549830731
    },
    "category": "Дипломатические события"
  },
  {
    "title": "Смерть юрия львовича** - **галич**",
    "date": "1301",
    "description": "* ** 1301 ** - **Смерть Юрия Львовича** - **Галич**",
    "location": {
      "name": "Галич",
      "lat": 61.71460429943302,
      "lng": 49.93844951163133
    },
    "category": "Военные кампании"
  },
  {
    "title": "Образование галицкой митрополии** - **галич**",
    "date": "1303",
    "description": "* ** 1303 ** - **Образование Галицкой митрополии** - **Галич**",
    "location": {
      "name": "Галич",
      "lat": 49.18816487708768,
      "lng": 41.1719903859929
    },
    "category": "Становление государства"
  },
  {
    "title": "Смерть андрея и льва юрьевичей** - **галицко-волынская",
    "date": "1323",
    "description": "* ** 1323 ** - **Смерть Андрея и Льва Юрьевичей** - **Галицко-Волынская Русь**",
    "location": {
      "name": "Галицко-Волынская Русь",
      "lat": 57.49917539299881,
      "lng": 38.18198583264157
    },
    "category": "Экономические события"
  },
  {
    "title": "Владимир-волынский",
    "date": "1340",
    "description": "* ** 1340 ** - **Отравление Юрия II Болеслава и начало борьбы за Галицко-Волынское наследство** - **Владимир-Волынский**",
    "location": {
      "name": "Владимир-Волынский",
      "lat": 56.13,
      "lng": 40.42
    },
    "category": "Дипломатические события"
  }
]