[
  {
    "title": "Год ** - появление слухов о чудесно",
    "date": "1600 год",
    "description": "* ** 1600 год ** - Появление слухов о чудесно спасшемся царевиче Дмитрии - Москва и окрестности",
    "location": {
      "name": "Москва и окрестности",
      "lat": 55.75,
      "lng": 37.62
    },
    "category": "Экономические события"
  },
  {
    "title": "Год ** - первые упоминания о григории",
    "date": "1601 год",
    "description": "* ** 1601 год ** - Первые упоминания о Григории Отрепьеве в Чудовом монастыре - Москва",
    "location": {
      "name": "Москва",
      "lat": 55.75,
      "lng": 37.62
    },
    "category": "Культура и религия"
  },
  {
    "title": "Год ** - бегство григория отрепьева из",
    "date": "1602 год",
    "description": "* ** 1602 год ** - Бегство Григория Отрепьева из Москвы - Москва",
    "location": {
      "name": "Москва",
      "lat": 55.75,
      "lng": 37.62
    },
    "category": "Становление государства"
  },
  {
    "title": "Год ** - объявление григория отрепьева царевичем",
    "date": "1603 год",
    "description": "* ** 1603 год ** - Объявление Григория Отрепьева царевичем Дмитрием - Самбор, Речь Посполитая",
    "location": {
      "name": "Самбор",
      "lat": 52.74851054279482,
      "lng": 27.665417642569984
    },
    "category": "Революции и перевороты"
  },
  {
    "title": "Год , апрель** - тайный переход в",
    "date": "1604 год",
    "description": "* ** 1604 год , апрель** - Тайный переход в католичество - Краков, Речь Посполитая",
    "location": {
      "name": "Краков",
      "lat": 57.20004169407535,
      "lng": 31.62202303571535
    },
    "category": "Революции и перевороты"
  },
  {
    "title": "Год , апрель** - обещание лжедмитрия i",
    "date": "1604 год",
    "description": "* ** 1604 год , апрель** - Обещание Лжедмитрия I ввести католичество в России - Краков, Речь Посполитая",
    "location": {
      "name": "Краков",
      "lat": 45.69557551319883,
      "lng": 50.92747626117642
    },
    "category": "Военные кампании"
  },
  {
    "title": "Год , апрель** - обручение с мариной",
    "date": "1604 год",
    "description": "* ** 1604 год , апрель** - Обручение с Мариной Мнишек - Краков, Речь Посполитая",
    "location": {
      "name": "Краков",
      "lat": 47.69242210251192,
      "lng": 48.14378457486919
    },
    "category": "Военные кампании"
  },
  {
    "title": "Год , октябрь** - начало похода лжедмитрия",
    "date": "1604 год",
    "description": "* ** 1604 год , октябрь** - Начало похода Лжедмитрия I на Москву - Украина, Речь Посполитая",
    "location": {
      "name": "Украина",
      "lat": 50.45,
      "lng": 30.52
    },
    "category": "Экономические события"
  },
  {
    "title": "- битва под новгородом-северским - новгород-северский",
    "date": "1604 год",
    "description": "* ** 1604 год , декабрь** - Битва под Новгородом-Северским - Новгород-Северский",
    "location": {
      "name": "Новгород-Северский",
      "lat": 58.52,
      "lng": 31.27
    },
    "category": "Войны и сражения"
  },
  {
    "title": "- битва под добрыничами - добрыничи",
    "date": "1605 год",
    "description": "* ** 1605 год , январь** - Битва под Добрыничами - Добрыничи",
    "location": {
      "name": "Добрыничи",
      "lat": 56.5459260767179,
      "lng": 38.41030654513095
    },
    "category": "Войны и сражения"
  },
  {
    "title": "- внезапная смерть бориса годунова - москва",
    "date": "1605 год",
    "description": "* ** 1605 год , апрель** - Внезапная смерть Бориса Годунова - Москва",
    "location": {
      "name": "Москва",
      "lat": 55.75,
      "lng": 37.62
    },
    "category": "Культура и религия"
  },
  {
    "title": "Год , май** - переход царских войск",
    "date": "1605 год",
    "description": "* ** 1605 год , май** - Переход царских войск на сторону Лжедмитрия I - Кромы",
    "location": {
      "name": "Кромы",
      "lat": 57.26760857182221,
      "lng": 51.34840664525012
    },
    "category": "Изменения границ"
  },
  {
    "title": "Год , июнь** - убийство федора годунова",
    "date": "1605 год",
    "description": "* ** 1605 год , июнь** - Убийство Федора Годунова и его матери - Москва",
    "location": {
      "name": "Москва",
      "lat": 55.75,
      "lng": 37.62
    },
    "category": "Дипломатические события"
  },
  {
    "title": "Год , июнь** - вступление лжедмитрия i",
    "date": "1605 год",
    "description": "* ** 1605 год , июнь** - Вступление Лжедмитрия I в Москву - Москва",
    "location": {
      "name": "Москва",
      "lat": 55.75,
      "lng": 37.62
    },
    "category": "Восстания и бунты"
  },
  {
    "title": "Год , июль** - признание лжедмитрия i",
    "date": "1605 год",
    "description": "* ** 1605 год , июль** - Признание Лжедмитрия I матерью царевича Дмитрия, Марией Нагой - Москва",
    "location": {
      "name": "Москва",
      "lat": 55.75,
      "lng": 37.62
    },
    "category": "Территориальные приобретения"
  },
  {
    "title": "Год , июль - 1606 год, май**",
    "date": "1605 год",
    "description": "* ** 1605 год , июль - 1606 год, май** - Правление Лжедмитрия I - Москва",
    "location": {
      "name": "Москва",
      "lat": 55.75,
      "lng": 37.62
    },
    "category": "Территориальные приобретения"
  },
  {
    "title": "Год, июль - 1606 год , май**",
    "date": "1606 год",
    "description": "* **1605 год, июль - 1606 год , май** - Правление Лжедмитрия I - Москва",
    "location": {
      "name": "Москва",
      "lat": 55.75,
      "lng": 37.62
    },
    "category": "Научные достижения"
  },
  {
    "title": "Год , ноябрь** - прибытие польского посольства",
    "date": "1605 год",
    "description": "* ** 1605 год , ноябрь** - Прибытие польского посольства в Москву - Москва",
    "location": {
      "name": "Москва",
      "lat": 55.75,
      "lng": 37.62
    },
    "category": "Войны и сражения"
  },
  {
    "title": "Год , май** - свадьба лжедмитрия i",
    "date": "1606 год",
    "description": "* ** 1606 год , май** - Свадьба Лжедмитрия I и Марины Мнишек - Москва",
    "location": {
      "name": "Москва",
      "lat": 55.75,
      "lng": 37.62
    },
    "category": "Революции и перевороты"
  },
  {
    "title": "Год , май** - заговор против лжедмитрия",
    "date": "1606 год",
    "description": "* ** 1606 год , май** - Заговор против Лжедмитрия I во главе с Василием Шуйским - Москва",
    "location": {
      "name": "Москва",
      "lat": 55.75,
      "lng": 37.62
    },
    "category": "Дипломатические события"
  },
  {
    "title": "Год , 17 мая** - убийство лжедмитрия",
    "date": "1606 год",
    "description": "* ** 1606 год , 17 мая** - Убийство Лжедмитрия I - Москва",
    "location": {
      "name": "Москва",
      "lat": 55.75,
      "lng": 37.62
    },
    "category": "Территориальные приобретения"
  },
  {
    "title": "Год , 19 мая** - избрание василия",
    "date": "1606 год",
    "description": "* ** 1606 год , 19 мая** - Избрание Василия Шуйского царем - Москва",
    "location": {
      "name": "Москва",
      "lat": 55.75,
      "lng": 37.62
    },
    "category": "Революции и перевороты"
  },
  {
    "title": "Год , июль** - признание марины мнишек",
    "date": "1606 год",
    "description": "* ** 1606 год , июль** - Признание Марины Мнишек женой Лжедмитрия I - Москва",
    "location": {
      "name": "Москва",
      "lat": 55.75,
      "lng": 37.62
    },
    "category": "Изменения границ"
  },
  {
    "title": "Год , август** - перезахоронение останков царевича",
    "date": "1606 год",
    "description": "* ** 1606 год , август** - Перезахоронение останков царевича Дмитрия в Архангельском соборе - Москва",
    "location": {
      "name": "Москва",
      "lat": 55.75,
      "lng": 37.62
    },
    "category": "Культура и религия"
  },
  {
    "title": "Год , осень** - начало восстания ивана",
    "date": "1606 год",
    "description": "* ** 1606 год , осень** - Начало восстания Ивана Болотникова - Юг России",
    "location": {
      "name": "Юг России",
      "lat": 52.14498615421935,
      "lng": 30.611888813169507
    },
    "category": "Революции и перевороты"
  },
  {
    "title": "Год ** - появление лжедмитрия ii -",
    "date": "1608 год",
    "description": "* ** 1608 год ** - Появление Лжедмитрия II - Стародуб",
    "location": {
      "name": "Стародуб",
      "lat": 46.7528071297387,
      "lng": 34.227529992474
    },
    "category": "Войны и сражения"
  },
  {
    "title": "Год ** - свержение василия шуйского -",
    "date": "1610 год",
    "description": "* ** 1610 год ** - Свержение Василия Шуйского - Москва",
    "location": {
      "name": "Москва",
      "lat": 55.75,
      "lng": 37.62
    },
    "category": "Революции и перевороты"
  },
  {
    "title": "Год ** - убийство лжедмитрия ii -",
    "date": "1610 год",
    "description": "* ** 1610 год ** - Убийство Лжедмитрия II - Калуга",
    "location": {
      "name": "Калуга",
      "lat": 60.38933369999703,
      "lng": 29.962089085436155
    },
    "category": "Изменения границ"
  },
  {
    "title": "Год ** - казнь ивана заруцкого и",
    "date": "1614 год",
    "description": "* ** 1614 год ** - Казнь Ивана Заруцкого и сына Марины Мнишек - Москва",
    "location": {
      "name": "Москва",
      "lat": 55.75,
      "lng": 37.62
    },
    "category": "Научные достижения"
  },
  {
    "title": "- смерть марины мнишек - коломна",
    "date": "1614 год",
    "description": "* ** 1614 год ** - Смерть Марины Мнишек - Коломна",
    "location": {
      "name": "Коломна",
      "lat": 51.61590991612317,
      "lng": 40.48655626093295
    },
    "category": "Социальные реформы"
  },
  {
    "title": "Осень** - **начало контактов лжедмитрия i с",
    "date": "1602",
    "description": "* ** 1602 , осень** - **Начало контактов Лжедмитрия I с польскими магнатами Вишневецкими** - Имение Вишневецких, Брагин (совр",
    "location": {
      "name": "Брагин",
      "lat": 51.40970002215581,
      "lng": 38.04227597816849
    },
    "category": "Культура и религия"
  },
  {
    "title": "Весна** - **переговоры лжедмитрия i с папским",
    "date": "1603",
    "description": "* ** 1603 , весна** - **Переговоры Лжедмитрия I с папским нунцием Рангони** - Ярославль (предположительно)",
    "location": {
      "name": "Ярославль",
      "lat": 57.63,
      "lng": 39.87
    },
    "category": "Дипломатические события"
  },
  {
    "title": "Ноябрь** - **принятие лжедмитрием i католичества** -",
    "date": "1603",
    "description": "* ** 1603 , ноябрь** - **Принятие Лжедмитрием I католичества** - Краков",
    "location": {
      "name": "Краков",
      "lat": 45.86209811203278,
      "lng": 36.95425764138676
    },
    "category": "Военные кампании"
  },
  {
    "title": "Апрель** - **получение поддержки от короля сигизмунда",
    "date": "1604",
    "description": "* ** 1604 , апрель** - **Получение поддержки от короля Сигизмунда III** - Краков",
    "location": {
      "name": "Краков",
      "lat": 50.287286172736444,
      "lng": 31.198786128959817
    },
    "category": "Становление государства"
  },
  {
    "title": "Июнь** - **подписание соглашения с юрием мнишеком**",
    "date": "1604",
    "description": "* ** 1604 , июнь** - **Подписание соглашения с Юрием Мнишеком** - Самбор (совр",
    "location": {
      "name": "Самбор",
      "lat": 61.4002990048827,
      "lng": 38.830937411377775
    },
    "category": "Дипломатические события"
  },
  {
    "title": "Начало формирования войска лжедмитрия i",
    "date": "1604",
    "description": "* ** 1604 , август** - **Начало формирования войска Лжедмитрия I** - Окрестности Самбора",
    "location": {
      "name": "Окрестности Самбора",
      "lat": 46.95341050313292,
      "lng": 29.37526444049958
    },
    "category": "Дипломатические события"
  },
  {
    "title": "Первое крупное сражение с царскими войсками",
    "date": "1604",
    "description": "* ** 1604 , декабрь** - **Первое крупное сражение с царскими войсками** - Новгород-Северский",
    "location": {
      "name": "Новгород-Северский",
      "lat": 58.52,
      "lng": 31.27
    },
    "category": "Войны и сражения"
  },
  {
    "title": "Январь** - **переход на сторону лжедмитрия i",
    "date": "1605",
    "description": "* ** 1605 , январь** - **Переход на сторону Лжедмитрия I городов Чернигов и Путивль** - Чернигов, Путивль",
    "location": {
      "name": "Чернигов, Путивль",
      "lat": 61.72458948373901,
      "lng": 35.309464426397795
    },
    "category": "Социальные реформы"
  },
  {
    "title": "Внезапная смерть царя бориса годунова",
    "date": "1605",
    "description": "* ** 1605 , апрель** - **Внезапная смерть царя Бориса Годунова** - Москва",
    "location": {
      "name": "Москва",
      "lat": 55.75,
      "lng": 37.62
    },
    "category": "Становление государства"
  },
  {
    "title": "Май** - **переход царских войск на сторону",
    "date": "1605",
    "description": "* ** 1605 , май** - **Переход царских войск на сторону Лжедмитрия I под Кромами** - Кромы",
    "location": {
      "name": "Кромы",
      "lat": 57.04142186659254,
      "lng": 28.609964191031715
    },
    "category": "Научные достижения"
  },
  {
    "title": "Июнь** - **убийство царя федора годунова и",
    "date": "1605",
    "description": "* ** 1605 , июнь** - **Убийство царя Федора Годунова и его матери** - Москва",
    "location": {
      "name": "Москва",
      "lat": 55.75,
      "lng": 37.62
    },
    "category": "Становление государства"
  },
  {
    "title": "Июнь** - **торжественный въезд лжедмитрия i в",
    "date": "1605",
    "description": "* ** 1605 , июнь** - **Торжественный въезд Лжедмитрия I в Москву** - Москва",
    "location": {
      "name": "Москва",
      "lat": 55.75,
      "lng": 37.62
    },
    "category": "Социальные реформы"
  },
  {
    "title": "Июль** - **венчание на царство лжедмитрия i**",
    "date": "1605",
    "description": "* ** 1605 , июль** - **Венчание на царство Лжедмитрия I** - Москва, Успенский собор",
    "location": {
      "name": "Москва",
      "lat": 55.75,
      "lng": 37.62
    },
    "category": "Культура и религия"
  },
  {
    "title": "Попытки реформ в армии** - москва",
    "date": "1605-1606",
    "description": "* ** 1605-1606 ** - **Попытки реформ в армии** - Москва",
    "location": {
      "name": "Москва",
      "lat": 55.75,
      "lng": 37.62
    },
    "category": "Социальные реформы"
  },
  {
    "title": "Поощрение западной культуры и обычаев** - москва",
    "date": "1605-1606",
    "description": "* ** 1605-1606 ** - **Поощрение западной культуры и обычаев** - Москва",
    "location": {
      "name": "Москва",
      "lat": 55.75,
      "lng": 37.62
    },
    "category": "Культура и религия"
  },
  {
    "title": "Май** - **свадьба лжедмитрия i и марины",
    "date": "1606",
    "description": "* ** 1606 , май** - **Свадьба Лжедмитрия I и Марины Мнишек** - Москва",
    "location": {
      "name": "Москва",
      "lat": 55.75,
      "lng": 37.62
    },
    "category": "Дипломатические события"
  },
  {
    "title": "Май** - **заговор против лжедмитрия i под",
    "date": "1606",
    "description": "* ** 1606 , май** - **Заговор против Лжедмитрия I под руководством Василия Шуйского** - Москва",
    "location": {
      "name": "Москва",
      "lat": 55.75,
      "lng": 37.62
    },
    "category": "Основание городов"
  },
  {
    "title": "Мая** - **убийство лжедмитрия i** - москва",
    "date": "1606",
    "description": "* ** 1606 , 17 мая** - **Убийство Лжедмитрия I** - Москва, Кремль",
    "location": {
      "name": "Москва",
      "lat": 55.75,
      "lng": 37.62
    },
    "category": "Военные кампании"
  },
  {
    "title": "Май** - **расправа над поляками в москве**",
    "date": "1606",
    "description": "* ** 1606 , май** - **Расправа над поляками в Москве** - Москва",
    "location": {
      "name": "Москва",
      "lat": 55.75,
      "lng": 37.62
    },
    "category": "Становление государства"
  },
  {
    "title": "Июнь** - **избрание василия шуйского царем** -",
    "date": "1606",
    "description": "* ** 1606 , июнь** - **Избрание Василия Шуйского царем** - Москва",
    "location": {
      "name": "Москва",
      "lat": 55.75,
      "lng": 37.62
    },
    "category": "Социальные реформы"
  }
]