[
  {
    "title": "Августа 1756 ** - начало семилетней войны",
    "date": "1756",
    "description": "* **29 августа 1756 ** - Начало Семилетней войны - Европа",
    "location": {
      "name": "Европа",
      "lat": 50.0,
      "lng": 10.0
    },
    "category": "Экономические события"
  },
  {
    "title": "Январь 1757 ** - подписание санкт-петербургской конвенции",
    "date": "1757",
    "description": "* **Январь 1757 ** - Подписание Санкт-Петербургской конвенции - Санкт-Петербург",
    "location": {
      "name": "Санкт-Петербург",
      "lat": 59.94,
      "lng": 30.31
    },
    "category": "Основание городов"
  },
  {
    "title": "- указ елизаветы петровны о вступлении россии в войну - санкт-петербург",
    "date": "1757",
    "description": "* **Май 1757 ** - Указ Елизаветы Петровны о вступлении России в войну - Санкт-Петербург",
    "location": {
      "name": "Санкт-Петербург",
      "lat": 59.94,
      "lng": 30.31
    },
    "category": "Культура и религия"
  },
  {
    "title": "- битва при гросс-егерсдорфе - гросс-егерсдорф",
    "date": "1757",
    "description": "* **30 августа 1757 ** - Битва при Гросс-Егерсдорфе - Гросс-Егерсдорф (Восточная Пруссия, ныне Калининградская область)",
    "location": {
      "name": "Гросс-Егерсдорф",
      "lat": 54.10841840850723,
      "lng": 31.425214635948464
    },
    "category": "Войны и сражения"
  },
  {
    "title": "Октябрь 1757 ** - отстранение апраксина от",
    "date": "1757",
    "description": "* **Октябрь 1757 ** - Отстранение Апраксина от командования - Россия",
    "location": {
      "name": "Санкт-Петербург",
      "lat": 59.94,
      "lng": 30.31
    },
    "category": "Научные достижения"
  },
  {
    "title": "Январь 1758 ** - взятие кёнигсберга -",
    "date": "1758",
    "description": "* **Январь 1758 ** - Взятие Кёнигсберга - Кёнигсберг (Восточная Пруссия, ныне Калининград)",
    "location": {
      "name": "Кёнигсберг",
      "lat": 53.00792851735036,
      "lng": 31.084277031608053
    },
    "category": "Восстания и бунты"
  },
  {
    "title": "- битва при цорндорфе - цорндорф",
    "date": "1758",
    "description": "* **Август 1758 ** - Битва при Цорндорфе - Цорндорф (Бранденбург, Германия)",
    "location": {
      "name": "Цорндорф (Бранденбург, Германия)",
      "lat": 48.83399912558483,
      "lng": 45.268529190452064
    },
    "category": "Войны и сражения"
  },
  {
    "title": "Сентябрь 1758 ** - отступление русской армии",
    "date": "1758",
    "description": "* **Сентябрь 1758 ** - Отступление русской армии в Польшу - Польша",
    "location": {
      "name": "Польша",
      "lat": 53.91947804334469,
      "lng": 28.88260164864785
    },
    "category": "Политические реформы"
  },
  {
    "title": "Июль 1759 ** - назначение салтыкова главнокомандующим",
    "date": "1759",
    "description": "* **Июль 1759 ** - Назначение Салтыкова главнокомандующим - Россия",
    "location": {
      "name": "Санкт-Петербург",
      "lat": 59.94,
      "lng": 30.31
    },
    "category": "Изменения границ"
  },
  {
    "title": "- битва при пальциге",
    "date": "1759",
    "description": "* **1 августа 1759 ** - Битва при Пальциге (Кае) - Пальциг (Кай) (Бранденбург, Германия)",
    "location": {
      "name": "Пальциг (Кай)",
      "lat": 58.144380482130174,
      "lng": 36.78400485771359
    },
    "category": "Войны и сражения"
  },
  {
    "title": "- битва при кунерсдорфе - кунерсдорф",
    "date": "1759",
    "description": "* **12 августа 1759 ** - Битва при Кунерсдорфе - Кунерсдорф (Бранденбург, Германия)",
    "location": {
      "name": "Кунерсдорф",
      "lat": 48.15220321109581,
      "lng": 28.345810886155455
    },
    "category": "Войны и сражения"
  },
  {
    "title": "Сентябрь-октябрь 1759 ** - рейд русских войск",
    "date": "1759",
    "description": "* **Сентябрь-Октябрь 1759 ** - Рейд русских войск на Берлин - Берлин",
    "location": {
      "name": "Берлин",
      "lat": 52.52,
      "lng": 13.4
    },
    "category": "Изменения границ"
  },
  {
    "title": "Сентябрь 1760 ** - взятие берлина -",
    "date": "1760",
    "description": "* **Сентябрь 1760 ** - Взятие Берлина - Берлин",
    "location": {
      "name": "Берлин",
      "lat": 52.52,
      "lng": 13.4
    },
    "category": "Революции и перевороты"
  },
  {
    "title": "Октябрь 1760 ** - отступление из берлина",
    "date": "1760",
    "description": "* **Октябрь 1760 ** - Отступление из Берлина - Берлин",
    "location": {
      "name": "Берлин",
      "lat": 52.52,
      "lng": 13.4
    },
    "category": "Войны и сражения"
  },
  {
    "title": "- сражение при лигнице - лигниц",
    "date": "1760",
    "description": "* ** 1760 ** - Сражение при Лигнице - Лигниц (Силезия, ныне Легница, Польша)",
    "location": {
      "name": "Легница",
      "lat": 46.083440407091494,
      "lng": 32.638674175475565
    },
    "category": "Войны и сражения"
  },
  {
    "title": "Декабрь 1761 ** - взятие кольберга -",
    "date": "1761",
    "description": "* **Декабрь 1761 ** - Взятие Кольберга - Кольберг (Померания, ныне Колобжег, Польша)",
    "location": {
      "name": "Колобжег",
      "lat": 60.879272890918415,
      "lng": 38.980792163821434
    },
    "category": "Войны и сражения"
  },
  {
    "title": "- смерть императрицы елизаветы петровны - санкт-петербург",
    "date": "1762",
    "description": "* **5 января 1762 ** - Смерть императрицы Елизаветы Петровны - Санкт-Петербург",
    "location": {
      "name": "Санкт-Петербург",
      "lat": 59.94,
      "lng": 30.31
    },
    "category": "Культура и религия"
  },
  {
    "title": "- заключение петербургского мира - санкт-петербург",
    "date": "1762",
    "description": "* **Март 1762 ** - Заключение Петербургского мира - Санкт-Петербург",
    "location": {
      "name": "Санкт-Петербург",
      "lat": 59.94,
      "lng": 30.31
    },
    "category": "Дипломатические события"
  },
  {
    "title": "- указ о вольности дворянства - санкт-петербург",
    "date": "1762",
    "description": "* **Июнь 1762 ** - Указ о вольности дворянства - Санкт-Петербург",
    "location": {
      "name": "Санкт-Петербург",
      "lat": 59.94,
      "lng": 30.31
    },
    "category": "Становление государства"
  },
  {
    "title": "- дворцовый переворот - петергоф",
    "date": "1762",
    "description": "* **9 июля 1762 ** - Дворцовый переворот - Петергоф",
    "location": {
      "name": "Петергоф",
      "lat": 55.01196779836194,
      "lng": 50.79761545266076
    },
    "category": "Революции и перевороты"
  },
  {
    "title": "Июль 1762 ** - возобновление союза с",
    "date": "1762",
    "description": "* **Июль 1762 ** - Возобновление союза с Австрией - Санкт-Петербург",
    "location": {
      "name": "Санкт-Петербург",
      "lat": 59.94,
      "lng": 30.31
    },
    "category": "Дипломатические события"
  },
  {
    "title": "Завершение семилетней войны - европа",
    "date": "1762",
    "description": "* ** 1762 ** - Завершение Семилетней войны - Европа",
    "location": {
      "name": "Санкт-Петербург",
      "lat": 59.94,
      "lng": 30.31
    },
    "category": "Военные кампании"
  },
  {
    "title": "Обеспечение русской армии провиантом и фуражом -",
    "date": "1756-1762",
    "description": "* ** 1756-1762 ** - Обеспечение русской армии провиантом и фуражом - Россия",
    "location": {
      "name": "Россия",
      "lat": 55.75,
      "lng": 37.62
    },
    "category": "Политические реформы"
  },
  {
    "title": "Мобилизация и рекрутские наборы - россия",
    "date": "1757-1762",
    "description": "* ** 1757-1762 ** - Мобилизация и рекрутские наборы - Россия",
    "location": {
      "name": "Россия",
      "lat": 55.75,
      "lng": 37.62
    },
    "category": "Политические реформы"
  },
  {
    "title": "Финансирование войны - россия",
    "date": "1757-1762",
    "description": "* ** 1757-1762 ** - Финансирование войны - Россия",
    "location": {
      "name": "Санкт-Петербург",
      "lat": 59.94,
      "lng": 30.31
    },
    "category": "Экономические события"
  },
  {
    "title": "Действия русского флота на балтике - балтийское",
    "date": "1757-1762",
    "description": "* ** 1757-1762 ** - Действия русского флота на Балтике - Балтийское море",
    "location": {
      "name": "Балтийское море",
      "lat": 57.0,
      "lng": 20.0
    },
    "category": "Военные кампании"
  },
  {
    "title": "Дипломатические усилия - европа",
    "date": "1757-1762",
    "description": "* ** 1757-1762 ** - Дипломатические усилия - Европа",
    "location": {
      "name": "Санкт-Петербург",
      "lat": 59.94,
      "lng": 30.31
    },
    "category": "Дипломатические события"
  },
  {
    "title": "Разграбление восточной пруссии - восточная пруссия",
    "date": "1757-1762",
    "description": "* ** 1757-1762 ** - Разграбление Восточной Пруссии - Восточная Пруссия",
    "location": {
      "name": "Восточная Пруссия",
      "lat": 48.95350749251043,
      "lng": 33.636784523588815
    },
    "category": "Восстания и бунты"
  },
  {
    "title": "Указ елизаветы петровны о формировании обсервационного корпуса",
    "date": "1757",
    "description": "* [ 1757 , 22 января] - [Указ Елизаветы Петровны о формировании обсервационного корпуса] - [Россия, Санкт-Петербург]",
    "location": {
      "name": "Санкт-Петербург",
      "lat": 59.94,
      "lng": 30.31
    },
    "category": "Дипломатические события"
  },
  {
    "title": "Мая] - [назначение с",
    "date": "1757",
    "description": "* [ 1757 , 25 мая] - [Назначение С",
    "location": {
      "name": "Санкт-Петербург",
      "lat": 59.94,
      "lng": 30.31
    },
    "category": "Изменения границ"
  },
  {
    "title": "Сентября] - [бой у деревни гросс-егерсдорф] -",
    "date": "1757",
    "description": "* [ 1757 , 13 сентября] - [Бой у деревни Гросс-Егерсдорф] - [Восточная Пруссия, близ Гросс-Егерсдорфа]",
    "location": {
      "name": "Восточная Пруссия, близ Гросс-Егерсдорфа",
      "lat": 62.07229916652493,
      "lng": 32.575856360256516
    },
    "category": "Войны и сражения"
  },
  {
    "title": "Октябрь] - [отступление русской армии из восточной",
    "date": "1757",
    "description": "* [ 1757 , Октябрь] - [Отступление русской армии из Восточной Пруссии] - [Восточная Пруссия]",
    "location": {
      "name": "Восточная Пруссия",
      "lat": 62.41080232773057,
      "lng": 38.01133881235839
    },
    "category": "Научные достижения"
  },
  {
    "title": "Февраль] - [взятие кенигсберга] - [восточная пруссия",
    "date": "1758",
    "description": "* [ 1758 , Февраль] - [Взятие Кенигсберга] - [Восточная Пруссия, Кенигсберг]",
    "location": {
      "name": "Кенигсберг",
      "lat": 54.71,
      "lng": 20.51
    },
    "category": "Политические реформы"
  },
  {
    "title": "Март] - [учреждение генерал-губернаторства в восточной пруссии]",
    "date": "1758",
    "description": "* [ 1758 , Март] - [Учреждение генерал-губернаторства в Восточной Пруссии] - [Восточная Пруссия, Кенигсберг]",
    "location": {
      "name": "Восточная Пруссия, Кенигсберг",
      "lat": 54.71,
      "lng": 20.51
    },
    "category": "Восстания и бунты"
  },
  {
    "title": "Августа] - [сражение при цорндорфе] - [бранденбург",
    "date": "1758",
    "description": "* [ 1758 , 14 августа] - [Сражение при Цорндорфе] - [Бранденбург, близ Цорндорфа]",
    "location": {
      "name": "Близ Цорндорфа",
      "lat": 47.38258341449016,
      "lng": 38.364988405366674
    },
    "category": "Войны и сражения"
  },
  {
    "title": "Сентябрь] - [отставка в",
    "date": "1758",
    "description": "* [ 1758 , Сентябрь] - [Отставка В",
    "location": {
      "name": "Санкт-Петербург",
      "lat": 59.94,
      "lng": 30.31
    },
    "category": "Территориальные приобретения"
  },
  {
    "title": "Смена командования в русской армии после неудач",
    "date": "1758",
    "description": "[Смена командования в русской армии после неудач кампании 1758 года",
    "location": {
      "name": "Восточная Пруссия",
      "lat": 61.227832648111615,
      "lng": 31.88787945754795
    },
    "category": "Экономические события"
  },
  {
    "title": "Августа] - [сражение при пальциге] - [бранденбург",
    "date": "1759",
    "description": "* [ 1759 , 1 августа] - [Сражение при Пальциге] - [Бранденбург, близ Пальцига]",
    "location": {
      "name": "Бранденбург, близ Пальцига",
      "lat": 56.30185629847389,
      "lng": 30.12435421133465
    },
    "category": "Войны и сражения"
  },
  {
    "title": "Августа] - [кунерсдорфское сражение] - [бранденбург, близ",
    "date": "1759",
    "description": "* [ 1759 , 12 августа] - [Кунерсдорфское сражение] - [Бранденбург, близ Кунерсдорфа]",
    "location": {
      "name": "Кунерсдорф",
      "lat": 50.82976229792531,
      "lng": 38.21108016333009
    },
    "category": "Войны и сражения"
  },
  {
    "title": "Сентября] - [взятие берлина] - [бранденбург, берлин]",
    "date": "1760",
    "description": "* [ 1760 , 28 сентября] - [Взятие Берлина] - [Бранденбург, Берлин]",
    "location": {
      "name": "Берлин",
      "lat": 52.52,
      "lng": 13.4
    },
    "category": "Политические реформы"
  },
  {
    "title": "Декабря] - [взятие кольберга] - [померания, кольберг]",
    "date": "1761",
    "description": "* [ 1761 , 16 декабря] - [Взятие Кольберга] - [Померания, Кольберг]",
    "location": {
      "name": "Кольберг",
      "lat": 45.45395437670159,
      "lng": 41.58836921185022
    },
    "category": "Социальные реформы"
  },
  {
    "title": "Января] - [смерть императрицы елизаветы петровны] -",
    "date": "1762",
    "description": "* [ 1762 , 5 января] - [Смерть императрицы Елизаветы Петровны] - [Россия, Санкт-Петербург]",
    "location": {
      "name": "Санкт-Петербург",
      "lat": 59.94,
      "lng": 30.31
    },
    "category": "Становление государства"
  },
  {
    "title": "Подписание петербургского мирного договора с пруссией",
    "date": "1762",
    "description": "* [ 1762 , 5 мая] - [Подписание Петербургского мирного договора с Пруссией] - [Россия, Санкт-Петербург]",
    "location": {
      "name": "Санкт-Петербург",
      "lat": 59.94,
      "lng": 30.31
    },
    "category": "Дипломатические события"
  },
  {
    "title": "Июля] - [восшествие на престол екатерины ii]",
    "date": "1762",
    "description": "* [ 1762 , 9 июля] - [Восшествие на престол Екатерины II] - [Россия, Санкт-Петербург]",
    "location": {
      "name": "Санкт-Петербург",
      "lat": 59.94,
      "lng": 30.31
    },
    "category": "Социальные реформы"
  },
  {
    "title": "Июль-август] - [отзыв русских войск из пруссии]",
    "date": "1762",
    "description": "* [ 1762 , Июль-Август] - [Отзыв русских войск из Пруссии] - [Восточная Пруссия, Померания]",
    "location": {
      "name": "Восточная Пруссия, Померания",
      "lat": 47.95598949096944,
      "lng": 32.37671641204506
    },
    "category": "Становление государства"
  },
  {
    "title": "Подписание губертусбургского мира",
    "date": "1763",
    "description": "* [ 1763 , 15 февраля] - [Подписание Губертусбургского мира] - [Саксония, Губертусбург]",
    "location": {
      "name": "Саксония, Губертусбург",
      "lat": 47.847593547088664,
      "lng": 45.329332835162404
    },
    "category": "Дипломатические события"
  },
  {
    "title": "Послевоенные реформы] - [реорганизация русской армии] -",
    "date": "1763",
    "description": "* [ 1763 , Послевоенные реформы] - [Реорганизация русской армии] - [Россия]",
    "location": {
      "name": "Санкт-Петербург",
      "lat": 59.94,
      "lng": 30.31
    },
    "category": "Войны и сражения"
  },
  {
    "title": "Деятельность русских дипломатов в европе] - [европа]",
    "date": "1756-1763",
    "description": "* [ 1756-1763 , Деятельность русских дипломатов в Европе] - [Европа]",
    "location": {
      "name": "Европа",
      "lat": 50.0,
      "lng": 10.0
    },
    "category": "Дипломатические события"
  },
  {
    "title": "Финансовые затраты россии на войну] - [россия]",
    "date": "1756-1763",
    "description": "* [ 1756-1763 , Финансовые затраты России на войну] - [Россия]",
    "location": {
      "name": "Санкт-Петербург",
      "lat": 59.94,
      "lng": 30.31
    },
    "category": "Экономические события"
  }
]