[
  {
    "title": "Год ** - вступление россии в антитурецкую",
    "date": "1686 год",
    "description": "* ** 1686 год ** - Вступление России в антитурецкую Священную лигу - Москва",
    "location": {
      "name": "Москва",
      "lat": 55.75,
      "lng": 37.62
    },
    "category": "Изменения границ"
  },
  {
    "title": "Год ** - первый крымский поход князя",
    "date": "1687 год",
    "description": "* ** 1687 год ** - Первый Крымский поход князя В",
    "location": {
      "name": "Перекоп",
      "lat": 47.982534225293996,
      "lng": 35.486521382528274
    },
    "category": "Войны и сражения"
  },
  {
    "title": "Год ** - второй крымский поход князя",
    "date": "1689 год",
    "description": "* ** 1689 год ** - Второй Крымский поход князя В",
    "location": {
      "name": "Перекоп",
      "lat": 52.56760406391518,
      "lng": 28.247562262800844
    },
    "category": "Территориальные приобретения"
  },
  {
    "title": "Год , весна** - начало подготовки к",
    "date": "1695 год",
    "description": "* ** 1695 год , весна** - Начало подготовки к первому Азовскому походу - Москва, Воронеж",
    "location": {
      "name": "Москва, Воронеж",
      "lat": 55.75,
      "lng": 37.62
    },
    "category": "Территориальные приобретения"
  },
  {
    "title": "Год , май** - выступление русской армии",
    "date": "1695 год",
    "description": "* ** 1695 год , май** - Выступление русской армии в первый Азовский поход - Москва",
    "location": {
      "name": "Москва",
      "lat": 55.75,
      "lng": 37.62
    },
    "category": "Изменения границ"
  },
  {
    "title": "Год , июнь** - осада азова -",
    "date": "1695 год",
    "description": "* ** 1695 год , июнь** - Осада Азова - Азов",
    "location": {
      "name": "Азов",
      "lat": 58.41382172641244,
      "lng": 40.00331804176628
    },
    "category": "Войны и сражения"
  },
  {
    "title": "Год , июль-сентябрь** - неудачные штурмы азова",
    "date": "1695 год",
    "description": "* ** 1695 год , июль-сентябрь** - Неудачные штурмы Азова - Азов",
    "location": {
      "name": "Азов",
      "lat": 59.217286202504496,
      "lng": 34.19440323494289
    },
    "category": "Войны и сражения"
  },
  {
    "title": "Год , октябрь** - снятие осады азова",
    "date": "1695 год",
    "description": "* ** 1695 год , октябрь** - Снятие осады Азова - Азов",
    "location": {
      "name": "Азов",
      "lat": 59.21025299375118,
      "lng": 50.12939026426742
    },
    "category": "Социальные реформы"
  },
  {
    "title": "Год , ноябрь** - начало строительства флота",
    "date": "1695 год",
    "description": "* ** 1695 год , ноябрь** - Начало строительства флота на верфях в Воронеже - Воронеж",
    "location": {
      "name": "Воронеж",
      "lat": 54.403364639026925,
      "lng": 30.982639840722197
    },
    "category": "Основание городов"
  },
  {
    "title": "Год , весна** - завершение строительства флота",
    "date": "1696 год",
    "description": "* ** 1696 год , весна** - Завершение строительства флота - Воронеж",
    "location": {
      "name": "Воронеж",
      "lat": 52.98809807389653,
      "lng": 39.77127237825662
    },
    "category": "Изменения границ"
  },
  {
    "title": "Год , май** - блокада азова с",
    "date": "1696 год",
    "description": "* ** 1696 год , май** - Блокада Азова с моря - Азовское море",
    "location": {
      "name": "Азовское море",
      "lat": 63.634323246373725,
      "lng": 30.40649593828852
    },
    "category": "Социальные реформы"
  },
  {
    "title": "Год , июнь** - начало осады азова",
    "date": "1696 год",
    "description": "* ** 1696 год , июнь** - Начало осады Азова - Азов",
    "location": {
      "name": "Азов",
      "lat": 53.37320200188951,
      "lng": 36.095419399233755
    },
    "category": "Военные кампании"
  },
  {
    "title": "Год , июль** - сдача азова -",
    "date": "1696 год",
    "description": "* ** 1696 год , июль** - Сдача Азова - Азов",
    "location": {
      "name": "Азов",
      "lat": 45.8330504796077,
      "lng": 44.60499715088345
    },
    "category": "Культура и религия"
  },
  {
    "title": "Год , июль** - взятие устья реки",
    "date": "1696 год",
    "description": "* ** 1696 год , июль** - Взятие устья реки Дон - Устье реки Дон",
    "location": {
      "name": "Азов",
      "lat": 46.98521722696269,
      "lng": 47.502293155807045
    },
    "category": "Территориальные приобретения"
  },
  {
    "title": "Год , август** - торжественный въезд петра",
    "date": "1696 год",
    "description": "* ** 1696 год , август** - Торжественный въезд Петра I в Москву после взятия Азова - Москва",
    "location": {
      "name": "Москва",
      "lat": 55.75,
      "lng": 37.62
    },
    "category": "Научные достижения"
  },
  {
    "title": "- указ об основании таганрога - таганрог",
    "date": "1696 год",
    "description": "* ** 1696 год , ноябрь** - Указ об основании Таганрога - Таганрог",
    "location": {
      "name": "Таганрог",
      "lat": 54.22852497134346,
      "lng": 34.29486990420672
    },
    "category": "Научные достижения"
  },
  {
    "title": "Год ** - отправка \"великого посольства\" в",
    "date": "1697 год",
    "description": "* ** 1697 год ** - Отправка \"Великого посольства\" в Европу - Западная Европа",
    "location": {
      "name": "Западная Европа",
      "lat": 50.0,
      "lng": 10.0
    },
    "category": "Дипломатические события"
  },
  {
    "title": "Год ** - начало строительства крепости таганрог",
    "date": "1697 год",
    "description": "* ** 1697 год ** - Начало строительства крепости Таганрог - Таганрог",
    "location": {
      "name": "Таганрог",
      "lat": 49.610162697737444,
      "lng": 51.36784453407549
    },
    "category": "Социальные реформы"
  },
  {
    "title": "Год ** - стрелецкий бунт - москва",
    "date": "1698 год",
    "description": "* ** 1698 год ** - Стрелецкий бунт - Москва",
    "location": {
      "name": "Москва",
      "lat": 55.75,
      "lng": 37.62
    },
    "category": "Революции и перевороты"
  },
  {
    "title": "- карловицкий мир - карловцы",
    "date": "1699 год",
    "description": "* ** 1699 год ** - Карловицкий мир - Карловцы (современные Сремски Карловци, Сербия)",
    "location": {
      "name": "Сремски Карловци",
      "lat": 52.67181683661374,
      "lng": 33.22193361417689
    },
    "category": "Дипломатические события"
  },
  {
    "title": "- константинопольский мирный договор - константинополь",
    "date": "1700 год",
    "description": "* ** 1700 год ** - Константинопольский мирный договор - Константинополь (Стамбул)",
    "location": {
      "name": "Константинополь (Стамбул)",
      "lat": 41.01,
      "lng": 28.97
    },
    "category": "Дипломатические события"
  },
  {
    "title": "Год ** - начало северной войны -",
    "date": "1700 год",
    "description": "* ** 1700 год ** - Начало Северной войны - Нарва",
    "location": {
      "name": "Нарва",
      "lat": 58.894422534580116,
      "lng": 37.722078452059115
    },
    "category": "Экономические события"
  },
  {
    "title": "Год ** - прутский поход - река",
    "date": "1711 год",
    "description": "* ** 1711 год ** - Прутский поход - Река Прут (Молдова)",
    "location": {
      "name": "Река Прут (Молдова)",
      "lat": 55.20826295100501,
      "lng": 51.45920694857419
    },
    "category": "Восстания и бунты"
  },
  {
    "title": "- прутский мирный договор - река прут",
    "date": "1711 год",
    "description": "* ** 1711 год ** - Прутский мирный договор - Река Прут (Молдова)",
    "location": {
      "name": "Река Прут (Молдова)",
      "lat": 56.617638710613356,
      "lng": 46.32093703758097
    },
    "category": "Дипломатические события"
  },
  {
    "title": "- русско-турецкая война - юг россии",
    "date": "1736-1739",
    "description": "* ** 1736-1739 годы** - Русско-турецкая война - Юг России, Крым",
    "location": {
      "name": "Крым",
      "lat": 45.3,
      "lng": 34.2
    },
    "category": "Войны и сражения"
  },
  {
    "title": "- белградский мир - белград",
    "date": "1739 год",
    "description": "* ** 1739 год ** - Белградский мир - Белград",
    "location": {
      "name": "Белград",
      "lat": 59.89707844421573,
      "lng": 32.85767887669613
    },
    "category": "Дипломатические события"
  },
  {
    "title": "- кючук-кайнарджийский мирный договор - кючук-кайнарджа",
    "date": "1774 год",
    "description": "* ** 1774 год ** - Кючук-Кайнарджийский мирный договор - Кючук-Кайнарджа (современная Кайнарджа, Болгария)",
    "location": {
      "name": "Кайнарджа",
      "lat": 51.217156364558235,
      "lng": 49.6176260539964
    },
    "category": "Дипломатические события"
  },
  {
    "title": "Весна] - [создание \"потешной флотилии\" на преображенском",
    "date": "1695",
    "description": "* [ 1695 , весна] - [Создание \"потешной флотилии\" на Преображенском озере] - [Москва, село Преображенское]",
    "location": {
      "name": "Москва, село Преображенское",
      "lat": 55.75,
      "lng": 37.62
    },
    "category": "Становление государства"
  },
  {
    "title": "Май] - [первая осада азова: начало инженерных",
    "date": "1695",
    "description": "* [ 1695 , май] - [Первая осада Азова: Начало инженерных работ] - [Азов]",
    "location": {
      "name": "Азов",
      "lat": 60.70704480541149,
      "lng": 34.35364510397034
    },
    "category": "Войны и сражения"
  },
  {
    "title": "Июнь] - [морские столкновения казачьей флотилии с",
    "date": "1695",
    "description": "* [ 1695 , июнь] - [Морские столкновения казачьей флотилии с турецким флотом] - [Азовское море, устье Дона]",
    "location": {
      "name": "Азовское море, устье Дона",
      "lat": 64.54637278705314,
      "lng": 32.2248399240353
    },
    "category": "Восстания и бунты"
  },
  {
    "title": "Июль] - [попытка штурма азова 5 июля]",
    "date": "1695",
    "description": "* [ 1695 , июль] - [Попытка штурма Азова 5 июля] - [Азов]",
    "location": {
      "name": "Азов",
      "lat": 61.34871507573145,
      "lng": 40.16941159867028
    },
    "category": "Войны и сражения"
  },
  {
    "title": "Август] - [попытка штурма азова 5 августа]",
    "date": "1695",
    "description": "* [ 1695 , август] - [Попытка штурма Азова 5 августа] - [Азов]",
    "location": {
      "name": "Азов",
      "lat": 47.127434384212066,
      "lng": 49.8678767067468
    },
    "category": "Войны и сражения"
  },
  {
    "title": "Сентябрь] - [снятие осады азова] - [азов]",
    "date": "1695",
    "description": "* [ 1695 , сентябрь] - [Снятие осады Азова] - [Азов]",
    "location": {
      "name": "Азов",
      "lat": 54.48868245688498,
      "lng": 37.54944977478127
    },
    "category": "Становление государства"
  },
  {
    "title": "Зима] - [строительство галерной верфи на реке",
    "date": "1696",
    "description": "* [ 1696 , зима] - [Строительство галерной верфи на реке Воронеж] - [Воронеж]",
    "location": {
      "name": "Воронеж",
      "lat": 46.657145643223046,
      "lng": 28.332764431239312
    },
    "category": "Культура и религия"
  },
  {
    "title": "Весна] - [спуск на воду первых кораблей",
    "date": "1696",
    "description": "* [ 1696 , весна] - [Спуск на воду первых кораблей Азовского флота] - [Воронеж]",
    "location": {
      "name": "Воронеж",
      "lat": 63.4399603632759,
      "lng": 44.46115428412571
    },
    "category": "Экономические события"
  },
  {
    "title": "Май] - [вторая осада азова: блокада с",
    "date": "1696",
    "description": "* [ 1696 , май] - [Вторая осада Азова: Блокада с моря] - [Азов]",
    "location": {
      "name": "Азов",
      "lat": 59.22171066768304,
      "lng": 32.85004034463375
    },
    "category": "Войны и сражения"
  },
  {
    "title": "Июль] - [бой азовского флота с турецкой",
    "date": "1696",
    "description": "* [ 1696 , июль] - [Бой Азовского флота с турецкой эскадрой] - [Азовское море, устье Дона]",
    "location": {
      "name": "Азовское море, устье Дона",
      "lat": 52.500129337273165,
      "lng": 31.75415355584267
    },
    "category": "Войны и сражения"
  },
  {
    "title": "Июль] - [капитуляция азова] - [азов]",
    "date": "1696",
    "description": "* [ 1696 , июль] - [Капитуляция Азова] - [Азов]",
    "location": {
      "name": "Азов",
      "lat": 49.85979932866972,
      "lng": 32.89278399480873
    },
    "category": "Культура и религия"
  },
  {
    "title": "Август] - [торжественный въезд петра i в",
    "date": "1696",
    "description": "* [ 1696 , август] - [Торжественный въезд Петра I в Москву после взятия Азова] - [Москва]",
    "location": {
      "name": "Москва",
      "lat": 55.75,
      "lng": 37.62
    },
    "category": "Экономические события"
  },
  {
    "title": "Октябрь] - [боярская дума принимает решение о",
    "date": "1696",
    "description": "* [ 1696 , октябрь] - [Боярская Дума принимает решение о создании регулярного военно-морского флота] - [Москва]",
    "location": {
      "name": "Москва",
      "lat": 55.75,
      "lng": 37.62
    },
    "category": "Войны и сражения"
  },
  {
    "title": "Январь] - [отправка дворян на обучение морскому",
    "date": "1697",
    "description": "* [ 1697 , январь] - [Отправка дворян на обучение морскому делу за границу] - [Разные страны Европы]",
    "location": {
      "name": "Разные страны Европы",
      "lat": 63.8794617765229,
      "lng": 39.35664356646853
    },
    "category": "Изменения границ"
  },
  {
    "title": "Великое посольство петра i в европу] -",
    "date": "1697-1698",
    "description": "* [ 1697-1698 ] - [Великое посольство Петра I в Европу] - [Разные страны Европы]",
    "location": {
      "name": "Разные страны Европы",
      "lat": 47.30347039896705,
      "lng": 38.95547667987667
    },
    "category": "Политические реформы"
  },
  {
    "title": "Июль] - [подавление стрелецкого бунта] - [москва]",
    "date": "1698",
    "description": "* [ 1698 , июль] - [Подавление стрелецкого бунта] - [Москва]",
    "location": {
      "name": "Москва",
      "lat": 55.75,
      "lng": 37.62
    },
    "category": "Революции и перевороты"
  },
  {
    "title": "Основание таганрога] - [таганрог]",
    "date": "1699",
    "description": "* [ 1699 ] - [Основание Таганрога] - [Таганрог]",
    "location": {
      "name": "Таганрог",
      "lat": 54.50866463558024,
      "lng": 38.39942006992305
    },
    "category": "Войны и сражения"
  },
  {
    "title": "Константинопольский мирный договор",
    "date": "1700",
    "description": "* [ 1700 ] - [Константинопольский мирный договор] - [Константинополь]",
    "location": {
      "name": "Константинополь",
      "lat": 41.01,
      "lng": 28.97
    },
    "category": "Дипломатические события"
  },
  {
    "title": "Прутский поход] - [река прут]",
    "date": "1711",
    "description": "* [ 1711 ] - [Прутский поход] - [Река Прут]",
    "location": {
      "name": "Река Прут",
      "lat": 60.45187783259793,
      "lng": 43.33484320326218
    },
    "category": "Территориальные приобретения"
  }
]