[
  {
    "title": "Февраля 1861 ** - **манифест об освобождении",
    "date": "1861",
    "description": "* **19 февраля 1861 ** - **Манифест об освобождении крестьян** - Российская империя",
    "location": {
      "name": "Санкт-Петербург",
      "lat": 59.94,
      "lng": 30.31
    },
    "category": "Научные достижения"
  },
  {
    "title": "Е годы (общий период)**",
    "date": "1860",
    "description": "** 1860 -е годы (общий период)**",
    "location": {
      "name": "Санкт-Петербург",
      "lat": 59.94,
      "lng": 30.31
    },
    "category": "Политические реформы"
  },
  {
    "title": "Формирование народнических кружков",
    "date": "1860",
    "description": "* ** 1860 -е годы** - **Формирование народнических кружков** - Санкт-Петербург, Москва, другие крупные города",
    "location": {
      "name": "Санкт-Петербург",
      "lat": 59.94,
      "lng": 30.31
    },
    "category": "Дипломатические события"
  },
  {
    "title": "Основание кружка \"народной расправы\" с",
    "date": "1869",
    "description": "* ** 1869 ** - **Основание кружка \"Народной расправы\" С",
    "location": {
      "name": "Москва",
      "lat": 55.75,
      "lng": 37.62
    },
    "category": "Изменения границ"
  },
  {
    "title": "Катехизис революционера\"** - швейцария (написан нечаевым и",
    "date": "1871",
    "description": "* ** 1871 ** - **\"Катехизис революционера\"** - Швейцария (написан Нечаевым и Бакуниным)",
    "location": {
      "name": "Швейцария",
      "lat": 54.736573173225665,
      "lng": 42.46506406843068
    },
    "category": "Революции и перевороты"
  },
  {
    "title": "Первые попытки \"хождения в народ\"** - различные",
    "date": "1872",
    "description": "* ** 1872 ** - **Первые попытки \"хождения в народ\"** - Различные губернии Европейской России",
    "location": {
      "name": "Различные губернии Европейской России",
      "lat": 55.318600898997275,
      "lng": 45.69671012441373
    },
    "category": "Военные кампании"
  },
  {
    "title": "Весна-лето 1873 ** - **\"чайковцы\" и их",
    "date": "1873",
    "description": "* **Весна-лето 1873 ** - **\"Чайковцы\" и их пропаганда** - Санкт-Петербург, Москва, провинциальные города",
    "location": {
      "name": "Санкт-Петербург, Москва",
      "lat": 55.75,
      "lng": 37.62
    },
    "category": "Революции и перевороты"
  },
  {
    "title": "Весна-лето 1874 ** - **массовое \"хождение в",
    "date": "1874",
    "description": "* **Весна-лето 1874 ** - **Массовое \"хождение в народ\" (\"Безумное лето\")** - Центральные и южные губернии Европейской России",
    "location": {
      "name": "Центральные и южные губернии Европейской России",
      "lat": 61.66696477421269,
      "lng": 39.328287207077885
    },
    "category": "Политические реформы"
  },
  {
    "title": "Аресты народников** - различные губернии европейской россии",
    "date": "1874",
    "description": "* ** 1874 ** - **Аресты народников** - Различные губернии Европейской России",
    "location": {
      "name": "Различные губернии Европейской России",
      "lat": 54.4869389416708,
      "lng": 30.848011692612765
    },
    "category": "Изменения границ"
  },
  {
    "title": "Создание \"всероссийской социально-революционной организации\"** - москва",
    "date": "1875",
    "description": "* ** 1875 ** - **Создание \"Всероссийской социально-революционной организации\"** - Москва",
    "location": {
      "name": "Москва",
      "lat": 55.75,
      "lng": 37.62
    },
    "category": "Социальные реформы"
  },
  {
    "title": "Московский процесс\" (процесс 50-ти)** - москва",
    "date": "1875",
    "description": "* ** 1875 ** - **\"Московский процесс\" (процесс 50-ти)** - Москва",
    "location": {
      "name": "Москва",
      "lat": 55.75,
      "lng": 37.62
    },
    "category": "Культура и религия"
  },
  {
    "title": "Декабря 1876 ** - **первая политическая демонстрация",
    "date": "1876",
    "description": "* **6 декабря 1876 ** - **Первая политическая демонстрация у Казанского собора** - Санкт-Петербург",
    "location": {
      "name": "Санкт-Петербург",
      "lat": 59.94,
      "lng": 30.31
    },
    "category": "Культура и религия"
  },
  {
    "title": "Основание организации \"земля и воля\" (вторая)** -",
    "date": "1876",
    "description": "* ** 1876 ** - **Основание организации \"Земля и воля\" (вторая)** - Санкт-Петербург",
    "location": {
      "name": "Санкт-Петербург",
      "lat": 59.94,
      "lng": 30.31
    },
    "category": "Культура и религия"
  },
  {
    "title": "Процесс 193-х\"** - санкт-петербург",
    "date": "1877-1878",
    "description": "* ** 1877-1878 ** - **\"Процесс 193-х\"** - Санкт-Петербург",
    "location": {
      "name": "Санкт-Петербург",
      "lat": 59.94,
      "lng": 30.31
    },
    "category": "Социальные реформы"
  },
  {
    "title": "Января 1878 ** - **покушение веры засулич",
    "date": "1878",
    "description": "* **24 января 1878 ** - **Покушение Веры Засулич на петербургского градоначальника Ф",
    "location": {
      "name": "Санкт-Петербург",
      "lat": 59.94,
      "lng": 30.31
    },
    "category": "Экономические события"
  },
  {
    "title": "Оправдательный приговор вере засулич** - санкт-петербург",
    "date": "1878",
    "description": "* ** 1878 ** - **Оправдательный приговор Вере Засулич** - Санкт-Петербург",
    "location": {
      "name": "Санкт-Петербург",
      "lat": 59.94,
      "lng": 30.31
    },
    "category": "Дипломатические события"
  },
  {
    "title": "Раскол \"земли и воли\"** - воронеж, липецк",
    "date": "1879",
    "description": "* ** 1879 ** - **Раскол \"Земли и воли\"** - Воронеж, Липецк",
    "location": {
      "name": "Воронеж, Липецк",
      "lat": 48.28583056500696,
      "lng": 46.55336318052232
    },
    "category": "Восстания и бунты"
  },
  {
    "title": "Август 1879 ** - **липецкий съезд \"народной",
    "date": "1879",
    "description": "* **Август 1879 ** - **Липецкий съезд \"Народной воли\"** - Липецк",
    "location": {
      "name": "Липецк",
      "lat": 56.689462279405994,
      "lng": 44.92405978009154
    },
    "category": "Становление государства"
  },
  {
    "title": "Серия покушений \"народной воли\" на александра ii**",
    "date": "1879-1881",
    "description": "* ** 1879-1881 ** - **Серия покушений \"Народной воли\" на Александра II** - Различные города Российской империи",
    "location": {
      "name": "Санкт-Петербург",
      "lat": 59.94,
      "lng": 30.31
    },
    "category": "Культура и религия"
  },
  {
    "title": "Марта 1881 ** - **убийство александра ii**",
    "date": "1881",
    "description": "* **1 марта 1881 ** - **Убийство Александра II** - Санкт-Петербург",
    "location": {
      "name": "Санкт-Петербург",
      "lat": 59.94,
      "lng": 30.31
    },
    "category": "Дипломатические события"
  },
  {
    "title": "Апреля 1881 ** - **казнь народовольцев (первомартовцев)**",
    "date": "1881",
    "description": "* **3 апреля 1881 ** - **Казнь народовольцев (Первомартовцев)** - Санкт-Петербург, Семеновский плац",
    "location": {
      "name": "Санкт-Петербург",
      "lat": 59.94,
      "lng": 30.31
    },
    "category": "Политические реформы"
  },
  {
    "title": "Е годы** - **кризис народничества** - российская",
    "date": "1880",
    "description": "* ** 1880 -е годы** - **Кризис народничества** - Российская империя",
    "location": {
      "name": "Российская империя",
      "lat": 57.29787409779033,
      "lng": 46.245947465654794
    },
    "category": "Экономические события"
  },
  {
    "title": "Е - 1890-е годы** - **развитие теории",
    "date": "1880",
    "description": "* ** 1880 -е - 1890-е годы** - **Развитие теории \"малых дел\"** - Различные губернии Европейской России",
    "location": {
      "name": "Различные губернии Европейской России",
      "lat": 52.51645651792753,
      "lng": 35.550682497603084
    },
    "category": "Становление государства"
  },
  {
    "title": "Е - 1890 -е годы** - **развитие",
    "date": "1890",
    "description": "* **1880-е - 1890 -е годы** - **Развитие теории \"малых дел\"** - Различные губернии Европейской России",
    "location": {
      "name": "Различные губернии Европейской России",
      "lat": 62.65016552899942,
      "lng": 33.29756195824198
    },
    "category": "Становление государства"
  },
  {
    "title": "Е годы** - **возникновение \"экономизма\"** - санкт-петербург",
    "date": "1890",
    "description": "* ** 1890 -е годы** - **Возникновение \"экономизма\"** - Санкт-Петербург, другие промышленные центры",
    "location": {
      "name": "Санкт-Петербург",
      "lat": 59.94,
      "lng": 30.31
    },
    "category": "Экономические события"
  },
  {
    "title": "Образование партии социалистов-революционеров (эсеров)** - российская империя",
    "date": "1901",
    "description": "* ** 1901 ** - **Образование партии социалистов-революционеров (эсеров)** - Российская империя (в основном, эмиграция)",
    "location": {
      "name": "Швейцария",
      "lat": 61.57639072454913,
      "lng": 38.87653058472517
    },
    "category": "Становление государства"
  },
  {
    "title": "Крестьянские волнения** - полтавская и харьковская губернии",
    "date": "1902",
    "description": "* ** 1902 ** - **Крестьянские волнения** - Полтавская и Харьковская губернии",
    "location": {
      "name": "Полтавская и Харьковская губернии",
      "lat": 56.75537675313935,
      "lng": 34.84282942503976
    },
    "category": "Территориальные приобретения"
  },
  {
    "title": "Первая русская революция** - российская империя",
    "date": "1905-1907",
    "description": "* ** 1905-1907 ** - **Первая русская революция** - Российская империя",
    "location": {
      "name": "Санкт-Петербург",
      "lat": 59.94,
      "lng": 30.31
    },
    "category": "Революции и перевороты"
  },
  {
    "title": "После 1907 ** - **столыпинская аграрная реформа**",
    "date": "1907",
    "description": "* **После 1907 ** - **Столыпинская аграрная реформа** - Российская империя",
    "location": {
      "name": "Российская империя",
      "lat": 47.06053832736691,
      "lng": 43.69115368618831
    },
    "category": "Социальные реформы"
  },
  {
    "title": "Весна** - **создание \"московского кружка чайковцев\"** -",
    "date": "1873",
    "description": "* ** 1873 , весна** - **Создание \"Московского кружка чайковцев\"** - **Москва**",
    "location": {
      "name": "Москва",
      "lat": 55.75,
      "lng": 37.62
    },
    "category": "Войны и сражения"
  },
  {
    "title": "Осень** - **первые аресты пропагандистов в санкт-петербурге**",
    "date": "1873",
    "description": "* ** 1873 , осень** - **Первые аресты пропагандистов в Санкт-Петербурге** - **Санкт-Петербург**",
    "location": {
      "name": "Санкт-Петербург",
      "lat": 59.94,
      "lng": 30.31
    },
    "category": "Дипломатические события"
  },
  {
    "title": "Весна** - **\"безумное лето\" в поволжье** -",
    "date": "1874",
    "description": "* ** 1874 , весна** - **\"Безумное лето\" в Поволжье** - **Саратовская, Самарская, Симбирская губернии**",
    "location": {
      "name": "Саратовская, Самарская, Симбирская губернии",
      "lat": 59.00202501939036,
      "lng": 36.38159005952615
    },
    "category": "Основание городов"
  },
  {
    "title": "Лето** - **аресты в связи с делом",
    "date": "1874",
    "description": "* ** 1874 , лето** - **Аресты в связи с делом \"о пропаганде в Империи\"** - **По всей Европейской России**",
    "location": {
      "name": "По всей Европейской России",
      "lat": 61.041075020097196,
      "lng": 35.720393622600966
    },
    "category": "Военные кампании"
  },
  {
    "title": "Формирование",
    "date": "1874",
    "description": "* ** 1874 , осень** - **Формирование \"Всероссийской социально-революционной организации\"** - **Москва, Санкт-Петербург**",
    "location": {
      "name": "Москва, Санкт-Петербург",
      "lat": 55.75,
      "lng": 37.62
    },
    "category": "Социальные реформы"
  },
  {
    "title": "Январь** - **создание \"южных бунтарей\" (якова стефановича)**",
    "date": "1875",
    "description": "* ** 1875 , январь** - **Создание \"Южных бунтарей\" (Якова Стефановича)** - **Одесса**",
    "location": {
      "name": "Одесса",
      "lat": 54.986023942030116,
      "lng": 30.973734324143436
    },
    "category": "Революции и перевороты"
  },
  {
    "title": "Лето** - **чигиринский заговор** - **чигиринский уезд",
    "date": "1875",
    "description": "* ** 1875 , лето** - **Чигиринский заговор** - **Чигиринский уезд, Киевская губерния**",
    "location": {
      "name": "Чигиринский уезд",
      "lat": 52.288985971365285,
      "lng": 30.356081301816193
    },
    "category": "Становление государства"
  },
  {
    "title": "Декабря** - **казанская демонстрация** - **санкт-петербург, у",
    "date": "1876",
    "description": "* ** 1876 , 6 декабря** - **Казанская демонстрация** - **Санкт-Петербург, у Казанского собора**",
    "location": {
      "name": "Санкт-Петербург",
      "lat": 59.94,
      "lng": 30.31
    },
    "category": "Культура и религия"
  },
  {
    "title": "Осень** - **основание организации \"земля и воля\"",
    "date": "1876",
    "description": "* ** 1876 , осень** - **Основание организации \"Земля и воля\" (вторая)** - **Санкт-Петербург**",
    "location": {
      "name": "Санкт-Петербург",
      "lat": 59.94,
      "lng": 30.31
    },
    "category": "Дипломатические события"
  },
  {
    "title": "Октябрь** - **процесс пятидесяти** - **санкт-петербург**",
    "date": "1877",
    "description": "* ** 1877 , октябрь** - **Процесс пятидесяти** - **Санкт-Петербург**",
    "location": {
      "name": "Санкт-Петербург",
      "lat": 59.94,
      "lng": 30.31
    },
    "category": "Территориальные приобретения"
  },
  {
    "title": "Январь** - **покушение веры засулич на ф",
    "date": "1878",
    "description": "* ** 1878 , январь** - **Покушение Веры Засулич на Ф",
    "location": {
      "name": "Санкт-Петербург",
      "lat": 59.94,
      "lng": 30.31
    },
    "category": "Культура и религия"
  },
  {
    "title": "Август** - **убийство николая мезенцова** - **санкт-петербург**",
    "date": "1878",
    "description": "* ** 1878 , август** - **Убийство Николая Мезенцова** - **Санкт-Петербург**",
    "location": {
      "name": "Санкт-Петербург",
      "lat": 59.94,
      "lng": 30.31
    },
    "category": "Становление государства"
  },
  {
    "title": "Весна** - **воронежский съезд \"земли и воли\"**",
    "date": "1879",
    "description": "* ** 1879 , весна** - **Воронежский съезд \"Земли и воли\"** - **Воронеж**",
    "location": {
      "name": "Воронеж",
      "lat": 45.973534612266576,
      "lng": 51.960996048481135
    },
    "category": "Политические реформы"
  },
  {
    "title": "Август** - **раскол \"земли и воли\" на",
    "date": "1879",
    "description": "* ** 1879 , август** - **Раскол \"Земли и воли\" на \"Народную волю\" и \"Черный передел\"** - **Липецк, Санкт-Петербург**",
    "location": {
      "name": "Липецк, Санкт-Петербург",
      "lat": 59.94,
      "lng": 30.31
    },
    "category": "Территориальные приобретения"
  },
  {
    "title": "Осень** - **охота \"народной воли\" на александра",
    "date": "1879",
    "description": "* ** 1879 , осень** - **Охота \"Народной воли\" на Александра II** - **По всей России**",
    "location": {
      "name": "По всей России",
      "lat": 64.25390032107168,
      "lng": 44.8682791678126
    },
    "category": "Экономические события"
  },
  {
    "title": "Февраль** - **взрыв в зимнем дворце** -",
    "date": "1880",
    "description": "* ** 1880 , февраль** - **Взрыв в Зимнем дворце** - **Санкт-Петербург**",
    "location": {
      "name": "Санкт-Петербург",
      "lat": 59.94,
      "lng": 30.31
    },
    "category": "Политические реформы"
  },
  {
    "title": "Марта** - **убийство александра ii** - **санкт-петербург**",
    "date": "1881",
    "description": "* ** 1881 , 1 марта** - **Убийство Александра II** - **Санкт-Петербург**",
    "location": {
      "name": "Санкт-Петербург",
      "lat": 59.94,
      "lng": 30.31
    },
    "category": "Изменения границ"
  },
  {
    "title": "Деятельность крестьянского поземельного банка** - **по всей",
    "date": "1882-1889",
    "description": "* ** 1882-1889 ** - **Деятельность Крестьянского поземельного банка** - **По всей Европейской России**",
    "location": {
      "name": "По всей Европейской России",
      "lat": 55.66334765352735,
      "lng": 29.79994757851651
    },
    "category": "Изменения границ"
  },
  {
    "title": "Образование группы \"освобождение труда\"** - **женева, швейцария**",
    "date": "1883",
    "description": "* ** 1883 ** - **Образование группы \"Освобождение труда\"** - **Женева, Швейцария**",
    "location": {
      "name": "Женева",
      "lat": 62.69558806814547,
      "lng": 33.34765585036949
    },
    "category": "Становление государства"
  },
  {
    "title": "Покушение александра ульянова на александра iii** -",
    "date": "1887",
    "description": "* ** 1887 ** - **Покушение Александра Ульянова на Александра III** - **Санкт-Петербург**",
    "location": {
      "name": "Санкт-Петербург",
      "lat": 59.94,
      "lng": 30.31
    },
    "category": "Социальные реформы"
  }
]