[
  {
    "title": "Год ** - начало правления василия iii",
    "date": "1505 год",
    "description": "* ** 1505 год ** - Начало правления Василия III - Москва",
    "location": {
      "name": "Москва",
      "lat": 55.75,
      "lng": 37.62
    },
    "category": "Научные достижения"
  },
  {
    "title": "- русско-литовская война - западные русские земли",
    "date": "1505-1507",
    "description": "* ** 1505-1507 годы** - Русско-литовская война - Западные русские земли",
    "location": {
      "name": "Смоленск",
      "lat": 54.78,
      "lng": 32.05
    },
    "category": "Войны и сражения"
  },
  {
    "title": "Год ** - взятие смоленска - смоленск",
    "date": "1514 год",
    "description": "* ** 1514 год ** - Взятие Смоленска - Смоленск",
    "location": {
      "name": "Смоленск",
      "lat": 54.78,
      "lng": 32.05
    },
    "category": "Политические реформы"
  },
  {
    "title": "Год ** - набег крымского хана мухаммед-гирея",
    "date": "1521 год",
    "description": "* ** 1521 год ** - Набег крымского хана Мухаммед-Гирея на Москву - Москва",
    "location": {
      "name": "Москва",
      "lat": 55.75,
      "lng": 37.62
    },
    "category": "Войны и сражения"
  },
  {
    "title": "Год ** - начало правления ивана iv",
    "date": "1533 год",
    "description": "* ** 1533 год ** - Начало правления Ивана IV (Грозного) - Москва",
    "location": {
      "name": "Москва",
      "lat": 55.75,
      "lng": 37.62
    },
    "category": "Политические реформы"
  },
  {
    "title": "- денежная реформа елены глинской - московское государство",
    "date": "1534-1535",
    "description": "* ** 1534-1535 годы** - Денежная реформа Елены Глинской - Московское государство",
    "location": {
      "name": "Москва",
      "lat": 55.75,
      "lng": 37.62
    },
    "category": "Становление государства"
  },
  {
    "title": "Год ** - венчание ивана iv на",
    "date": "1547 год",
    "description": "* ** 1547 год ** - Венчание Ивана IV на царство - Москва, Успенский собор",
    "location": {
      "name": "Москва",
      "lat": 55.75,
      "lng": 37.62
    },
    "category": "Культура и религия"
  },
  {
    "title": "Год ** - созыв первого земского собора",
    "date": "1549 год",
    "description": "* ** 1549 год ** - Созыв первого Земского собора - Москва",
    "location": {
      "name": "Москва",
      "lat": 55.75,
      "lng": 37.62
    },
    "category": "Культура и религия"
  },
  {
    "title": "- принятие судебника ивана iv - москва",
    "date": "1550 год",
    "description": "* ** 1550 год ** - Принятие Судебника Ивана IV - Москва",
    "location": {
      "name": "Москва",
      "lat": 55.75,
      "lng": 37.62
    },
    "category": "Территориальные приобретения"
  },
  {
    "title": "- создание стрелецкого войска - москва",
    "date": "1550 год",
    "description": "* ** 1550 год ** - Создание стрелецкого войска - Москва",
    "location": {
      "name": "Москва",
      "lat": 55.75,
      "lng": 37.62
    },
    "category": "Войны и сражения"
  },
  {
    "title": "Год ** - стоглавый собор - москва",
    "date": "1551 год",
    "description": "* ** 1551 год ** - Стоглавый собор - Москва",
    "location": {
      "name": "Москва",
      "lat": 55.75,
      "lng": 37.62
    },
    "category": "Культура и религия"
  },
  {
    "title": "Год ** - взятие казани - казань",
    "date": "1552 год",
    "description": "* ** 1552 год ** - Взятие Казани - Казань",
    "location": {
      "name": "Казань",
      "lat": 55.79,
      "lng": 49.12
    },
    "category": "Территориальные приобретения"
  },
  {
    "title": "Год ** - присоединение астраханского ханства -",
    "date": "1556 год",
    "description": "* ** 1556 год ** - Присоединение Астраханского ханства - Астрахань",
    "location": {
      "name": "Астрахань",
      "lat": 46.35,
      "lng": 48.04
    },
    "category": "Изменения границ"
  },
  {
    "title": "- ливонская война - прибалтика",
    "date": "1558-1583",
    "description": "* ** 1558-1583 годы** - Ливонская война - Прибалтика, Западная Россия",
    "location": {
      "name": "Прибалтика",
      "lat": 60.09531400277773,
      "lng": 35.83074638081899
    },
    "category": "Войны и сражения"
  },
  {
    "title": "Год ** - учреждение опричнины - московское",
    "date": "1565 год",
    "description": "* ** 1565 год ** - Учреждение опричнины - Московское государство",
    "location": {
      "name": "Москва",
      "lat": 55.75,
      "lng": 37.62
    },
    "category": "Становление государства"
  },
  {
    "title": "Год ** - разорение новгорода опричниками -",
    "date": "1570 год",
    "description": "* ** 1570 год ** - Разорение Новгорода опричниками - Новгород",
    "location": {
      "name": "Новгород",
      "lat": 58.52,
      "lng": 31.27
    },
    "category": "Военные кампании"
  },
  {
    "title": "Год ** - введение \"заповедных лет\" -",
    "date": "1581 год",
    "description": "* ** 1581 год ** - Введение \"заповедных лет\" - Московское государство",
    "location": {
      "name": "Московское государство",
      "lat": 61.16227056350056,
      "lng": 40.25538728856509
    },
    "category": "Становление государства"
  },
  {
    "title": "Год ** - начало похода ермака в",
    "date": "1581 год",
    "description": "* ** 1581 год ** - Начало похода Ермака в Сибирь - Сибирь",
    "location": {
      "name": "Приуралье",
      "lat": 58.0,
      "lng": 60.0
    },
    "category": "Войны и сражения"
  },
  {
    "title": "- основание архангельска - архангельск",
    "date": "1584 год",
    "description": "* ** 1584 год ** - Основание Архангельска - Архангельск",
    "location": {
      "name": "Архангельск",
      "lat": 64.54,
      "lng": 40.54
    },
    "category": "Политические реформы"
  },
  {
    "title": "- основание самары - самара",
    "date": "1586 год",
    "description": "* ** 1586 год ** - Основание Самары - Самара",
    "location": {
      "name": "Самара",
      "lat": 53.2,
      "lng": 50.15
    },
    "category": "Дипломатические события"
  },
  {
    "title": "Год ** - учреждение патриаршества в россии",
    "date": "1589 год",
    "description": "* ** 1589 год ** - Учреждение патриаршества в России - Москва",
    "location": {
      "name": "Москва",
      "lat": 55.75,
      "lng": 37.62
    },
    "category": "Восстания и бунты"
  },
  {
    "title": "- указ о сыске беглых крестьян - московское государство",
    "date": "1592 год",
    "description": "* ** 1592 год ** - Указ о сыске беглых крестьян - Московское государство",
    "location": {
      "name": "Москва",
      "lat": 55.75,
      "lng": 37.62
    },
    "category": "Становление государства"
  },
  {
    "title": "Год ** - установление \"урочных лет\" -",
    "date": "1597 год",
    "description": "* ** 1597 год ** - Установление \"урочных лет\" - Московское государство",
    "location": {
      "name": "Москва",
      "lat": 55.75,
      "lng": 37.62
    },
    "category": "Становление государства"
  },
  {
    "title": "Начало строительства архангельского собора** - москва, московский",
    "date": "1505",
    "description": "* [ 1505 ] - **Начало строительства Архангельского собора** - Москва, Московский Кремль",
    "location": {
      "name": "Москва, Московский Кремль",
      "lat": 55.75,
      "lng": 37.62
    },
    "category": "Культура и религия"
  },
  {
    "title": "Присоединение смоленска к московскому государству** - смоленск",
    "date": "1514",
    "description": "* [ 1514 ] - **Присоединение Смоленска к Московскому государству** - Смоленск",
    "location": {
      "name": "Смоленск",
      "lat": 54.78,
      "lng": 32.05
    },
    "category": "Становление государства"
  },
  {
    "title": "Лишение новгородских купцов права торговли с иностранцами**",
    "date": "1522",
    "description": "* [ 1522 ] - **Лишение новгородских купцов права торговли с иностранцами** - Новгород",
    "location": {
      "name": "Новгород",
      "lat": 58.52,
      "lng": 31.27
    },
    "category": "Экономические события"
  },
  {
    "title": "Денежная реформа елены глинской",
    "date": "1535",
    "description": "* [ 1535 ] - **Денежная реформа Елены Глинской** - Москва",
    "location": {
      "name": "Москва",
      "lat": 55.75,
      "lng": 37.62
    },
    "category": "Социальные реформы"
  },
  {
    "title": "Первый земский собор** - москва",
    "date": "1549",
    "description": "* [ 1549 ] - **Первый Земский собор** - Москва",
    "location": {
      "name": "Москва",
      "lat": 55.75,
      "lng": 37.62
    },
    "category": "Культура и религия"
  },
  {
    "title": "Принятие судебника ивана iv** - москва",
    "date": "1550",
    "description": "* [ 1550 ] - **Принятие Судебника Ивана IV** - Москва",
    "location": {
      "name": "Москва",
      "lat": 55.75,
      "lng": 37.62
    },
    "category": "Войны и сражения"
  },
  {
    "title": "Стоглавый собор** - москва",
    "date": "1551",
    "description": "* [ 1551 ] - **Стоглавый собор** - Москва",
    "location": {
      "name": "Москва",
      "lat": 55.75,
      "lng": 37.62
    },
    "category": "Культура и религия"
  },
  {
    "title": "Взятие казани** - казань",
    "date": "1552",
    "description": "* [ 1552 ] - **Взятие Казани** - Казань",
    "location": {
      "name": "Казань",
      "lat": 55.79,
      "lng": 49.12
    },
    "category": "Основание городов"
  },
  {
    "title": "Присоединение астраханского ханства** - астрахань",
    "date": "1556",
    "description": "* [ 1556 ] - **Присоединение Астраханского ханства** - Астрахань",
    "location": {
      "name": "Астрахань",
      "lat": 46.35,
      "lng": 48.04
    },
    "category": "Изменения границ"
  },
  {
    "title": "Ливонская война** - прибалтика, северо-западная русь",
    "date": "1558-1583",
    "description": "* [ 1558-1583 ] - **Ливонская война** - Прибалтика, Северо-Западная Русь",
    "location": {
      "name": "Прибалтика",
      "lat": 54.00024690760294,
      "lng": 47.467551882134174
    },
    "category": "Войны и сражения"
  },
  {
    "title": "Учреждение опричнины** - москва",
    "date": "1565",
    "description": "* [ 1565 ] - **Учреждение опричнины** - Москва",
    "location": {
      "name": "Москва",
      "lat": 55.75,
      "lng": 37.62
    },
    "category": "Социальные реформы"
  },
  {
    "title": "Разорение новгорода опричниками** - новгород",
    "date": "1570",
    "description": "* [ 1570 ] - **Разорение Новгорода опричниками** - Новгород",
    "location": {
      "name": "Новгород",
      "lat": 58.52,
      "lng": 31.27
    },
    "category": "Военные кампании"
  },
  {
    "title": "Введение \"заповедных лет\"** - российское государство",
    "date": "1581",
    "description": "* [ 1581 ] - **Введение \"заповедных лет\"** - Российское государство",
    "location": {
      "name": "Российское государство",
      "lat": 63.28875653309926,
      "lng": 35.727597531922605
    },
    "category": "Становление государства"
  },
  {
    "title": "Основание архангельска** - устье северной двины",
    "date": "1584",
    "description": "* [ 1584 ] - **Основание Архангельска** - Устье Северной Двины",
    "location": {
      "name": "Устье Северной Двины",
      "lat": 60.06811732622859,
      "lng": 31.886923036474727
    },
    "category": "Культура и религия"
  },
  {
    "title": "Учреждение московского патриархата** - москва",
    "date": "1589",
    "description": "* [ 1589 ] - **Учреждение Московского патриархата** - Москва",
    "location": {
      "name": "Москва",
      "lat": 55.75,
      "lng": 37.62
    },
    "category": "Культура и религия"
  },
  {
    "title": "Указ о сыске беглых крестьян** - российское",
    "date": "1591",
    "description": "* [ 1591 ] - **Указ о сыске беглых крестьян** - Российское государство",
    "location": {
      "name": "Москва",
      "lat": 55.75,
      "lng": 37.62
    },
    "category": "Становление государства"
  },
  {
    "title": "Составление писцовых книг** - российское государство",
    "date": "1592",
    "description": "* [ 1592 ] - **Составление писцовых книг** - Российское государство",
    "location": {
      "name": "Российское государство",
      "lat": 58.43134645116735,
      "lng": 27.946298629504142
    },
    "category": "Становление государства"
  },
  {
    "title": "Установление \"урочных лет\"** - российское государство",
    "date": "1597",
    "description": "* [ 1597 ] - **Установление \"урочных лет\"** - Российское государство",
    "location": {
      "name": "Москва",
      "lat": 55.75,
      "lng": 37.62
    },
    "category": "Становление государства"
  }
]