[
  {
    "title": "Год ** - **провозглашение тэмуджина чингисханом** -",
    "date": "1206 год",
    "description": "* ** 1206 год ** - **Провозглашение Тэмуджина Чингисханом** - Монголия",
    "location": {
      "name": "Монголия",
      "lat": 46.23933602297116,
      "lng": 40.46481575404387
    },
    "category": "Становление государства"
  },
  {
    "title": "Год ** - **битва на реке калке**",
    "date": "1221 год",
    "description": "* ** 1221 год ** - **Битва на реке Калке** - Река Калка (современная Донецкая область, Украина)",
    "location": {
      "name": "Донецкая область, Украина",
      "lat": 50.45,
      "lng": 30.52
    },
    "category": "Войны и сражения"
  },
  {
    "title": "Годы** - **походы монголов в волжскую булгарию**",
    "date": "1223-1235",
    "description": "* ** 1223-1235 годы** - **Походы монголов в Волжскую Булгарию** - Волжская Булгария (территория современной России)",
    "location": {
      "name": "Волжская Булгария",
      "lat": 45.12631267096456,
      "lng": 38.60824691067621
    },
    "category": "Изменения границ"
  },
  {
    "title": "Начало нашествия ( 1237-1238 годы):**",
    "date": "1237-1238",
    "description": "**Начало нашествия ( 1237-1238 годы):**",
    "location": {
      "name": "Рязань",
      "lat": 58.71287597123409,
      "lng": 33.781840445908664
    },
    "category": "Становление государства"
  },
  {
    "title": "Год , зима** - **начало похода батыя",
    "date": "1237 год",
    "description": "* ** 1237 год , зима** - **Начало похода Батыя на Русь** - Юго-восточные границы Руси",
    "location": {
      "name": "Юго-восточные границы Руси",
      "lat": 47.34881669550608,
      "lng": 34.96581396770067
    },
    "category": "Изменения границ"
  },
  {
    "title": "Год , декабрь** - **осада и взятие",
    "date": "1237 год",
    "description": "* ** 1237 год , декабрь** - **Осада и взятие Рязани** - Рязань",
    "location": {
      "name": "Рязань",
      "lat": 58.62125976023226,
      "lng": 34.859616873037965
    },
    "category": "Войны и сражения"
  },
  {
    "title": "Год , январь** - **взятие москвы** -",
    "date": "1238 год",
    "description": "* ** 1238 год , январь** - **Взятие Москвы** - Москва",
    "location": {
      "name": "Москва",
      "lat": 55.75,
      "lng": 37.62
    },
    "category": "Революции и перевороты"
  },
  {
    "title": "Взятие владимира",
    "date": "1238 год",
    "description": "* ** 1238 год , февраль** - **Взятие Владимира** - Владимир",
    "location": {
      "name": "Владимир",
      "lat": 56.13,
      "lng": 40.42
    },
    "category": "Дипломатические события"
  },
  {
    "title": "Год , 4 марта** - **битва на",
    "date": "1238 год",
    "description": "* ** 1238 год , 4 марта** - **Битва на реке Сить** - Река Сить (Ярославская область)",
    "location": {
      "name": "Река Сить (Ярославская область)",
      "lat": 58.82562350198465,
      "lng": 49.87043536919573
    },
    "category": "Войны и сражения"
  },
  {
    "title": "Год , март** - **осада торжка** -",
    "date": "1238 год",
    "description": "* ** 1238 год , март** - **Осада Торжка** - Торжок",
    "location": {
      "name": "Торжок",
      "lat": 62.152808865408645,
      "lng": 48.558073508406345
    },
    "category": "Войны и сражения"
  },
  {
    "title": "Год , март-апрель** - **осада козельска** -",
    "date": "1238 год",
    "description": "* ** 1238 год , март-апрель** - **Осада Козельска** - Козельск",
    "location": {
      "name": "Козельск",
      "lat": 64.22971227595832,
      "lng": 36.60738992227536
    },
    "category": "Войны и сражения"
  },
  {
    "title": "Южный поход ( 1239-1240 годы):**",
    "date": "1239-1240",
    "description": "**Южный поход ( 1239-1240 годы):**",
    "location": {
      "name": "Южная Русь",
      "lat": 49.04568115857243,
      "lng": 28.532329283247257
    },
    "category": "Территориальные приобретения"
  },
  {
    "title": "Год ** - **разорение переяславля** - переяславль-русский",
    "date": "1239 год",
    "description": "* ** 1239 год ** - **Разорение Переяславля** - Переяславль-Русский (современный Переяслав, Украина)",
    "location": {
      "name": "Переяслав (Украина)",
      "lat": 50.45,
      "lng": 30.52
    },
    "category": "Дипломатические события"
  },
  {
    "title": "Год ** - **разорение чернигова** - чернигов",
    "date": "1239 год",
    "description": "* ** 1239 год ** - **Разорение Чернигова** - Чернигов",
    "location": {
      "name": "Чернигов",
      "lat": 61.428271772411165,
      "lng": 31.16925825029646
    },
    "category": "Становление государства"
  },
  {
    "title": "Год , осень** - **осада и взятие",
    "date": "1240 год",
    "description": "* ** 1240 год , осень** - **Осада и взятие Киева** - Киев",
    "location": {
      "name": "Киев",
      "lat": 50.45,
      "lng": 30.52
    },
    "category": "Войны и сражения"
  },
  {
    "title": "Взятие владимира-волынского",
    "date": "1240 год",
    "description": "* ** 1240 год , декабрь** - **Взятие Владимира-Волынского** - Владимир-Волынский (современная Украина)",
    "location": {
      "name": "Владимир-Волынский",
      "lat": 56.13,
      "lng": 40.42
    },
    "category": "Дипломатические события"
  },
  {
    "title": "Год ** - **битва при легнице** -",
    "date": "1241 год",
    "description": "* ** 1241 год ** - **Битва при Легнице** - Легница (Польша)",
    "location": {
      "name": "Легница",
      "lat": 56.90780674808447,
      "lng": 42.24016448827345
    },
    "category": "Войны и сражения"
  },
  {
    "title": "Год ** - **битва на реке шайо**",
    "date": "1241 год",
    "description": "* ** 1241 год ** - **Битва на реке Шайо** - Река Шайо (Венгрия)",
    "location": {
      "name": "Река Шайо (Венгрия)",
      "lat": 49.82824083583607,
      "lng": 36.66966548223517
    },
    "category": "Войны и сражения"
  },
  {
    "title": "Год ** - **уход батыя из европы**",
    "date": "1242 год",
    "description": "* ** 1242 год ** - **Уход Батыя из Европы** - Территория современной Венгрии",
    "location": {
      "name": "Венгрия",
      "lat": 55.91865182885994,
      "lng": 48.098622510248276
    },
    "category": "Изменения границ"
  },
  {
    "title": "Год ** - **ярослав всеволодович получает ярлык",
    "date": "1243 год",
    "description": "* ** 1243 год ** - **Ярослав Всеволодович получает ярлык на великое княжение** - Золотая Орда, Сарай-Бату",
    "location": {
      "name": "Сарай-Бату",
      "lat": 64.05965932297312,
      "lng": 33.748974037641496
    },
    "category": "Экономические события"
  },
  {
    "title": "Год ** - **гибель ярослава всеволодовича в",
    "date": "1246 год",
    "description": "* ** 1246 год ** - **Гибель Ярослава Всеволодовича в Орде** - Золотая Орда",
    "location": {
      "name": "Золотая Орда",
      "lat": 52.85323419224234,
      "lng": 46.25616981045975
    },
    "category": "Экономические события"
  },
  {
    "title": "- владимирская земля",
    "date": "1252 год",
    "description": "* ** 1252 год ** - **Неврюева рать** - Владимирская земля",
    "location": {
      "name": "Владимир",
      "lat": 56.13,
      "lng": 40.42
    },
    "category": "Дипломатические события"
  },
  {
    "title": "Годы** - **перепись населения руси монголами** -",
    "date": "1257-1259",
    "description": "* ** 1257-1259 годы** - **Перепись населения Руси монголами** - Различные русские земли",
    "location": {
      "name": "Различные русские земли",
      "lat": 58.40389007649445,
      "lng": 32.3571478572768
    },
    "category": "Основание городов"
  },
  {
    "title": "Год ** - **восстания в русских городах",
    "date": "1262 год",
    "description": "* ** 1262 год ** - **Восстания в русских городах против откупщиков дани** - Ростов, Суздаль, Владимир, Ярославль и другие города",
    "location": {
      "name": "Ростов",
      "lat": 47.23,
      "lng": 39.72
    },
    "category": "Революции и перевороты"
  },
  {
    "title": "Год ** - **разорение курска** - курск",
    "date": "1276 год",
    "description": "* ** 1276 год ** - **Разорение Курска** - Курск",
    "location": {
      "name": "Курск",
      "lat": 53.17645338397053,
      "lng": 51.198891218753346
    },
    "category": "Основание городов"
  },
  {
    "title": "Поход татар на владимирскую землю",
    "date": "1281 год",
    "description": "* ** 1281 год ** - **Поход татар на Владимирскую землю** - Владимирская земля",
    "location": {
      "name": "Владимирская земля",
      "lat": 56.13,
      "lng": 40.42
    },
    "category": "Дипломатические события"
  },
  {
    "title": "Год ** - **дюденева рать** - северо-восточная",
    "date": "1293 год",
    "description": "* ** 1293 год ** - **Дюденева рать** - Северо-Восточная Русь",
    "location": {
      "name": "Северо-Восточная Русь",
      "lat": 61.0181773737039,
      "lng": 35.13207843178452
    },
    "category": "Политические реформы"
  },
  {
    "title": "Год ** - **тверское восстание** - тверь",
    "date": "1327 год",
    "description": "* ** 1327 год ** - **Тверское восстание** - Тверь",
    "location": {
      "name": "Тверь",
      "lat": 49.875995678234474,
      "lng": 37.933858622694935
    },
    "category": "Революции и перевороты"
  },
  {
    "title": "Год , 11 августа** - **битва на",
    "date": "1378 год",
    "description": "* ** 1378 год , 11 августа** - **Битва на реке Воже** - Река Вожа (Рязанская область)",
    "location": {
      "name": "Река Вожа (Рязанская область)",
      "lat": 56.413215311788086,
      "lng": 28.10479502712535
    },
    "category": "Войны и сражения"
  },
  {
    "title": "Год , 8 сентября** - **куликовская битва**",
    "date": "1380 год",
    "description": "* ** 1380 год , 8 сентября** - **Куликовская битва** - Куликово поле (Тульская область)",
    "location": {
      "name": "Куликово поле (Тульская область)",
      "lat": 53.67,
      "lng": 38.67
    },
    "category": "Войны и сражения"
  },
  {
    "title": "Год ** - **нашествие тохтамыша на москву**",
    "date": "1382 год",
    "description": "* ** 1382 год ** - **Нашествие Тохтамыша на Москву** - Москва",
    "location": {
      "name": "Москва",
      "lat": 55.75,
      "lng": 37.62
    },
    "category": "Территориальные приобретения"
  },
  {
    "title": "Год ** - **стояние на реке угре**",
    "date": "1480 год",
    "description": "* ** 1480 год ** - **Стояние на реке Угре** - Река Угра (граница Московского княжества и Литвы)",
    "location": {
      "name": "Река Угра",
      "lat": 55.908663240257766,
      "lng": 40.706100060999766
    },
    "category": "Становление государства"
  },
  {
    "title": "Битва на реке калке (повторное столкновение)** -",
    "date": "1224",
    "description": "* ** 1224 ** - **Битва на реке Калке (повторное столкновение)** - *Река Калка, Приазовье*",
    "location": {
      "name": "Приазовье",
      "lat": 63.428766563907544,
      "lng": 51.479871278178166
    },
    "category": "Войны и сражения"
  },
  {
    "title": "Осень** - **разорение рязанского княжества (начало)** -",
    "date": "1237",
    "description": "* ** 1237 , осень** - **Разорение Рязанского княжества (начало)** - *Рязанская земля*",
    "location": {
      "name": "Рязанская земля",
      "lat": 56.56356758907611,
      "lng": 49.17932799802702
    },
    "category": "Становление государства"
  },
  {
    "title": "Январь** - **оборона москвы** - *москва*",
    "date": "1238",
    "description": "* ** 1238 , январь** - **Оборона Москвы** - *Москва*",
    "location": {
      "name": "Москва",
      "lat": 55.75,
      "lng": 37.62
    },
    "category": "Войны и сражения"
  },
  {
    "title": "Марта** - **битва на реке сить** -",
    "date": "1238",
    "description": "* ** 1238 , 4 марта** - **Битва на реке Сить** - *Река Сить, Ярославская область*",
    "location": {
      "name": "Река Сить, Ярославская область",
      "lat": 63.66000632825328,
      "lng": 49.88651519254829
    },
    "category": "Войны и сражения"
  },
  {
    "title": "Весна** - **осада и взятие торжка** -",
    "date": "1238",
    "description": "* ** 1238 , весна** - **Осада и взятие Торжка** - *Торжок, Тверская область*",
    "location": {
      "name": "Торжок, Тверская область",
      "lat": 59.65760134774081,
      "lng": 42.62951277978697
    },
    "category": "Войны и сражения"
  },
  {
    "title": "Весна** - **поход монголов на козельск** -",
    "date": "1238",
    "description": "* ** 1238 , весна** - **Поход монголов на Козельск** - *Козельск, Калужская область*",
    "location": {
      "name": "Козельск, Калужская область",
      "lat": 60.855234985672496,
      "lng": 34.914205255252675
    },
    "category": "Социальные реформы"
  },
  {
    "title": "Разорение черниговского княжества** - *черниговская земля*",
    "date": "1239",
    "description": "* ** 1239 ** - **Разорение Черниговского княжества** - *Черниговская земля*",
    "location": {
      "name": "Чернигов",
      "lat": 61.417312014006356,
      "lng": 42.962040708812914
    },
    "category": "Становление государства"
  },
  {
    "title": "Взятие и разорение переяславля** - *переяславль-южный (ныне",
    "date": "1239",
    "description": "* ** 1239 ** - **Взятие и разорение Переяславля** - *Переяславль-Южный (ныне Переяслав, Украина)*",
    "location": {
      "name": "Переяслав-Южный",
      "lat": 48.07114684971086,
      "lng": 50.46515299387394
    },
    "category": "Войны и сражения"
  },
  {
    "title": "Осень** - **осада и взятие киева** -",
    "date": "1240",
    "description": "* ** 1240 , осень** - **Осада и взятие Киева** - *Киев*",
    "location": {
      "name": "Киев",
      "lat": 50.45,
      "lng": 30.52
    },
    "category": "Войны и сражения"
  },
  {
    "title": "Разорение галицко-волынского княжества** - *галицко-волынская земля*",
    "date": "1240",
    "description": "* ** 1240 ** - **Разорение Галицко-Волынского княжества** - *Галицко-Волынская земля*",
    "location": {
      "name": "Галицко-Волынская земля",
      "lat": 61.378961734202754,
      "lng": 31.540599014257456
    },
    "category": "Становление государства"
  },
  {
    "title": "Весна** - **вторжение в польшу и венгрию**",
    "date": "1241",
    "description": "* ** 1241 , весна** - **Вторжение в Польшу и Венгрию** - *Польша, Венгрия*",
    "location": {
      "name": "Польша, Венгрия",
      "lat": 60.82708663061862,
      "lng": 34.73359279355723
    },
    "category": "Экономические события"
  },
  {
    "title": "Возвращение батыя в поволжье и основание сарая",
    "date": "1242",
    "description": "* ** 1242 ** - **Возвращение Батыя в Поволжье и основание Сарая** - *Поволжье, Нижнее Поволжье*",
    "location": {
      "name": "Нижнее Поволжье",
      "lat": 49.166321983234496,
      "lng": 28.1016076690198
    },
    "category": "Основание городов"
  },
  {
    "title": "Ярлык на княжение ярославу всеволодовичу** - *сарай-бату*",
    "date": "1243",
    "description": "* ** 1243 ** - **Ярлык на княжение Ярославу Всеволодовичу** - *Сарай-Бату*",
    "location": {
      "name": "Сарай-Бату",
      "lat": 59.95565327153549,
      "lng": 49.162021708857424
    },
    "category": "Военные кампании"
  },
  {
    "title": "Смерть ярослава всеволодовича в каракоруме** - *каракорум",
    "date": "1246",
    "description": "* ** 1246 ** - **Смерть Ярослава Всеволодовича в Каракоруме** - *Каракорум, Монголия*",
    "location": {
      "name": "Каракорум",
      "lat": 49.291996606299335,
      "lng": 34.43086853081144
    },
    "category": "Дипломатические события"
  },
  {
    "title": "Владимирская земля",
    "date": "1252",
    "description": "* ** 1252 ** - **Неврюева рать** - *Владимирская земля*",
    "location": {
      "name": "Владимирская земля",
      "lat": 56.13,
      "lng": 40.42
    },
    "category": "Дипломатические события"
  },
  {
    "title": "Перепись населения руси монголами** - *русские княжества*",
    "date": "1257-1259",
    "description": "* ** 1257-1259 ** - **Перепись населения Руси монголами** - *Русские княжества*",
    "location": {
      "name": "Русские княжества",
      "lat": 62.67679109831458,
      "lng": 33.40286798478577
    },
    "category": "Становление государства"
  },
  {
    "title": "Восстания против сборщиков дани (баскаков)** - *разные",
    "date": "1262",
    "description": "* ** 1262 ** - **Восстания против сборщиков дани (баскаков)** - *Разные города Руси*",
    "location": {
      "name": "Разные города Руси",
      "lat": 63.135913650685424,
      "lng": 36.50259147726568
    },
    "category": "Революции и перевороты"
  },
  {
    "title": "Поход русских князей на ясов по приказу",
    "date": "1277",
    "description": "* ** 1277 ** - **Поход русских князей на ясов по приказу Менгу-Тимура** - *Северный Кавказ*",
    "location": {
      "name": "Северный Кавказ",
      "lat": 43.0,
      "lng": 44.0
    },
    "category": "Социальные реформы"
  },
  {
    "title": "Дюденева рать** - *русские княжества*",
    "date": "1285",
    "description": "* ** 1285 ** - **Дюденева рать** - *Русские княжества*",
    "location": {
      "name": "Муром",
      "lat": 61.27655416194097,
      "lng": 34.29234141054739
    },
    "category": "Становление государства"
  },
  {
    "title": "Разорение руси войсками тудана** - *русские княжества*",
    "date": "1293",
    "description": "* ** 1293 ** - **Разорение Руси войсками Тудана** - *Русские княжества*",
    "location": {
      "name": "Владимир",
      "lat": 56.13,
      "lng": 40.42
    },
    "category": "Становление государства"
  }
]