[
  {
    "title": "Год ** - призвание варягов - новгород",
    "date": "862 год",
    "description": "* ** 862 год ** - Призвание варягов - Новгород",
    "location": {
      "name": "Новгород",
      "lat": 58.52,
      "lng": 31.27
    },
    "category": "Социальные реформы"
  },
  {
    "title": "Год ** - захват киева олегом -",
    "date": "882 год",
    "description": "* ** 882 год ** - Захват Киева Олегом - Киев",
    "location": {
      "name": "Киев",
      "lat": 50.45,
      "lng": 30.52
    },
    "category": "Социальные реформы"
  },
  {
    "title": "Год ** - убийство князя игоря древлянами",
    "date": "945 год",
    "description": "* ** 945 год ** - Убийство князя Игоря древлянами - Около Искоростеня (совр",
    "location": {
      "name": "Около Искоростеня",
      "lat": 48.26944768334061,
      "lng": 36.73365285182386
    },
    "category": "Политические реформы"
  },
  {
    "title": "Год ** - поездка княгини ольги в",
    "date": "957 год",
    "description": "* ** 957 год ** - Поездка княгини Ольги в Константинополь - Константинополь (Византия)",
    "location": {
      "name": "Константинополь",
      "lat": 41.01,
      "lng": 28.97
    },
    "category": "Войны и сражения"
  },
  {
    "title": "Годы** - походы князя святослава - волжская",
    "date": "964",
    "description": "* ** 964 -972 годы** - Походы князя Святослава - Волжская Булгария, Хазарский каганат, Дунайская Болгария",
    "location": {
      "name": "Волжская Булгария",
      "lat": 64.40019151208368,
      "lng": 44.013856129408985
    },
    "category": "Научные достижения"
  },
  {
    "title": "- рождение владимира святославича - будущее местоположение неизвестно",
    "date": "970",
    "description": "* **Около 970 года** - Рождение Владимира Святославича - Будущее местоположение неизвестно, возможно, Будятино (предположительно)",
    "location": {
      "name": "Будятино",
      "lat": 53.02818210319362,
      "lng": 37.905156598950256
    },
    "category": "Дипломатические события"
  },
  {
    "title": "- смерть князя святослава - пороги днепра",
    "date": "972 год",
    "description": "* ** 972 год ** - Смерть князя Святослава - Пороги Днепра",
    "location": {
      "name": "Днепровские пороги",
      "lat": 53.60703023195585,
      "lng": 37.95894639270364
    },
    "category": "Научные достижения"
  },
  {
    "title": "- междоусобная война между сыновьями святослава - киев",
    "date": "972",
    "description": "* ** 972 -978 годы** - Междоусобная война между сыновьями Святослава - Киев, Новгород",
    "location": {
      "name": "Киев",
      "lat": 50.45,
      "lng": 30.52
    },
    "category": "Войны и сражения"
  },
  {
    "title": "- владимир захватывает киев - киев",
    "date": "978 год",
    "description": "* ** 978 год ** - Владимир захватывает Киев - Киев",
    "location": {
      "name": "Киев",
      "lat": 50.45,
      "lng": 30.52
    },
    "category": "Дипломатические события"
  },
  {
    "title": "- языческая реформа владимира - киев",
    "date": "980 год",
    "description": "* ** 980 год ** - Языческая реформа Владимира - Киев",
    "location": {
      "name": "Киев",
      "lat": 50.45,
      "lng": 30.52
    },
    "category": "Социальные реформы"
  },
  {
    "title": "- военные походы владимира - земли вятичей",
    "date": "980",
    "description": "* ** 980 -е годы** - Военные походы Владимира - Земли вятичей, радимичей, ятвягов",
    "location": {
      "name": "Земли вятичей",
      "lat": 58.321557997774754,
      "lng": 27.84811398415495
    },
    "category": "Войны и сражения"
  },
  {
    "title": "Год ** - прибытие мусульманских послов из",
    "date": "986 год",
    "description": "* ** 986 год ** - Прибытие мусульманских послов из Волжской Булгарии - Киев",
    "location": {
      "name": "Киев",
      "lat": 50.45,
      "lng": 30.52
    },
    "category": "Культура и религия"
  },
  {
    "title": "Год ** - прибытие хазарских евреев -",
    "date": "986 год",
    "description": "* ** 986 год ** - Прибытие хазарских евреев - Киев",
    "location": {
      "name": "Киев",
      "lat": 50.45,
      "lng": 30.52
    },
    "category": "Территориальные приобретения"
  },
  {
    "title": "Год ** - прибытие католических послов из",
    "date": "986 год",
    "description": "* ** 986 год ** - Прибытие католических послов из Германии - Киев",
    "location": {
      "name": "Киев",
      "lat": 50.45,
      "lng": 30.52
    },
    "category": "Военные кампании"
  },
  {
    "title": "Год ** - прибытие православного философа (вероятно",
    "date": "987 год",
    "description": "* ** 987 год ** - Прибытие православного философа (вероятно, из Византии) - Киев",
    "location": {
      "name": "Киев",
      "lat": 50.45,
      "lng": 30.52
    },
    "category": "Культура и религия"
  },
  {
    "title": "- восстание варды фоки - византия",
    "date": "987 год",
    "description": "* ** 987 год ** - Восстание Варды Фоки - Византия",
    "location": {
      "name": "Византия",
      "lat": 45.79154306482413,
      "lng": 50.98256082807811
    },
    "category": "Революции и перевороты"
  },
  {
    "title": "- поход владимира на корсунь",
    "date": "988 год",
    "description": "* ** 988 год ** - Поход Владимира на Корсунь (Херсонес) - Корсунь (Херсонес, Крым)",
    "location": {
      "name": "Корсунь (Херсонес, Крым)",
      "lat": 45.3,
      "lng": 34.2
    },
    "category": "Дипломатические события"
  },
  {
    "title": "- крещение владимира - корсунь",
    "date": "988 год",
    "description": "* ** 988 год ** - Крещение Владимира - Корсунь (Херсонес, Крым)",
    "location": {
      "name": "Корсунь",
      "lat": 50.41915327493265,
      "lng": 44.142621159230856
    },
    "category": "Дипломатические события"
  },
  {
    "title": "- крещение киевлян - киев",
    "date": "988 год",
    "description": "* ** 988 год ** - Крещение киевлян - Киев, река Почайна (предположительно)",
    "location": {
      "name": "Киев",
      "lat": 50.45,
      "lng": 30.52
    },
    "category": "Культура и религия"
  },
  {
    "title": "Год ** - уничтожение языческих идолов в",
    "date": "988 год",
    "description": "* ** 988 год ** - Уничтожение языческих идолов в Киеве - Киев",
    "location": {
      "name": "Киев",
      "lat": 50.45,
      "lng": 30.52
    },
    "category": "Изменения границ"
  },
  {
    "title": "- крещение новгорода - новгород",
    "date": "989 год",
    "description": "* ** 989 год ** - Крещение Новгорода - Новгород",
    "location": {
      "name": "Новгород",
      "lat": 58.52,
      "lng": 31.27
    },
    "category": "Социальные реформы"
  },
  {
    "title": "Год ** - начало строительства десятинной церкви",
    "date": "989 год",
    "description": "* ** 989 год ** - Начало строительства Десятинной церкви - Киев",
    "location": {
      "name": "Киев",
      "lat": 50.45,
      "lng": 30.52
    },
    "category": "Революции и перевороты"
  },
  {
    "title": "Е годы** - распространение христианства по руси",
    "date": "990",
    "description": "* ** 990 -е годы** - Распространение христианства по Руси - Разные города и регионы Руси",
    "location": {
      "name": "Разные города и регионы Руси",
      "lat": 63.654011055930646,
      "lng": 39.995792356110265
    },
    "category": "Культура и религия"
  },
  {
    "title": "Год ** - освящение десятинной церкви -",
    "date": "996 год",
    "description": "* ** 996 год ** - Освящение Десятинной церкви - Киев",
    "location": {
      "name": "Киев",
      "lat": 50.45,
      "lng": 30.52
    },
    "category": "Политические реформы"
  },
  {
    "title": "- смерть князя владимира - берестово",
    "date": "1015 год",
    "description": "* ** 1015 год ** - Смерть князя Владимира - Берестово (под Киевом)",
    "location": {
      "name": "Берестово",
      "lat": 50.08390462634839,
      "lng": 28.82425248188506
    },
    "category": "Дипломатические события"
  },
  {
    "title": "- междоусобная война между сыновьями владимира - разные регионы руси",
    "date": "1015-1019",
    "description": "* ** 1015-1019 годы** - Междоусобная война между сыновьями Владимира - Разные регионы Руси",
    "location": {
      "name": "Разные регионы Руси",
      "lat": 57.940575724303265,
      "lng": 49.537678269219015
    },
    "category": "Войны и сражения"
  },
  {
    "title": "Год ** - победа ярослава мудрого над",
    "date": "1019 год",
    "description": "* ** 1019 год ** - Победа Ярослава Мудрого над Святополком Окаянным - Река Альта",
    "location": {
      "name": "Река Альта",
      "lat": 59.15108434426274,
      "lng": 43.56929510476422
    },
    "category": "Восстания и бунты"
  },
  {
    "title": "Год ** - окончательная победа ярослава мудрого",
    "date": "1036 год",
    "description": "* ** 1036 год ** - Окончательная победа Ярослава Мудрого над печенегами - Около Киева",
    "location": {
      "name": "Около Киева",
      "lat": 50.45,
      "lng": 30.52
    },
    "category": "Восстания и бунты"
  },
  {
    "title": "- основание софийского собора - киев",
    "date": "1037 год",
    "description": "* ** 1037 год ** - Основание Софийского собора - Киев",
    "location": {
      "name": "Киев",
      "lat": 50.45,
      "lng": 30.52
    },
    "category": "Культура и религия"
  },
  {
    "title": "Вокняжение владимира в киеве",
    "date": "978 год",
    "description": "* ** 978 год ** - **Вокняжение Владимира в Киеве** - **Киев**",
    "location": {
      "name": "Киев",
      "lat": 50.45,
      "lng": 30.52
    },
    "category": "Дипломатические события"
  },
  {
    "title": "Первая языческая реформа владимира",
    "date": "980 год",
    "description": "* ** 980 год ** - **Первая языческая реформа Владимира** - **Киев**",
    "location": {
      "name": "Киев",
      "lat": 50.45,
      "lng": 30.52
    },
    "category": "Социальные реформы"
  },
  {
    "title": "Поход владимира на ятвягов",
    "date": "983 год",
    "description": "* ** 983 год ** - **Поход Владимира на ятвягов** - **Территория ятвягов (современная Польша и Литва)**",
    "location": {
      "name": "Территория ятвягов (современная Польша и Литва)",
      "lat": 54.69,
      "lng": 25.27
    },
    "category": "Изменения границ"
  },
  {
    "title": "Поход владимира на радимичей",
    "date": "984 год",
    "description": "* ** 984 год ** - **Поход Владимира на радимичей** - **Река Пищана (бассейн Днепра)**",
    "location": {
      "name": "Река Пищана (бассейн Днепра)",
      "lat": 53.773032446502484,
      "lng": 37.94091992814329
    },
    "category": "Дипломатические события"
  },
  {
    "title": "Поход владимира на волжских булгар",
    "date": "985 год",
    "description": "* ** 985 год ** - **Поход Владимира на волжских булгар** - **Волга, район современной Казани**",
    "location": {
      "name": "Волга, район современной Казани",
      "lat": 45.663620268009645,
      "lng": 45.28829989547579
    },
    "category": "Дипломатические события"
  },
  {
    "title": "Год ** - **прибытие мусульманских послов из",
    "date": "986 год",
    "description": "* ** 986 год ** - **Прибытие мусульманских послов из Волжской Булгарии** - **Киев**",
    "location": {
      "name": "Киев",
      "lat": 50.45,
      "lng": 30.52
    },
    "category": "Становление государства"
  },
  {
    "title": "Год ** - **прибытие хазарских евреев** -",
    "date": "986 год",
    "description": "* ** 986 год ** - **Прибытие хазарских евреев** - **Киев**",
    "location": {
      "name": "Киев",
      "lat": 50.45,
      "lng": 30.52
    },
    "category": "Дипломатические события"
  },
  {
    "title": "Год ** - **прибытие послов из рима**",
    "date": "986 год",
    "description": "* ** 986 год ** - **Прибытие послов из Рима** - **Киев**",
    "location": {
      "name": "Киев",
      "lat": 50.45,
      "lng": 30.52
    },
    "category": "Восстания и бунты"
  },
  {
    "title": "Год ** - **прибытие византийских философов (предположительно)**",
    "date": "987 год",
    "description": "* ** 987 год ** - **Прибытие византийских философов (предположительно)** - **Киев**",
    "location": {
      "name": "Киев",
      "lat": 50.45,
      "lng": 30.52
    },
    "category": "Культура и религия"
  },
  {
    "title": "Решение владимира креститься и союз с византией",
    "date": "987 год",
    "description": "* ** 987 год ** - **Решение Владимира креститься и союз с Византией** - **Киев, затем Корсунь (Херсонес)**",
    "location": {
      "name": "Киев, затем Корсунь (Херсонес)",
      "lat": 50.45,
      "lng": 30.52
    },
    "category": "Дипломатические события"
  },
  {
    "title": "Год ** - **взятие корсуня (херсонеса)** -",
    "date": "988 год",
    "description": "* ** 988 год ** - **Взятие Корсуня (Херсонеса)** - **Корсунь (Херсонес), Крым**",
    "location": {
      "name": "Корсунь (Херсонес), Крым",
      "lat": 45.3,
      "lng": 34.2
    },
    "category": "Территориальные приобретения"
  },
  {
    "title": "Крещение владимира",
    "date": "988 год",
    "description": "* ** 988 год ** - **Крещение Владимира** - **Корсунь (Херсонес), Крым**",
    "location": {
      "name": "Корсунь (Херсонес)",
      "lat": 57.25384842563294,
      "lng": 36.91582283232384
    },
    "category": "Дипломатические события"
  },
  {
    "title": "Возвращение владимира в киев с анной",
    "date": "989 год",
    "description": "* ** 989 год ** - **Возвращение Владимира в Киев с Анной** - **Киев**",
    "location": {
      "name": "Киев",
      "lat": 50.45,
      "lng": 30.52
    },
    "category": "Дипломатические события"
  },
  {
    "title": "Годы** - **строительство десятинной церкви** - **киев**",
    "date": "989",
    "description": "* ** 989 -991 годы** - **Строительство Десятинной церкви** - **Киев**",
    "location": {
      "name": "Киев",
      "lat": 50.45,
      "lng": 30.52
    },
    "category": "Политические реформы"
  },
  {
    "title": "Е годы** - **основание новых городов и",
    "date": "990",
    "description": "* ** 990 -е годы** - **Основание новых городов и епархий** - **Различные города Руси**",
    "location": {
      "name": "Различные города Руси",
      "lat": 52.296203348179596,
      "lng": 31.977627978800776
    },
    "category": "Политические реформы"
  },
  {
    "title": "Поход владимира на белых хорватов",
    "date": "991 год",
    "description": "* ** 991 год ** - **Поход Владимира на белых хорватов** - **Карпаты**",
    "location": {
      "name": "Карпаты",
      "lat": 62.52485824323441,
      "lng": 44.576457860249455
    },
    "category": "Дипломатические события"
  },
  {
    "title": "Поход владимира против печенегов",
    "date": "992 год",
    "description": "* ** 992 год ** - **Поход Владимира против печенегов** - **Река Трубеж**",
    "location": {
      "name": "Река Трубеж",
      "lat": 62.2576468358306,
      "lng": 40.930154159049195
    },
    "category": "Дипломатические события"
  },
  {
    "title": "Год ** - **освящение десятинной церкви** -",
    "date": "996 год",
    "description": "* ** 996 год ** - **Освящение Десятинной церкви** - **Киев**",
    "location": {
      "name": "Киев",
      "lat": 50.45,
      "lng": 30.52
    },
    "category": "Изменения границ"
  },
  {
    "title": "Смерть князя владимира",
    "date": "1015 год",
    "description": "* ** 1015 год ** - **Смерть князя Владимира** - **Берестово, под Киевом**",
    "location": {
      "name": "Берестово",
      "lat": 56.399180340731945,
      "lng": 49.196069010193085
    },
    "category": "Дипломатические события"
  },
  {
    "title": "Канонизация владимира как святого равноапостольного князя",
    "date": "1015",
    "description": "* **После 1015 года** - **Канонизация Владимира как святого равноапостольного князя** - **Киевская Русь, затем Русская Православная Церковь**",
    "location": {
      "name": "Киев",
      "lat": 50.45,
      "lng": 30.52
    },
    "category": "Культура и религия"
  }
]