[
  {
    "title": "- указ о строительстве флота - воронеж",
    "date": "1696",
    "description": "* ** 1696 ** - Указ о строительстве флота - Воронеж",
    "location": {
      "name": "Воронеж",
      "lat": 54.65456948755925,
      "lng": 45.552291637818925
    },
    "category": "Дипломатические события"
  },
  {
    "title": "- указ о создании бурмистерской палаты - москва",
    "date": "1699",
    "description": "* ** 1699 ** - Указ о создании Бурмистерской палаты - Москва",
    "location": {
      "name": "Москва",
      "lat": 55.75,
      "lng": 37.62
    },
    "category": "Территориальные приобретения"
  },
  {
    "title": "Начало северной войны - нарва",
    "date": "1700",
    "description": "* ** 1700 ** - Начало Северной войны - Нарва",
    "location": {
      "name": "Нарва",
      "lat": 49.892481831710484,
      "lng": 41.672894017408474
    },
    "category": "Восстания и бунты"
  },
  {
    "title": "- указ о привлечении иностранных мастеров - россия",
    "date": "1700",
    "description": "* ** 1700 ** - Указ о привлечении иностранных мастеров - Россия",
    "location": {
      "name": "Москва",
      "lat": 55.75,
      "lng": 37.62
    },
    "category": "Территориальные приобретения"
  },
  {
    "title": "- указ о строительстве железоделательных заводов на урале - урал",
    "date": "1702",
    "description": "* ** 1702 ** - Указ о строительстве железоделательных заводов на Урале - Урал",
    "location": {
      "name": "Урал",
      "lat": 58.0,
      "lng": 60.0
    },
    "category": "Военные кампании"
  },
  {
    "title": "- основание санкт-петербурга - санкт-петербург",
    "date": "1703",
    "description": "* ** 1703 ** - Основание Санкт-Петербурга - Санкт-Петербург",
    "location": {
      "name": "Санкт-Петербург",
      "lat": 59.94,
      "lng": 30.31
    },
    "category": "Восстания и бунты"
  },
  {
    "title": "- указ о приписке крестьян к заводам - россия",
    "date": "1703",
    "description": "* ** 1703 ** - Указ о приписке крестьян к заводам - Россия",
    "location": {
      "name": "Урал",
      "lat": 58.0,
      "lng": 60.0
    },
    "category": "Культура и религия"
  },
  {
    "title": "- указ о создании адмиралтейства - санкт-петербург",
    "date": "1704",
    "description": "* ** 1704 ** - Указ о создании Адмиралтейства - Санкт-Петербург",
    "location": {
      "name": "Санкт-Петербург",
      "lat": 59.94,
      "lng": 30.31
    },
    "category": "Дипломатические события"
  },
  {
    "title": "Учреждение сената - санкт-петербург",
    "date": "1711",
    "description": "* ** 1711 ** - Учреждение Сената - Санкт-Петербург",
    "location": {
      "name": "Санкт-Петербург",
      "lat": 59.94,
      "lng": 30.31
    },
    "category": "Восстания и бунты"
  },
  {
    "title": "- указ о единонаследии - россия",
    "date": "1714",
    "description": "* ** 1714 ** - Указ о единонаследии - Россия",
    "location": {
      "name": "Санкт-Петербург",
      "lat": 59.94,
      "lng": 30.31
    },
    "category": "Научные достижения"
  },
  {
    "title": "- открытие морской академии - санкт-петербург",
    "date": "1715",
    "description": "* ** 1715 ** - Открытие Морской академии - Санкт-Петербург",
    "location": {
      "name": "Санкт-Петербург",
      "lat": 59.94,
      "lng": 30.31
    },
    "category": "Научные достижения"
  },
  {
    "title": "Учреждение коллегий - россия",
    "date": "1717-1722",
    "description": "* ** 1717-1722 ** - Учреждение коллегий - Россия",
    "location": {
      "name": "Санкт-Петербург",
      "lat": 59.94,
      "lng": 30.31
    },
    "category": "Политические реформы"
  },
  {
    "title": "Начало проведения подушной переписи - россия",
    "date": "1718",
    "description": "* ** 1718 ** - Начало проведения подушной переписи - Россия",
    "location": {
      "name": "Россия",
      "lat": 55.75,
      "lng": 37.62
    },
    "category": "Политические реформы"
  },
  {
    "title": "Издание берг-привилегии - россия",
    "date": "1719",
    "description": "* ** 1719 ** - Издание Берг-привилегии - Россия",
    "location": {
      "name": "Санкт-Петербург",
      "lat": 59.94,
      "lng": 30.31
    },
    "category": "Революции и перевороты"
  },
  {
    "title": "- создание мануфактур-коллегии - санкт-петербург",
    "date": "1719",
    "description": "* ** 1719 ** - Создание Мануфактур-коллегии - Санкт-Петербург",
    "location": {
      "name": "Санкт-Петербург",
      "lat": 59.94,
      "lng": 30.31
    },
    "category": "Революции и перевороты"
  },
  {
    "title": "- создание коммерц-коллегии - санкт-петербург",
    "date": "1720",
    "description": "* ** 1720 ** - Создание Коммерц-коллегии - Санкт-Петербург",
    "location": {
      "name": "Санкт-Петербург",
      "lat": 59.94,
      "lng": 30.31
    },
    "category": "Основание городов"
  },
  {
    "title": "- ништадтский мир - ништадт",
    "date": "1721",
    "description": "* ** 1721 ** - Ништадтский мир - Ништадт (совр",
    "location": {
      "name": "Ништадт",
      "lat": 60.93479274239239,
      "lng": 48.193826437808085
    },
    "category": "Дипломатические события"
  },
  {
    "title": "Издание табели о рангах - россия",
    "date": "1722",
    "description": "* ** 1722 ** - Издание Табели о рангах - Россия",
    "location": {
      "name": "Санкт-Петербург",
      "lat": 59.94,
      "lng": 30.31
    },
    "category": "Восстания и бунты"
  },
  {
    "title": "- указ о свободе торговли - россия",
    "date": "1723",
    "description": "* ** 1723 ** - Указ о свободе торговли - Россия",
    "location": {
      "name": "Санкт-Петербург",
      "lat": 59.94,
      "lng": 30.31
    },
    "category": "Экономические события"
  },
  {
    "title": "- основание екатеринбурга - екатеринбург",
    "date": "1723",
    "description": "* ** 1723 ** - Основание Екатеринбурга - Екатеринбург",
    "location": {
      "name": "Екатеринбург",
      "lat": 56.84,
      "lng": 60.65
    },
    "category": "Научные достижения"
  },
  {
    "title": "Введение таможенного тарифа - россия",
    "date": "1724",
    "description": "* ** 1724 ** - Введение таможенного тарифа - Россия",
    "location": {
      "name": "Санкт-Петербург",
      "lat": 59.94,
      "lng": 30.31
    },
    "category": "Военные кампании"
  },
  {
    "title": "- указ о создании академии наук - санкт-петербург",
    "date": "1724",
    "description": "* ** 1724 ** - Указ о создании Академии наук - Санкт-Петербург",
    "location": {
      "name": "Санкт-Петербург",
      "lat": 59.94,
      "lng": 30.31
    },
    "category": "Научные достижения"
  },
  {
    "title": "- смерть петра i - санкт-петербург",
    "date": "1725",
    "description": "* ** 1725 ** - Смерть Петра I - Санкт-Петербург",
    "location": {
      "name": "Санкт-Петербург",
      "lat": 59.94,
      "lng": 30.31
    },
    "category": "Политические реформы"
  },
  {
    "title": "- открытие первого монетного двора в санкт-петербурге - санкт-петербург",
    "date": "1726",
    "description": "* ** 1726 ** - Открытие первого монетного двора в Санкт-Петербурге - Санкт-Петербург",
    "location": {
      "name": "Санкт-Петербург",
      "lat": 59.94,
      "lng": 30.31
    },
    "category": "Научные достижения"
  },
  {
    "title": "- указ об отмене подушной подати для старообрядцев - россия",
    "date": "1727",
    "description": "* ** 1727 ** - Указ об отмене подушной подати для старообрядцев - Россия",
    "location": {
      "name": "Россия",
      "lat": 55.75,
      "lng": 37.62
    },
    "category": "Основание городов"
  },
  {
    "title": "- открытие горного училища - санкт-петербург",
    "date": "1731",
    "description": "* ** 1731 ** - Открытие Горного училища - Санкт-Петербург",
    "location": {
      "name": "Санкт-Петербург",
      "lat": 59.94,
      "lng": 30.31
    },
    "category": "Научные достижения"
  },
  {
    "title": "Указ о приписных крестьянах** - российская империя",
    "date": "1705",
    "description": "* ** 1705 ** - **Указ о приписных крестьянах** - Российская империя",
    "location": {
      "name": "Российская империя",
      "lat": 61.81049524799137,
      "lng": 28.24316739930525
    },
    "category": "Экономические события"
  },
  {
    "title": "Регулирование цен на соль** - российская империя",
    "date": "1710",
    "description": "* ** 1710 ** - **Регулирование цен на соль** - Российская империя",
    "location": {
      "name": "Российская империя",
      "lat": 61.60803469088905,
      "lng": 49.237619489045684
    },
    "category": "Становление государства"
  },
  {
    "title": "Создание провиантской канцелярии** - москва",
    "date": "1711",
    "description": "* ** 1711 ** - **Создание Провиантской канцелярии** - Москва",
    "location": {
      "name": "Москва",
      "lat": 55.75,
      "lng": 37.62
    },
    "category": "Научные достижения"
  },
  {
    "title": "Указ о поощрении строительства судов** - российская",
    "date": "1712",
    "description": "* ** 1712 ** - **Указ о поощрении строительства судов** - Российская империя",
    "location": {
      "name": "Санкт-Петербург",
      "lat": 59.94,
      "lng": 30.31
    },
    "category": "Военные кампании"
  },
  {
    "title": "Указ о единонаследии** - российская империя",
    "date": "1714",
    "description": "* ** 1714 ** - **Указ о единонаследии** - Российская империя",
    "location": {
      "name": "Санкт-Петербург",
      "lat": 59.94,
      "lng": 30.31
    },
    "category": "Социальные реформы"
  },
  {
    "title": "Открытие кунсткамеры** - санкт-петербург",
    "date": "1715",
    "description": "* ** 1715 ** - **Открытие Кунсткамеры** - Санкт-Петербург",
    "location": {
      "name": "Санкт-Петербург",
      "lat": 59.94,
      "lng": 30.31
    },
    "category": "Научные достижения"
  },
  {
    "title": "Устав воинский** - российская империя",
    "date": "1716",
    "description": "* ** 1716 ** - **Устав воинский** - Российская империя",
    "location": {
      "name": "Санкт-Петербург",
      "lat": 59.94,
      "lng": 30.31
    },
    "category": "Социальные реформы"
  },
  {
    "title": "Учреждение берг-коллегии** - санкт-петербург",
    "date": "1717",
    "description": "* ** 1717 ** - **Учреждение Берг-коллегии** - Санкт-Петербург",
    "location": {
      "name": "Санкт-Петербург",
      "lat": 59.94,
      "lng": 30.31
    },
    "category": "Войны и сражения"
  },
  {
    "title": "Начало переписи населения** - российская империя",
    "date": "1718",
    "description": "* ** 1718 ** - **Начало переписи населения** - Российская империя",
    "location": {
      "name": "Российская империя",
      "lat": 58.50760435838539,
      "lng": 33.42455754902247
    },
    "category": "Основание городов"
  },
  {
    "title": "Регламент адмиралтейств-коллегии",
    "date": "1719",
    "description": "* ** 1719 ** - **Регламент Адмиралтейств-коллегии** - Санкт-Петербург",
    "location": {
      "name": "Санкт-Петербург",
      "lat": 59.94,
      "lng": 30.31
    },
    "category": "Дипломатические события"
  },
  {
    "title": "Генеральный регламент** - российская империя",
    "date": "1720",
    "description": "* ** 1720 ** - **Генеральный регламент** - Российская империя",
    "location": {
      "name": "Санкт-Петербург",
      "lat": 59.94,
      "lng": 30.31
    },
    "category": "Основание городов"
  },
  {
    "title": "Указ о покупке крестьян к мануфактурам** -",
    "date": "1721",
    "description": "* ** 1721 ** - **Указ о покупке крестьян к мануфактурам** - Российская империя",
    "location": {
      "name": "Российская империя",
      "lat": 63.97095223190046,
      "lng": 35.95121926604312
    },
    "category": "Территориальные приобретения"
  },
  {
    "title": "Введение табели о рангах** - российская империя",
    "date": "1722",
    "description": "* ** 1722 ** - **Введение Табели о рангах** - Российская империя",
    "location": {
      "name": "Санкт-Петербург",
      "lat": 59.94,
      "lng": 30.31
    },
    "category": "Военные кампании"
  },
  {
    "title": "Указ о монополии на торговлю с персией**",
    "date": "1723",
    "description": "* ** 1723 ** - **Указ о монополии на торговлю с Персией** - Российская империя",
    "location": {
      "name": "Санкт-Петербург",
      "lat": 59.94,
      "lng": 30.31
    },
    "category": "Экономические события"
  },
  {
    "title": "Введение таможенного тарифа** - российская империя",
    "date": "1724",
    "description": "* ** 1724 ** - **Введение таможенного тарифа** - Российская империя",
    "location": {
      "name": "Санкт-Петербург",
      "lat": 59.94,
      "lng": 30.31
    },
    "category": "Территориальные приобретения"
  },
  {
    "title": "Основание академии наук** - санкт-петербург",
    "date": "1725",
    "description": "* ** 1725 ** - **Основание Академии наук** - Санкт-Петербург",
    "location": {
      "name": "Санкт-Петербург",
      "lat": 59.94,
      "lng": 30.31
    },
    "category": "Научные достижения"
  }
]