[
  {
    "title": "Год ** - вступление россии в антитурецкую",
    "date": "1686 год",
    "description": "* ** 1686 год ** - Вступление России в антитурецкую Священную лигу - Москва",
    "location": {
      "name": "Москва",
      "lat": 55.75,
      "lng": 37.62
    },
    "category": "Культура и религия"
  },
  {
    "title": "Год ** - первый крымский поход князя",
    "date": "1687 год",
    "description": "* ** 1687 год ** - Первый Крымский поход князя В",
    "location": {
      "name": "Перекоп",
      "lat": 52.03604889439721,
      "lng": 51.345689404306846
    },
    "category": "Культура и религия"
  },
  {
    "title": "Год ** - второй крымский поход князя",
    "date": "1689 год",
    "description": "* ** 1689 год ** - Второй Крымский поход князя В",
    "location": {
      "name": "Перекоп",
      "lat": 48.65623602807465,
      "lng": 40.856084119486475
    },
    "category": "Социальные реформы"
  },
  {
    "title": "Год ** - поездка петра i в",
    "date": "1693 год",
    "description": "* ** 1693 год ** - Поездка Петра I в Архангельск - Архангельск",
    "location": {
      "name": "Архангельск",
      "lat": 64.54,
      "lng": 40.54
    },
    "category": "Становление государства"
  },
  {
    "title": "Год ** - строительство кораблей на плещеевом",
    "date": "1694 год",
    "description": "* ** 1694 год ** - Строительство кораблей на Плещеевом озере - Переславль-Залесский",
    "location": {
      "name": "Переславль-Залесский",
      "lat": 61.60128076962489,
      "lng": 34.87131468672491
    },
    "category": "Социальные реформы"
  },
  {
    "title": "Год , январь-февраль** - подготовка к азовскому",
    "date": "1695 год",
    "description": "* ** 1695 год , январь-февраль** - Подготовка к Азовскому походу - Москва, Воронеж",
    "location": {
      "name": "Москва, Воронеж",
      "lat": 55.75,
      "lng": 37.62
    },
    "category": "Научные достижения"
  },
  {
    "title": "Первый азовский поход ( 1695 ):**",
    "date": "1695",
    "description": "**Первый Азовский поход ( 1695 ):**",
    "location": {
      "name": "Азов",
      "lat": 61.34779961251212,
      "lng": 41.86049539894272
    },
    "category": "Становление государства"
  },
  {
    "title": "Год , весна** - передвижение русских войск",
    "date": "1695 год",
    "description": "* ** 1695 год , весна** - Передвижение русских войск к Азову - Воронеж, Черкасск",
    "location": {
      "name": "Воронеж",
      "lat": 49.23488347781253,
      "lng": 35.954560430703125
    },
    "category": "Войны и сражения"
  },
  {
    "title": "Год , июнь** - начало осады азова",
    "date": "1695 год",
    "description": "* ** 1695 год , июнь** - Начало осады Азова - Азов",
    "location": {
      "name": "Азов",
      "lat": 61.391697464436305,
      "lng": 41.7079535259702
    },
    "category": "Изменения границ"
  },
  {
    "title": "Год , 5 июля** - первая попытка",
    "date": "1695 год",
    "description": "* ** 1695 год , 5 июля** - Первая попытка штурма Азова - Азов",
    "location": {
      "name": "Азов",
      "lat": 55.45354377026023,
      "lng": 39.49769255548551
    },
    "category": "Войны и сражения"
  },
  {
    "title": "Год , 18 июля** - вторая попытка",
    "date": "1695 год",
    "description": "* ** 1695 год , 18 июля** - Вторая попытка штурма Азова - Азов",
    "location": {
      "name": "Азов",
      "lat": 59.57398052201089,
      "lng": 51.13289074825383
    },
    "category": "Войны и сражения"
  },
  {
    "title": "Год , 25 сентября** - снятие осады",
    "date": "1695 год",
    "description": "* ** 1695 год , 25 сентября** - Снятие осады Азова - Азов",
    "location": {
      "name": "Азов",
      "lat": 56.929684041697385,
      "lng": 32.461928952231474
    },
    "category": "Экономические события"
  },
  {
    "title": "Год , осень** - анализ причин неудачи",
    "date": "1695 год",
    "description": "* ** 1695 год , осень** - Анализ причин неудачи первого Азовского похода - Москва, Воронеж",
    "location": {
      "name": "Москва, Воронеж",
      "lat": 55.75,
      "lng": 37.62
    },
    "category": "Научные достижения"
  },
  {
    "title": "Подготовка ко второму азовскому походу ( 1696",
    "date": "1696",
    "description": "**Подготовка ко Второму Азовскому походу ( 1696 ):**",
    "location": {
      "name": "Воронеж",
      "lat": 49.52724989291194,
      "lng": 48.59634818655186
    },
    "category": "Революции и перевороты"
  },
  {
    "title": "Год , ноябрь** - начало строительства флота",
    "date": "1695 год",
    "description": "* ** 1695 год , ноябрь** - Начало строительства флота на верфях Воронежа - Воронеж",
    "location": {
      "name": "Воронеж",
      "lat": 61.022092706192765,
      "lng": 50.66567030535759
    },
    "category": "Территориальные приобретения"
  },
  {
    "title": "Год , весна** - спуск на воду",
    "date": "1696 год",
    "description": "* ** 1696 год , весна** - Спуск на воду первых кораблей Азовского флота - Воронеж",
    "location": {
      "name": "Воронеж",
      "lat": 61.153237560335064,
      "lng": 29.943245209360278
    },
    "category": "Восстания и бунты"
  },
  {
    "title": "Год , апрель** - передвижение русских войск",
    "date": "1696 год",
    "description": "* ** 1696 год , апрель** - Передвижение русских войск и флота к Азову - Воронеж, Азовское море",
    "location": {
      "name": "Воронеж",
      "lat": 63.41658046357827,
      "lng": 47.62776333881331
    },
    "category": "Экономические события"
  },
  {
    "title": "Второй азовский поход ( 1696 ):**",
    "date": "1696",
    "description": "**Второй Азовский поход ( 1696 ):**",
    "location": {
      "name": "Азов",
      "lat": 59.430216619939024,
      "lng": 29.957558778352844
    },
    "category": "Территориальные приобретения"
  },
  {
    "title": "Год , май** - начало осады азова",
    "date": "1696 год",
    "description": "* ** 1696 год , май** - Начало осады Азова - Азов",
    "location": {
      "name": "Азов",
      "lat": 47.261173072695875,
      "lng": 31.475909942735072
    },
    "category": "Дипломатические события"
  },
  {
    "title": "Год , 27 мая** - захват турецких",
    "date": "1696 год",
    "description": "* ** 1696 год , 27 мая** - Захват турецких кораблей в устье Дона - Устье Дона",
    "location": {
      "name": "Устье Дона",
      "lat": 62.9783263247235,
      "lng": 46.430547743603455
    },
    "category": "Экономические события"
  },
  {
    "title": "Год , 14 июня** - обстрел азова",
    "date": "1696 год",
    "description": "* ** 1696 год , 14 июня** - Обстрел Азова с моря - Азов",
    "location": {
      "name": "Азов",
      "lat": 57.75787940380296,
      "lng": 44.88113445182626
    },
    "category": "Становление государства"
  },
  {
    "title": "Год , 17 июля** - капитуляция азова",
    "date": "1696 год",
    "description": "* ** 1696 год , 17 июля** - Капитуляция Азова - Азов",
    "location": {
      "name": "Азов",
      "lat": 48.8758415386547,
      "lng": 28.609972934949162
    },
    "category": "Военные кампании"
  },
  {
    "title": "Год , июль** - взятие крепости лютик",
    "date": "1696 год",
    "description": "* ** 1696 год , июль** - Взятие крепости Лютик (Новосергиевск) - Устье реки Миус",
    "location": {
      "name": "Устье реки Миус",
      "lat": 53.126648861530796,
      "lng": 32.99103945244934
    },
    "category": "Политические реформы"
  },
  {
    "title": "Год , июль-август** - укрепление азова и",
    "date": "1696 год",
    "description": "* ** 1696 год , июль-август** - Укрепление Азова и строительство новых укреплений - Азов",
    "location": {
      "name": "Азов",
      "lat": 61.84885793296718,
      "lng": 43.32116630493714
    },
    "category": "Основание городов"
  },
  {
    "title": "Год , 23 октября** - боярская дума",
    "date": "1696 год",
    "description": "* ** 1696 год , 23 октября** - Боярская дума принимает решение \"Морским судам быть\" - Москва",
    "location": {
      "name": "Москва",
      "lat": 55.75,
      "lng": 37.62
    },
    "category": "Дипломатические события"
  },
  {
    "title": "Годы** - великое посольство петра i в",
    "date": "1697-1698",
    "description": "* ** 1697-1698 годы** - Великое посольство Петра I в Европу - Европа (Голландия, Англия, Австрия и др",
    "location": {
      "name": "Европа",
      "lat": 50.0,
      "lng": 10.0
    },
    "category": "Социальные реформы"
  },
  {
    "title": "- основание таганрога - таганрог",
    "date": "1698 год",
    "description": "* ** 1698 год ** - Основание Таганрога - Таганрог",
    "location": {
      "name": "Таганрог",
      "lat": 55.40116009502401,
      "lng": 37.89459876570413
    },
    "category": "Восстания и бунты"
  },
  {
    "title": "- карловицкий мирный конгресс - карловцы",
    "date": "1699 год",
    "description": "* ** 1699 год ** - Карловицкий мирный конгресс - Карловцы (совр",
    "location": {
      "name": "Карловцы",
      "lat": 64.26209519806116,
      "lng": 27.887041597857902
    },
    "category": "Дипломатические события"
  },
  {
    "title": "- константинопольский мирный договор - константинополь",
    "date": "1700 год",
    "description": "* ** 1700 год ** - Константинопольский мирный договор - Константинополь",
    "location": {
      "name": "Константинополь",
      "lat": 41.01,
      "lng": 28.97
    },
    "category": "Дипломатические события"
  },
  {
    "title": "Год ** - прутский поход - прут",
    "date": "1711 год",
    "description": "* ** 1711 год ** - Прутский поход - Прут (Молдова)",
    "location": {
      "name": "Прут (Молдова)",
      "lat": 56.91976711231628,
      "lng": 44.061864809058704
    },
    "category": "Военные кампании"
  },
  {
    "title": "- белградский мирный договор - белград",
    "date": "1739 год",
    "description": "* ** 1739 год ** - Белградский мирный договор - Белград",
    "location": {
      "name": "Белград",
      "lat": 50.224708640214075,
      "lng": 45.55516228105025
    },
    "category": "Дипломатические события"
  },
  {
    "title": "- кючук-кайнарджийский мирный договор - кючук-кайнарджа",
    "date": "1774 год",
    "description": "* ** 1774 год ** - Кючук-Кайнарджийский мирный договор - Кючук-Кайнарджа (совр",
    "location": {
      "name": "Кючук-Кайнарджа",
      "lat": 60.200164813022326,
      "lng": 36.23193349037561
    },
    "category": "Дипломатические события"
  },
  {
    "title": "Весна] - [строительство флотилии на реке воронеж]",
    "date": "1695",
    "description": "* [ 1695 , весна] - [Строительство флотилии на реке Воронеж] - [Воронеж]",
    "location": {
      "name": "Воронеж",
      "lat": 55.06504077022507,
      "lng": 31.661082833395213
    },
    "category": "Территориальные приобретения"
  },
  {
    "title": "Май] - [переброска войск и артиллерии к",
    "date": "1695",
    "description": "* [ 1695 , май] - [Переброска войск и артиллерии к Азову] - [Река Дон]",
    "location": {
      "name": "Река Дон",
      "lat": 47.23,
      "lng": 39.72
    },
    "category": "Войны и сражения"
  },
  {
    "title": "Июнь] - [первые столкновения с турецким флотом]",
    "date": "1695",
    "description": "* [ 1695 , июнь] - [Первые столкновения с турецким флотом] - [Азовское море, устье Дона]",
    "location": {
      "name": "Азовское море, устье Дона",
      "lat": 60.540880507922026,
      "lng": 38.01577936114744
    },
    "category": "Политические реформы"
  },
  {
    "title": "Июль] - [штурм каланчи] - [окрестности азова]",
    "date": "1695",
    "description": "* [ 1695 , июль] - [Штурм Каланчи] - [Окрестности Азова]",
    "location": {
      "name": "Азов",
      "lat": 53.208616514087566,
      "lng": 35.88033235897652
    },
    "category": "Войны и сражения"
  },
  {
    "title": "Август] - [подрыв мины под крепостной стеной]",
    "date": "1695",
    "description": "* [ 1695 , август] - [Подрыв мины под крепостной стеной] - [Азов]",
    "location": {
      "name": "Азов",
      "lat": 64.33137609166242,
      "lng": 35.141294891431755
    },
    "category": "Дипломатические события"
  },
  {
    "title": "Сентябрь] - [снятие осады азова] - [азов]",
    "date": "1695",
    "description": "* [ 1695 , сентябрь] - [Снятие осады Азова] - [Азов]",
    "location": {
      "name": "Азов",
      "lat": 50.122218736599734,
      "lng": 49.625656263567194
    },
    "category": "Социальные реформы"
  },
  {
    "title": "Осень-зима] - [анализ причин неудачи первого похода]",
    "date": "1695",
    "description": "* [ 1695 , осень-зима] - [Анализ причин неудачи первого похода] - [Москва, Воронеж]",
    "location": {
      "name": "Москва, Воронеж",
      "lat": 55.75,
      "lng": 37.62
    },
    "category": "Основание городов"
  },
  {
    "title": "Январь-апрель] - [ускоренное строительство галер на воронежской",
    "date": "1696",
    "description": "* [ 1696 , январь-апрель] - [Ускоренное строительство галер на Воронежской верфи] - [Воронеж]",
    "location": {
      "name": "Воронеж",
      "lat": 50.686360917376824,
      "lng": 48.00791641322202
    },
    "category": "Восстания и бунты"
  },
  {
    "title": "Май] - [переброска флота к азову] -",
    "date": "1696",
    "description": "* [ 1696 , май] - [Переброска флота к Азову] - [Река Дон, Азовское море]",
    "location": {
      "name": "Река Дон, Азовское море",
      "lat": 47.23,
      "lng": 39.72
    },
    "category": "Политические реформы"
  },
  {
    "title": "Май-июнь] - [блокада азова с моря] -",
    "date": "1696",
    "description": "* [ 1696 , май-июнь] - [Блокада Азова с моря] - [Азовское море]",
    "location": {
      "name": "Азовское море",
      "lat": 47.9773015591323,
      "lng": 38.70647056286849
    },
    "category": "Изменения границ"
  },
  {
    "title": "Июнь] - [бой у устья дона] -",
    "date": "1696",
    "description": "* [ 1696 , июнь] - [Бой у устья Дона] - [Азовское море, устье Дона]",
    "location": {
      "name": "Азовское море, устье Дона",
      "lat": 57.35053765742008,
      "lng": 51.06735594643373
    },
    "category": "Войны и сражения"
  },
  {
    "title": "Июль] - [капитуляция азова] - [азов]",
    "date": "1696",
    "description": "* [ 1696 , июль] - [Капитуляция Азова] - [Азов]",
    "location": {
      "name": "Азов",
      "lat": 60.5036366828261,
      "lng": 46.32929227076751
    },
    "category": "Военные кампании"
  },
  {
    "title": "Август] - [торжественный въезд петра i в",
    "date": "1696",
    "description": "* [ 1696 , август] - [Торжественный въезд Петра I в Москву] - [Москва]",
    "location": {
      "name": "Москва",
      "lat": 55.75,
      "lng": 37.62
    },
    "category": "Научные достижения"
  },
  {
    "title": "Октябрь] - [боярская дума постановляет \"морским судам",
    "date": "1696",
    "description": "* [ 1696 , октябрь] - [Боярская дума постановляет \"Морским судам быть\"] - [Москва]",
    "location": {
      "name": "Москва",
      "lat": 55.75,
      "lng": 37.62
    },
    "category": "Территориальные приобретения"
  },
  {
    "title": "Великое посольство] - [западная европа]",
    "date": "1697-1698",
    "description": "* [ 1697-1698 ] - [Великое посольство] - [Западная Европа]",
    "location": {
      "name": "Западная Европа",
      "lat": 50.0,
      "lng": 10.0
    },
    "category": "Культура и религия"
  },
  {
    "title": "Июль] - [подавление стрелецкого бунта] - [москва]",
    "date": "1698",
    "description": "* [ 1698 , июль] - [Подавление стрелецкого бунта] - [Москва]",
    "location": {
      "name": "Москва",
      "lat": 55.75,
      "lng": 37.62
    },
    "category": "Революции и перевороты"
  },
  {
    "title": "Карловицкий мирный конгресс",
    "date": "1699",
    "description": "* [ 1699 , январь] - [Карловицкий мирный конгресс] - [Карловцы (Сремски Карловци), Сербия]",
    "location": {
      "name": "Карловцы (Сремски Карловци)",
      "lat": 58.33867675959709,
      "lng": 39.02595770553901
    },
    "category": "Дипломатические события"
  },
  {
    "title": "Константинопольский мирный договор",
    "date": "1700",
    "description": "* [ 1700 , июль] - [Константинопольский мирный договор] - [Константинополь]",
    "location": {
      "name": "Константинополь",
      "lat": 41.01,
      "lng": 28.97
    },
    "category": "Дипломатические события"
  },
  {
    "title": "Основание таганрога] - [таганрог]",
    "date": "1701",
    "description": "* [ 1701 ] - [Основание Таганрога] - [Таганрог]",
    "location": {
      "name": "Таганрог",
      "lat": 62.650449103626585,
      "lng": 46.2236509498654
    },
    "category": "Дипломатические события"
  },
  {
    "title": "Прутский поход] - [река прут, молдавия]",
    "date": "1711",
    "description": "* [ 1711 ] - [Прутский поход] - [Река Прут, Молдавия]",
    "location": {
      "name": "Река Прут, Молдавия",
      "lat": 47.01,
      "lng": 28.86
    },
    "category": "Становление государства"
  }
]