[
  {
    "title": "Год ** - воцарение алексея михайловича -",
    "date": "1645 год",
    "description": "* ** 1645 год ** - Воцарение Алексея Михайловича - Москва",
    "location": {
      "name": "Москва",
      "lat": 55.75,
      "lng": 37.62
    },
    "category": "Научные достижения"
  },
  {
    "title": "Год ** - введение соляного налога -",
    "date": "1646 год",
    "description": "* ** 1646 год ** - Введение соляного налога - Русское царство",
    "location": {
      "name": "Москва",
      "lat": 55.75,
      "lng": 37.62
    },
    "category": "Становление государства"
  },
  {
    "title": "Год , июнь** - соляной бунт -",
    "date": "1648 год",
    "description": "* ** 1648 год , июнь** - Соляной бунт - Москва",
    "location": {
      "name": "Москва",
      "lat": 55.75,
      "lng": 37.62
    },
    "category": "Революции и перевороты"
  },
  {
    "title": "Год , сентябрь** - подавление соляного бунта",
    "date": "1648 год",
    "description": "* ** 1648 год , сентябрь** - Подавление Соляного бунта - Москва",
    "location": {
      "name": "Москва",
      "lat": 55.75,
      "lng": 37.62
    },
    "category": "Революции и перевороты"
  },
  {
    "title": "Годы** - восстания в городах - русское",
    "date": "1648-1649",
    "description": "* ** 1648-1649 годы** - Восстания в городах - Русское царство (Козлов, Сольвычегодск, Устюг, Курск и др",
    "location": {
      "name": "Русское царство",
      "lat": 45.88743274629111,
      "lng": 46.05351526824076
    },
    "category": "Революции и перевороты"
  },
  {
    "title": "- принятие соборного уложения - москва",
    "date": "1649 год",
    "description": "* ** 1649 год , январь** - Принятие Соборного уложения - Москва",
    "location": {
      "name": "Москва",
      "lat": 55.75,
      "lng": 37.62
    },
    "category": "Культура и религия"
  },
  {
    "title": "Год , июнь** - казнь степана разина",
    "date": "1649 год",
    "description": "* ** 1649 год , июнь** - Казнь Степана Разина (отца) - Москва",
    "location": {
      "name": "Москва",
      "lat": 55.75,
      "lng": 37.62
    },
    "category": "Войны и сражения"
  },
  {
    "title": "Год , март-апрель** - хлебный бунт -",
    "date": "1650 год",
    "description": "* ** 1650 год , март-апрель** - Хлебный бунт - Псков",
    "location": {
      "name": "Псков",
      "lat": 57.82,
      "lng": 28.33
    },
    "category": "Революции и перевороты"
  },
  {
    "title": "Год , март-август** - хлебный бунт -",
    "date": "1650 год",
    "description": "* ** 1650 год , март-август** - Хлебный бунт - Новгород",
    "location": {
      "name": "Новгород",
      "lat": 58.52,
      "lng": 31.27
    },
    "category": "Революции и перевороты"
  },
  {
    "title": "Год ** - начало церковной реформы патриарха",
    "date": "1653 год",
    "description": "* ** 1653 год ** - Начало церковной реформы патриарха Никона - Москва",
    "location": {
      "name": "Москва",
      "lat": 55.75,
      "lng": 37.62
    },
    "category": "Культура и религия"
  },
  {
    "title": "- русско-польская война - территория современной украины",
    "date": "1654-1667",
    "description": "* ** 1654-1667 годы** - Русско-польская война - Территория современной Украины, Белоруссии, России",
    "location": {
      "name": "Украина",
      "lat": 50.45,
      "lng": 30.52
    },
    "category": "Войны и сражения"
  },
  {
    "title": "Год , январь** - переяславская рада -",
    "date": "1654 год",
    "description": "* ** 1654 год , январь** - Переяславская Рада - Переяслав (Украина)",
    "location": {
      "name": "Переяслав",
      "lat": 51.54654735522484,
      "lng": 49.85483701255711
    },
    "category": "Становление государства"
  },
  {
    "title": "- русско-шведская война - прибалтика",
    "date": "1656-1658",
    "description": "* ** 1656-1658 годы** - Русско-шведская война - Прибалтика",
    "location": {
      "name": "Прибалтика",
      "lat": 49.45640543572911,
      "lng": 35.37314937539198
    },
    "category": "Войны и сражения"
  },
  {
    "title": "Год ** - отстранение никона от патриаршества",
    "date": "1658 год",
    "description": "* ** 1658 год ** - Отстранение Никона от патриаршества - Москва",
    "location": {
      "name": "Москва",
      "lat": 55.75,
      "lng": 37.62
    },
    "category": "Основание городов"
  },
  {
    "title": "Год , июль** - медный бунт -",
    "date": "1662 год",
    "description": "* ** 1662 год , июль** - Медный бунт - Москва",
    "location": {
      "name": "Москва",
      "lat": 55.75,
      "lng": 37.62
    },
    "category": "Революции и перевороты"
  },
  {
    "title": "Годы** - церковный собор, осуждение старообрядцев -",
    "date": "1666-1667",
    "description": "* ** 1666-1667 годы** - Церковный собор, осуждение старообрядцев - Москва",
    "location": {
      "name": "Москва",
      "lat": 55.75,
      "lng": 37.62
    },
    "category": "Культура и религия"
  },
  {
    "title": "Год ** - новоторговый устав - москва",
    "date": "1667 год",
    "description": "* ** 1667 год ** - Новоторговый устав - Москва",
    "location": {
      "name": "Москва",
      "lat": 55.75,
      "lng": 37.62
    },
    "category": "Социальные реформы"
  },
  {
    "title": "- восстание степана разина - дон",
    "date": "1667-1671",
    "description": "* ** 1667-1671 годы** - Восстание Степана Разина - Дон, Поволжье",
    "location": {
      "name": "Дон",
      "lat": 47.23,
      "lng": 39.72
    },
    "category": "Революции и перевороты"
  },
  {
    "title": "- смерть алексея михайловича - москва",
    "date": "1676 год",
    "description": "* ** 1676 год ** - Смерть Алексея Михайловича - Москва",
    "location": {
      "name": "Москва",
      "lat": 55.75,
      "lng": 37.62
    },
    "category": "Экономические события"
  },
  {
    "title": "- русско-турецкая война - украина",
    "date": "1676-1681",
    "description": "* ** 1676-1681 годы** - Русско-турецкая война - Украина",
    "location": {
      "name": "Украина",
      "lat": 50.45,
      "lng": 30.52
    },
    "category": "Войны и сражения"
  },
  {
    "title": "- отмена местничества - москва",
    "date": "1682 год",
    "description": "* ** 1682 год ** - Отмена местничества - Москва",
    "location": {
      "name": "Москва",
      "lat": 55.75,
      "lng": 37.62
    },
    "category": "Революции и перевороты"
  },
  {
    "title": "Год ** - стрелецкий бунт - москва",
    "date": "1682 год",
    "description": "* ** 1682 год ** - Стрелецкий бунт - Москва",
    "location": {
      "name": "Москва",
      "lat": 55.75,
      "lng": 37.62
    },
    "category": "Революции и перевороты"
  },
  {
    "title": "Псковское восстание** - псков",
    "date": "1650",
    "description": "* ** 1650 ** - **Псковское восстание** - Псков",
    "location": {
      "name": "Псков",
      "lat": 57.82,
      "lng": 28.33
    },
    "category": "Революции и перевороты"
  },
  {
    "title": "Новгородское восстание** - новгород",
    "date": "1650",
    "description": "* ** 1650 ** - **Новгородское восстание** - Новгород",
    "location": {
      "name": "Новгород",
      "lat": 58.52,
      "lng": 31.27
    },
    "category": "Революции и перевороты"
  },
  {
    "title": "Русско-польская война** - территория речи посполитой, русское",
    "date": "1654-1667",
    "description": "* ** 1654-1667 ** - **Русско-польская война** - Территория Речи Посполитой, Русское государство",
    "location": {
      "name": "Речь Посполитая",
      "lat": 47.288955649920815,
      "lng": 31.38389505993697
    },
    "category": "Войны и сражения"
  },
  {
    "title": "Русско-шведская война** - прибалтика",
    "date": "1656-1658",
    "description": "* ** 1656-1658 ** - **Русско-шведская война** - Прибалтика",
    "location": {
      "name": "Прибалтика",
      "lat": 64.52908127751957,
      "lng": 45.27324781438297
    },
    "category": "Войны и сражения"
  },
  {
    "title": "Медный бунт** - москва",
    "date": "1662",
    "description": "* ** 1662 ** - **Медный бунт** - Москва",
    "location": {
      "name": "Москва",
      "lat": 55.75,
      "lng": 37.62
    },
    "category": "Революции и перевороты"
  },
  {
    "title": "Большой московский собор** - москва",
    "date": "1666-1667",
    "description": "* ** 1666-1667 ** - **Большой Московский Собор** - Москва",
    "location": {
      "name": "Москва",
      "lat": 55.75,
      "lng": 37.62
    },
    "category": "Культура и религия"
  },
  {
    "title": "Восстание степана разина** - юг россии, поволжье",
    "date": "1670-1671",
    "description": "* ** 1670-1671 ** - **Восстание Степана Разина** - Юг России, Поволжье",
    "location": {
      "name": "Юг России, Поволжье",
      "lat": 58.45499348936948,
      "lng": 43.25048519806421
    },
    "category": "Революции и перевороты"
  },
  {
    "title": "Смерть патриарха иоасафа ii** - москва",
    "date": "1676",
    "description": "* ** 1676 ** - **Смерть патриарха Иоасафа II** - Москва",
    "location": {
      "name": "Москва",
      "lat": 55.75,
      "lng": 37.62
    },
    "category": "Культура и религия"
  },
  {
    "title": "Русско-турецкая война** - левобережная украина",
    "date": "1676-1681",
    "description": "* ** 1676-1681 ** - **Русско-турецкая война** - Левобережная Украина",
    "location": {
      "name": "Левобережная Украина",
      "lat": 50.45,
      "lng": 30.52
    },
    "category": "Войны и сражения"
  },
  {
    "title": "Подворная перепись** - русское государство",
    "date": "1679-1681",
    "description": "* ** 1679-1681 ** - **Подворная перепись** - Русское государство",
    "location": {
      "name": "Русское государство",
      "lat": 58.691114155170176,
      "lng": 44.292439572111654
    },
    "category": "Становление государства"
  },
  {
    "title": "Церковный собор об искоренении местничества** - москва",
    "date": "1681-1682",
    "description": "* ** 1681-1682 ** - **Церковный Собор об искоренении местничества** - Москва",
    "location": {
      "name": "Москва",
      "lat": 55.75,
      "lng": 37.62
    },
    "category": "Культура и религия"
  },
  {
    "title": "Торговый устав** - русское государство",
    "date": "1653",
    "description": "* ** 1653 ** - **Торговый устав** - Русское государство",
    "location": {
      "name": "Москва",
      "lat": 55.75,
      "lng": 37.62
    },
    "category": "Становление государства"
  },
  {
    "title": "Новоторговый устав** - русское государство",
    "date": "1667",
    "description": "* ** 1667 ** - **Новоторговый устав** - Русское государство",
    "location": {
      "name": "Москва",
      "lat": 55.75,
      "lng": 37.62
    },
    "category": "Становление государства"
  },
  {
    "title": "Указ об отмене урочных лет для сыска",
    "date": "1649",
    "description": "* ** 1649 ** - **Указ об отмене урочных лет для сыска беглых крестьян** - Русское государство",
    "location": {
      "name": "Москва",
      "lat": 55.75,
      "lng": 37.62
    },
    "category": "Становление государства"
  },
  {
    "title": "Патриаршество никона** - русское государство",
    "date": "1652-1666",
    "description": "* ** 1652-1666 ** - **Патриаршество Никона** - Русское государство",
    "location": {
      "name": "Москва",
      "lat": 55.75,
      "lng": 37.62
    },
    "category": "Становление государства"
  },
  {
    "title": "Андрусовское перемирие",
    "date": "1667",
    "description": "* ** 1667 ** - **Андрусовское перемирие** - Деревня Андрусово, близ Смоленска",
    "location": {
      "name": "Деревня Андрусово, близ Смоленска",
      "lat": 54.78,
      "lng": 32.05
    },
    "category": "Дипломатические события"
  },
  {
    "title": "Перемирие между россией и речью посполитой",
    "date": "1654-1667",
    "description": "* Перемирие между Россией и Речью Посполитой, завершившее русско-польскую войну 1654-1667 годов",
    "location": {
      "name": "Андрусово",
      "lat": 57.339436501349326,
      "lng": 28.0741224361387
    },
    "category": "Дипломатические события"
  },
  {
    "title": "Соборное уложение** - москва",
    "date": "1649",
    "description": "* ** 1649 ** - **Соборное уложение** - Москва",
    "location": {
      "name": "Москва",
      "lat": 55.75,
      "lng": 37.62
    },
    "category": "Культура и религия"
  },
  {
    "title": "Переяславская рада** - переяслав",
    "date": "1654",
    "description": "* ** 1654 ** - **Переяславская рада** - Переяслав",
    "location": {
      "name": "Переяслав",
      "lat": 62.99000634217741,
      "lng": 27.5645343688281
    },
    "category": "Основание городов"
  },
  {
    "title": "Перепись населения** - русское государство",
    "date": "1678",
    "description": "* ** 1678 ** - **Перепись населения** - Русское государство",
    "location": {
      "name": "Русское государство",
      "lat": 54.909102076475605,
      "lng": 48.357604043972046
    },
    "category": "Становление государства"
  }
]