[
  {
    "title": "- рождение дмитрия ивановича",
    "date": "1581 год",
    "description": "[ 1581 год ] - Рождение Дмитрия Ивановича, царевича, сына Ивана Грозного - [Углич]",
    "location": {
      "name": "Углич",
      "lat": 53.25143047017483,
      "lng": 47.00458460880306
    },
    "category": "Политические реформы"
  },
  {
    "title": "- смерть царевича дмитрия ивановича -",
    "date": "1591",
    "description": "[15 мая 1591 года] - Смерть царевича Дмитрия Ивановича - [Углич]",
    "location": {
      "name": "Углич",
      "lat": 57.11992255882788,
      "lng": 37.53575230790646
    },
    "category": "Территориальные приобретения"
  },
  {
    "title": "Годы] - появление самозванца лжедмитрия i -",
    "date": "1600-1601",
    "description": "[ 1600-1601 годы] - Появление самозванца Лжедмитрия I - [Польша]",
    "category": "Становление государства"
  },
  {
    "title": "Год ] - лжедмитрий i вторгается в",
    "date": "1604 год",
    "description": "[ 1604 год ] - Лжедмитрий I вторгается в Россию - [Смоленск]",
    "location": {
      "name": "Смоленск",
      "lat": 54.78,
      "lng": 32.05
    },
    "category": "Социальные реформы"
  },
  {
    "title": "- смерть бориса годунова -",
    "date": "1605",
    "description": "[13 апреля 1605 года] - Смерть Бориса Годунова - [Москва]",
    "location": {
      "name": "Москва",
      "lat": 55.75,
      "lng": 37.62
    },
    "category": "Восстания и бунты"
  },
  {
    "title": "Июня 1605 года] - взятие лжедмитрием i",
    "date": "1605",
    "description": "[1 июня 1605 года] - Взятие Лжедмитрием I Крома - [Кромы]",
    "location": {
      "name": "Кромы",
      "lat": 47.25943128504621,
      "lng": 35.644813800264046
    },
    "category": "Становление государства"
  },
  {
    "title": "Июня 1605 год а] - взятие лжедмитрием",
    "date": "1 июня 1605 год",
    "description": "[ 1 июня 1605 год а] - Взятие Лжедмитрием I Крома - [Кромы]",
    "location": {
      "name": "Кромы",
      "lat": 58.32771556541329,
      "lng": 43.889357491849125
    },
    "category": "Дипломатические события"
  },
  {
    "title": "Июня 1605 года] - вступление лжедмитрия i",
    "date": "1605",
    "description": "[20 июня 1605 года] - Вступление Лжедмитрия I в Москву - [Москва]",
    "location": {
      "name": "Москва",
      "lat": 55.75,
      "lng": 37.62
    },
    "category": "Экономические события"
  },
  {
    "title": "Июня 1605 год а] - вступление лжедмитрия",
    "date": "20 июня 1605 год",
    "description": "[ 20 июня 1605 год а] - Вступление Лжедмитрия I в Москву - [Москва]",
    "location": {
      "name": "Москва",
      "lat": 55.75,
      "lng": 37.62
    },
    "category": "Территориальные приобретения"
  },
  {
    "title": "Мая 1606 года] - свадьба лжедмитрия i",
    "date": "1606",
    "description": "[17 мая 1606 года] - Свадьба Лжедмитрия I и Марины Мнишек - [Москва]",
    "location": {
      "name": "Москва (Кремль)",
      "lat": 55.75,
      "lng": 37.62
    },
    "category": "Дипломатические события"
  },
  {
    "title": "Мая 1606 год а] - свадьба лжедмитрия",
    "date": "17 мая 1606 год",
    "description": "[ 17 мая 1606 год а] - Свадьба Лжедмитрия I и Марины Мнишек - [Москва]",
    "location": {
      "name": "Москва",
      "lat": 55.75,
      "lng": 37.62
    },
    "category": "Изменения границ"
  },
  {
    "title": "- восстание в москве против лжедмитрия i -",
    "date": "1606",
    "description": "[17 мая 1606 года] - Восстание в Москве против Лжедмитрия I - [Москва]",
    "location": {
      "name": "Москва",
      "lat": 55.75,
      "lng": 37.62
    },
    "category": "Революции и перевороты"
  },
  {
    "title": "Мая 1606 года] - избрание василия шуйского",
    "date": "1606",
    "description": "[19 мая 1606 года] - Избрание Василия Шуйского новым царём - [Москва]",
    "location": {
      "name": "Москва (Кремль)",
      "lat": 55.75,
      "lng": 37.62
    },
    "category": "Социальные реформы"
  },
  {
    "title": "Мая 1606 год а] - избрание василия",
    "date": "19 мая 1606 год",
    "description": "[ 19 мая 1606 год а] - Избрание Василия Шуйского новым царём - [Москва]",
    "location": {
      "name": "Москва",
      "lat": 55.75,
      "lng": 37.62
    },
    "category": "Революции и перевороты"
  },
  {
    "title": "- восстание болотникова -",
    "date": "1606-1607",
    "description": "[ 1606-1607 годы] - Восстание Болотникова - [Центральная Россия]",
    "location": {
      "name": "Московское княжество (центр - Москва) и прилегающие районы Центральной России",
      "lat": 55.75,
      "lng": 37.62
    },
    "category": "Революции и перевороты"
  },
  {
    "title": "Годы] - поход интервенции польско-литовских войск -",
    "date": "1608-1610",
    "description": "[ 1608-1610 годы] - Поход интервенции польско-литовских войск - [Центральная Россия]",
    "location": {
      "name": "Москва и центральные районы России (Московское княжество)",
      "lat": 55.75,
      "lng": 37.62
    },
    "category": "Дипломатические события"
  },
  {
    "title": "Год ] - освобождение москвы от польско-литовских",
    "date": "1610 год",
    "description": "[ 1610 год ] - Освобождение Москвы от польско-литовских войск - [Москва]",
    "location": {
      "name": "Москва",
      "lat": 55.75,
      "lng": 37.62
    },
    "category": "Культура и религия"
  },
  {
    "title": "Февраля 1613 года] - избрание михаила романова",
    "date": "1613",
    "description": "[7 февраля 1613 года] - Избрание Михаила Романова новым царём - [Москва]",
    "category": "Изменения границ"
  },
  {
    "title": "Февраля 1613 год а] - избрание михаила",
    "date": "7 февраля 1613 год",
    "description": "[ 7 февраля 1613 год а] - Избрание Михаила Романова новым царём - [Москва]",
    "location": {
      "name": "Москва (Земский собор)",
      "lat": 55.75,
      "lng": 37.62
    },
    "category": "Дипломатические события"
  }
]