[
  {
    "title": "- рождение василия iii - москва",
    "date": "1472",
    "description": "[ 1472 , 25 января] - Рождение Василия III - Москва",
    "location": {
      "name": "Москва, Кремль (вероятно, в Большом Кремлёвском дворце)",
      "lat": 55.75,
      "lng": 37.62
    },
    "category": "Политические реформы"
  },
  {
    "title": "Василий iii, сын ивана iii и софии",
    "date": "в 1505",
    "description": "[Василий III, сын Ивана III и Софии Палеолог, родился в Москве и стал великим князем Московским в 1505 году",
    "location": {
      "name": "Москва (Кремль)",
      "lat": 55.75,
      "lng": 37.62
    },
    "category": "Территориальные приобретения"
  },
  {
    "title": "- смерть ивана iii - москва",
    "date": "1505",
    "description": "[ 1505 , 27 октября] - Смерть Ивана III - Москва",
    "location": {
      "name": "Москва, Кремль (поскольку точная локация внутри Москвы не указана, но вероятно это был Кремль)",
      "lat": 55.75,
      "lng": 37.62
    },
    "category": "Войны и сражения"
  },
  {
    "title": "Ноября] - вступление василия iii на престол",
    "date": "1505",
    "description": "[ 1505 , 1 ноября] - Вступление Василия III на престол - Москва",
    "location": {
      "name": "Москва",
      "lat": 55.75,
      "lng": 37.62
    },
    "category": "Территориальные приобретения"
  },
  {
    "title": "Июля] - захват пскова - псков",
    "date": "1510",
    "description": "[ 1510 , 8 июля] - Захват Пскова - Псков",
    "location": {
      "name": "Псков",
      "lat": 57.82,
      "lng": 28.33
    },
    "category": "Политические реформы"
  },
  {
    "title": "Марта] - захvat smolenska - smolensk",
    "date": "1514",
    "description": "[ 1514 , 22 марта] - Захvat Smolenska - Smolensk",
    "location": {
      "name": "Smolensk",
      "lat": 50.020360807484394,
      "lng": 47.97907282501029
    },
    "category": "Революции и перевороты"
  },
  {
    "title": "Василий iii захватил смоленск после длительной осады",
    "date": "1513",
    "description": "[Василий III захватил Смоленск после длительной осады, которая длилась с 31 июля 1513 года",
    "location": {
      "name": "Смоленск",
      "lat": 54.78,
      "lng": 32.05
    },
    "category": "Социальные реформы"
  },
  {
    "title": "- смерть софии палеолог - москва",
    "date": "1521",
    "description": "[ 1521 , 21 февраля] - Смерть Софии Палеолог - Москва",
    "category": "Территориальные приобретения"
  },
  {
    "title": "Сентября] - бракосочетание василия iii и елены",
    "date": "1521",
    "description": "[ 1521 , 25 сентября] - Бракосочетание Василия III и Елены Глинской - Москва",
    "location": {
      "name": "Москва",
      "lat": 55.75,
      "lng": 37.62
    },
    "category": "Культура и религия"
  },
  {
    "title": "- рождение ивана iv",
    "date": "1533",
    "description": "[ 1533 , 3 декабря] - Рождение Ивана IV (Грозного) - Москва",
    "location": {
      "name": "Москва",
      "lat": 55.75,
      "lng": 37.62
    },
    "category": "Экономические события"
  },
  {
    "title": "Сентября] - захват великих лук - великие",
    "date": "1534",
    "description": "[ 1534 , 8 сентября] - Захват Великих Лук - Великие Луки",
    "location": {
      "name": "Великие Луки",
      "lat": 46.81912375282721,
      "lng": 50.49137685967074
    },
    "category": "Территориальные приобретения"
  },
  {
    "title": "Ноября] - захват стародуба - стародуб",
    "date": "1538",
    "description": "[ 1538 , 25 ноября] - Захват Стародуба - Стародуб",
    "location": {
      "name": "Стародуб (Северская земля)",
      "lat": 59.30194251809817,
      "lng": 30.58914903337591
    },
    "category": "Политические реформы"
  },
  {
    "title": "Декабря] - захват можайска - можайск",
    "date": "1538",
    "description": "[ 1538 , 2 декабря] - Захват Можайска - Можайск",
    "location": {
      "name": "Можайск",
      "lat": 46.36774082452808,
      "lng": 35.971420442484686
    },
    "category": "Культура и религия"
  },
  {
    "title": "Марта] - захват серпухова - серпухов",
    "date": "1539",
    "description": "[ 1539 , 21 марта] - Захват Серпухова - Серпухов",
    "location": {
      "name": "Серпухов",
      "lat": 61.44158242135795,
      "lng": 39.24760667674699
    },
    "category": "Политические реформы"
  },
  {
    "title": "Мая] - захват твери - тверь",
    "date": "1539",
    "description": "[ 1539 , 18 мая] - Захват Твери - Тверь",
    "location": {
      "name": "Тверь",
      "lat": 62.571887860521514,
      "lng": 27.027117078822616
    },
    "category": "Культура и религия"
  },
  {
    "title": "- смерть василия iii - москва",
    "date": "1552",
    "description": "[ 1552 , 3 декабря] - Смерть Василия III - Москва",
    "location": {
      "name": "Кремль, Москва",
      "lat": 55.75,
      "lng": 37.62
    },
    "category": "Экономические события"
  }
]