[
  {
    "title": "- смерть мстислава великого -",
    "date": "1132 год",
    "description": "[ 1132 год ] - Смерть Мстислава Великого - [Киев]",
    "location": {
      "name": "Киев",
      "lat": 50.45,
      "lng": 30.52
    },
    "category": "Революции и перевороты"
  },
  {
    "title": "Год ] - первое упоминание московского княжества",
    "date": "1157 год",
    "description": "[ 1157 год ] - Первое упоминание Московского княжества - [Москва]",
    "location": {
      "name": "Москва",
      "lat": 55.75,
      "lng": 37.62
    },
    "category": "Становление государства"
  },
  {
    "title": "- андрей боголюбский переносит столицу в владимир -",
    "date": "1169 год",
    "description": "[ 1169 год ] - Андрей Боголюбский переносит столицу в Владимир - [Владимир]",
    "location": {
      "name": "Владимир",
      "lat": 56.13,
      "lng": 40.42
    },
    "category": "Дипломатические события"
  },
  {
    "title": "- битва на калке -",
    "date": "1223 год",
    "description": "[ 1223 год ] - Битва на Калке - [Река Калка, современная Украина]",
    "location": {
      "name": "Река Калка, современная Украина",
      "lat": 50.45,
      "lng": 30.52
    },
    "category": "Войны и сражения"
  },
  {
    "title": "Годы] - монголо-татарское нашествие - [весь регион",
    "date": "1237-1240",
    "description": "[ 1237-1240 годы] - Монголо-татарское нашествие - [Весь регион Киевской Руси]",
    "location": {
      "name": "Киевская Русь",
      "lat": 50.45,
      "lng": 30.52
    },
    "category": "Культура и религия"
  },
  {
    "title": "- александр невский становится великим князем владимирским -",
    "date": "1243 год",
    "description": "[ 1243 год ] - Александр Невский становится великим князем Владимирским - [Владимир]",
    "location": {
      "name": "Владимир",
      "lat": 56.13,
      "lng": 40.42
    },
    "category": "Дипломатические события"
  },
  {
    "title": "- битва на реке раковор -",
    "date": "1262 год",
    "description": "[ 1262 год ] - Битва на реке Раковор - [Река Раковор, современная Эстония]",
    "location": {
      "name": "Река Раковор, современная Эстония",
      "lat": 59.44,
      "lng": 24.75
    },
    "category": "Войны и сражения"
  },
  {
    "title": "- смерть михаила ярославича тверского -",
    "date": "1328 год",
    "description": "[ 1328 год ] - Смерть Михаила Ярославича Тверского - [Тверь]",
    "location": {
      "name": "Тверь",
      "lat": 60.13082227092066,
      "lng": 44.703442769286504
    },
    "category": "Изменения границ"
  },
  {
    "title": "- куликовская битва -",
    "date": "1380 год",
    "description": "[ 1380 год ] - Куликовская битва - [Река Дон, современная Тульская область]",
    "location": {
      "name": "Река Дон, Тульская область",
      "lat": 57.631528374297574,
      "lng": 32.17710000117533
    },
    "category": "Войны и сражения"
  },
  {
    "title": "Год ] - присоединение новгорода к московскому",
    "date": "1478 год",
    "description": "[ 1478 год ] - Присоединение Новгорода к Московскому княжеству - [Новгород]",
    "location": {
      "name": "Новгород",
      "lat": 58.52,
      "lng": 31.27
    },
    "category": "Становление государства"
  },
  {
    "title": "Год ] - стояние на угре -",
    "date": "1480 год",
    "description": "[ 1480 год ] - Стояние на Угре - [Река Угра, современная Калужская область]",
    "location": {
      "name": "Река Угра, Калужская область",
      "lat": 49.11496316418493,
      "lng": 39.79954672363862
    },
    "category": "Дипломатические события"
  },
  {
    "title": "Год ] - присоединение твери к московскому",
    "date": "1485 год",
    "description": "[ 1485 год ] - Присоединение Твери к Московскому княжеству - [Тверь]",
    "location": {
      "name": "Тверь",
      "lat": 61.4253845431685,
      "lng": 45.0741953972577
    },
    "category": "Становление государства"
  },
  {
    "title": "Год ] - иван iv грозный становится",
    "date": "1547 год",
    "description": "[ 1547 год ] - Иван IV Грозный становится царём - [Москва]",
    "location": {
      "name": "Москва",
      "lat": 55.75,
      "lng": 37.62
    },
    "category": "Становление государства"
  }
]