[
  {
    "title": "- битва на калке -",
    "date": "1223",
    "description": "[ 1223 ] - Битва на Калке - [Устье реки Калки, современная Украина]",
    "location": {
      "name": "Устье реки Калки, современная Украина",
      "lat": 50.45,
      "lng": 30.52
    },
    "category": "Войны и сражения"
  },
  {
    "title": "Захват рязани и коломены батыем - [рязань",
    "date": "1237-1238",
    "description": "[ 1237-1238 ] - Захват Рязани и Коломены Батыем - [Рязань, Коломенский кремль]",
    "location": {
      "name": "Рязань и Коломенский кремль",
      "lat": 63.41818284449957,
      "lng": 41.40453593254266
    },
    "category": "Революции и перевороты"
  },
  {
    "title": "- битва на реке сити -",
    "date": "1240",
    "description": "[ 1240 ] - Битва на реке Сити - [Река Сить, близ современного Твери]",
    "location": {
      "name": "Река Сить, близ современной Твери",
      "lat": 62.118231626558455,
      "lng": 30.648950208015343
    },
    "category": "Войны и сражения"
  },
  {
    "title": "- битва на реке истре -",
    "date": "1242",
    "description": "[ 1242 ] - Битва на реке Истре - [Река Истра, близ Москвы]",
    "location": {
      "name": "Река Истра, близ Москвы",
      "lat": 50.08380161162481,
      "lng": 50.59882815593019
    },
    "category": "Войны и сражения"
  },
  {
    "title": "Первое упоминание москвы в летописях как центр",
    "date": "1252",
    "description": "[ 1252 ] - Первое упоминание Москвы в летописях как центр удельного княжества - [Москва]",
    "location": {
      "name": "Москва",
      "lat": 55.75,
      "lng": 37.62
    },
    "category": "Становление государства"
  },
  {
    "title": "- битва на реке раковор -",
    "date": "1262",
    "description": "[ 1262 ] - Битва на реке Раковор - [Река Раковор, близ современной Санкт-Петербурга]",
    "location": {
      "name": "Река Раковор (близ современной Санкт-Петербурга)",
      "lat": 59.94,
      "lng": 30.31
    },
    "category": "Войны и сражения"
  },
  {
    "title": "- битва на чудском озере -",
    "date": "1270",
    "description": "[ 1270 ] - Битва на Чудском озере - [Чудское озеро, современная Эстония]",
    "location": {
      "name": "Чудское озеро (Эстония)",
      "lat": 59.44,
      "lng": 24.75
    },
    "category": "Войны и сражения"
  },
  {
    "title": "- присоединение тверского княжества к великому княжеству владимирскому -",
    "date": "1293",
    "description": "[ 1293 ] - Присоединение Тверского княжества к Великому княжеству Владимирскому - [Тверь]",
    "location": {
      "name": "Тверь и Владимир",
      "lat": 56.13,
      "lng": 40.42
    },
    "category": "Становление государства"
  },
  {
    "title": "Убийство князя михаила тверского в орде -",
    "date": "1303",
    "description": "[ 1303 ] - Убийство князя Михаила Тверского в Орде - [Сарай-Бату, Золотая Орда]",
    "location": {
      "name": "Сарай-Бату, Золотая Орда",
      "lat": 55.91243772111834,
      "lng": 36.66712703076613
    },
    "category": "Территориальные приобретения"
  },
  {
    "title": "- крещение золотой орды -",
    "date": "1325",
    "description": "[ 1325 ] - Крещение Золотой Орды - [Сарай-Берке, Золотая Орда]",
    "location": {
      "name": "Сарай-Берке, Золотая Орда",
      "lat": 58.7046947956329,
      "lng": 35.89779056317134
    },
    "category": "Становление государства"
  },
  {
    "title": "- перенос столицы великого княжества владимирского из владимира в москву -",
    "date": "1328",
    "description": "[ 1328 ] - Перенос столицы Великого княжества Владимирского из Владимира в Москву - [Владимир, Москва]",
    "location": {
      "name": "Москва",
      "lat": 55.75,
      "lng": 37.62
    },
    "category": "Становление государства"
  },
  {
    "title": "- куликовская битва -",
    "date": "1380",
    "description": "[ 1380 ] - Куликовская битва - [Куликово поле, близ современной Тулы]",
    "location": {
      "name": "Куликово поле, близ современной Тулы",
      "lat": 53.67,
      "lng": 38.67
    },
    "category": "Войны и сражения"
  },
  {
    "title": "Захват и разграбление москвы тохтамышем - [москва]",
    "date": "1382",
    "description": "[ 1382 ] - Захват и разграбление Москвы Тохтамышем - [Москва]",
    "location": {
      "name": "Москва",
      "lat": 55.75,
      "lng": 37.62
    },
    "category": "Территориальные приобретения"
  },
  {
    "title": "Отказ ивана iii от уплаты дани золотой",
    "date": "1480",
    "description": "[ 1480 ] - Отказ Ивана III от уплаты дани Золотой Орде - [Москва]",
    "location": {
      "name": "Москва",
      "lat": 55.75,
      "lng": 37.62
    },
    "category": "Восстания и бунты"
  }
]