[
  {
    "title": "- рождение ивана калиты - москва",
    "date": "1304",
    "description": "[ 1304 ] - Рождение Ивана Калиты - Москва",
    "location": {
      "name": "Москва",
      "lat": 55.75,
      "lng": 37.62
    },
    "category": "Восстания и бунты"
  },
  {
    "title": "Иван i данилович, более известный как иван",
    "date": "в 1325",
    "description": "[Иван I Данилович, более известный как Иван Калита, родился в Москве и стал московским князем в 1325 году",
    "location": {
      "name": "Москва",
      "lat": 55.75,
      "lng": 37.62
    },
    "category": "Восстания и бунты"
  },
  {
    "title": "Присоединение коломны к московскому княжеству - коломна",
    "date": "1322",
    "description": "[ 1322 ] - Присоединение Коломны к Московскому княжеству - Коломна",
    "location": {
      "name": "Коломна",
      "lat": 54.87375540626134,
      "lng": 50.80968272876819
    },
    "category": "Становление государства"
  },
  {
    "title": "Иван калита становится московским князем - москва",
    "date": "1325",
    "description": "[ 1325 ] - Иван Калита становится московским князем - Москва",
    "location": {
      "name": "Москва",
      "lat": 55.75,
      "lng": 37.62
    },
    "category": "Военные кампании"
  },
  {
    "title": "- получение ярлыка на великое княжение владимирское от узбек-хана - золотая орда",
    "date": "1326",
    "description": "[ 1326 ] - Получение ярлыка на великое княжение Владимирское от Узбек-хана - Золотая Орда",
    "location": {
      "name": "Сарай-Бату (столица Золотой Орды)",
      "lat": 49.15245727146402,
      "lng": 43.605929894572384
    },
    "category": "Дипломатические события"
  },
  {
    "title": "Присоединение мурома к московскому княжеству - муром",
    "date": "1327",
    "description": "[ 1327 ] - Присоединение Мурома к Московскому княжеству - Муром",
    "location": {
      "name": "Муром",
      "lat": 46.01774577251552,
      "lng": 34.20850777131119
    },
    "category": "Становление государства"
  },
  {
    "title": "- перенесение мощей святого петра из владимира в москву - владимир и москва",
    "date": "1328",
    "description": "[ 1328 ] - Перенесение мощей святого Петра из Владимира в Москву - Владимир и Москва",
    "location": {
      "name": "Владимир и Москва",
      "lat": 55.75,
      "lng": 37.62
    },
    "category": "Дипломатические события"
  },
  {
    "title": "Присоединение нижнего новгорода к московскому княжеству -",
    "date": "1339",
    "description": "[ 1339 ] - Присоединение Нижнего Новгорода к Московскому княжеству - Нижний Новгород",
    "location": {
      "name": "Нижний Новгород",
      "lat": 56.32,
      "lng": 44.0
    },
    "category": "Становление государства"
  },
  {
    "title": "Постройка каменных стен китай-города - москва",
    "date": "1340",
    "description": "[ 1340 ] - Постройка каменных стен Китай-города - Москва",
    "location": {
      "name": "Москва (Китай-город)",
      "lat": 55.75,
      "lng": 37.62
    },
    "category": "Изменения границ"
  },
  {
    "title": "Присоединение твери к московскому княжеству - тверь",
    "date": "1345",
    "description": "[ 1345 ] - Присоединение Твери к Московскому княжеству - Тверь",
    "location": {
      "name": "Тверь",
      "lat": 53.81723109318114,
      "lng": 45.761989356400534
    },
    "category": "Становление государства"
  },
  {
    "title": "Присоединение галича к московскому княжеству - галич",
    "date": "1353",
    "description": "[ 1353 ] - Присоединение Галича к Московскому княжеству - Галич",
    "category": "Становление государства"
  },
  {
    "title": "- смерть ивана калиты - москва",
    "date": "1354",
    "description": "[ 1354 ] - Смерть Ивана Калиты - Москва",
    "category": "Основание городов"
  }
]