[
  {
    "title": "- рождение дмитрия ивановича донского -",
    "date": "1359 год",
    "description": "[ 1359 год ] - Рождение Дмитрия Ивановича Донского - [Москва]",
    "location": {
      "name": "Москва",
      "lat": 55.75,
      "lng": 37.62
    },
    "category": "Войны и сражения"
  },
  {
    "title": "Дмитрий иванович, сын ивана красного и внук",
    "date": "в 1362",
    "description": "[Дмитрий Иванович, сын Ивана Красного и внук Ивана Калиты, родился в Москве и стал великим князем Московским в 1362 году",
    "location": {
      "name": "Москва",
      "lat": 55.75,
      "lng": 37.62
    },
    "category": "Становление государства"
  },
  {
    "title": "Год ] - дмитрий иванович становится великим",
    "date": "1362 год",
    "description": "[ 1362 год ] - Дмитрий Иванович становится великим князем Московским - [Москва]",
    "location": {
      "name": "Москва",
      "lat": 55.75,
      "lng": 37.62
    },
    "category": "Изменения границ"
  },
  {
    "title": "Год ] - первая победа дмитрия донского",
    "date": "1370 год",
    "description": "[ 1370 год ] - Первая победа Дмитрия Донского над монголами - [Битва на реке Тросне]",
    "location": {
      "name": "Река Тросна",
      "lat": 61.311972040826404,
      "lng": 27.03944321448856
    },
    "category": "Войны и сражения"
  },
  {
    "title": "- битва на шишевском лесу -",
    "date": "1375 год",
    "description": "[ 1375 год ] - Битва на Шишевском лесу - [Шишевский лес]",
    "category": "Войны и сражения"
  },
  {
    "title": "Год ] - строительство успенского собора в",
    "date": "1376 год",
    "description": "[ 1376 год ] - Строительство Успенского собора в Московском Кремле - [Москва]",
    "location": {
      "name": "Москва",
      "lat": 55.75,
      "lng": 37.62
    },
    "category": "Культура и религия"
  },
  {
    "title": "- битва на воже -",
    "date": "1378 год",
    "description": "[ 1378 год ] - Битва на Воже - [Вожа]",
    "location": {
      "name": "Битва на Воже произошла близ реки Вожа (нынешняя территория Владимирской области, Россия)",
      "lat": 56.13,
      "lng": 40.42
    },
    "category": "Войны и сражения"
  },
  {
    "title": "- куликовская битва -",
    "date": "1380 год",
    "description": "[ 1380 год ] - Куликовская битва - [Куликово поле]",
    "location": {
      "name": "Куликово поле",
      "lat": 53.67,
      "lng": 38.67
    },
    "category": "Войны и сражения"
  },
  {
    "title": "Год ] - осада москвы тохтамышем -",
    "date": "1382 год",
    "description": "[ 1382 год ] - Осада Москвы Тохтамышем - [Москва]",
    "location": {
      "name": "Москва",
      "lat": 55.75,
      "lng": 37.62
    },
    "category": "Войны и сражения"
  },
  {
    "title": "- смерть дмитрия донского -",
    "date": "1389 год",
    "description": "[ 1389 год ] - Смерть Дмитрия Донского - [Москва]",
    "location": {
      "name": "Москва",
      "lat": 55.75,
      "lng": 37.62
    },
    "category": "Военные кампании"
  },
  {
    "title": "- битва на реке терек -",
    "date": "1393 год",
    "description": "[ 1393 год ] - Битва на реке Терек - [Река Терек]",
    "location": {
      "name": "Река Терек (в районе современного города Терек, Северная Осетия)",
      "lat": 64.43511060354858,
      "lng": 34.86003550727423
    },
    "category": "Войны и сражения"
  },
  {
    "title": "Год ] - отказ русских князей от",
    "date": "1480 год",
    "description": "[ 1480 год ] - Отказ русских князей от уплаты дани Золотой Орде - [Москва]",
    "location": {
      "name": "Москва (или Великое княжество Московское)",
      "lat": 55.75,
      "lng": 37.62
    },
    "category": "Научные достижения"
  }
]