[
  {
    "title": "- коронация ивана iv грозного - успенский собор",
    "date": "1547",
    "description": "[ 1547 , 16 января] - Коронация Ивана IV Грозного - Успенский собор, Московский Кремль, Москва",
    "location": {
      "name": "Успенский собор, Московский Кремль, Москва",
      "lat": 55.75,
      "lng": 37.62
    },
    "category": "Культура и религия"
  },
  {
    "title": "Августа] - завоевание казани - казань",
    "date": "1552",
    "description": "[ 1552 , 2 августа] - Завоевание Казани - Казань",
    "location": {
      "name": "Казань",
      "lat": 55.79,
      "lng": 49.12
    },
    "category": "Становление государства"
  },
  {
    "title": "- основание города томска - томск",
    "date": "1584",
    "description": "[ 1584 , 25 июля] - Основание города Томска - Томск",
    "location": {
      "name": "Томск",
      "lat": 62.35305698575637,
      "lng": 31.519423005825466
    },
    "category": "Дипломатические события"
  },
  {
    "title": "Февраля] - восшествие на престол михаила фёдоровича",
    "date": "1613",
    "description": "[ 1613 , 21 февраля] - Восшествие на престол Михаила Фёдоровича Романова - Москва",
    "location": {
      "name": "Москва",
      "lat": 55.75,
      "lng": 37.62
    },
    "category": "Основание городов"
  },
  {
    "title": "- указ о строении - москва",
    "date": "1682",
    "description": "[ 1682 , 25 января] - Указ о строении - Москва",
    "location": {
      "name": "Москва",
      "lat": 55.75,
      "lng": 37.62
    },
    "category": "Дипломатические события"
  },
  {
    "title": "Мая] - первый азовский поход - азов",
    "date": "1696",
    "description": "[ 1696 , 18 мая] - Первый Азовский поход - Азов",
    "location": {
      "name": "Азов (Азовская крепость)",
      "lat": 57.461755580828694,
      "lng": 40.49732817255608
    },
    "category": "Восстания и бунты"
  },
  {
    "title": "- основание санкт-петербурга - устье реки нева",
    "date": "1703",
    "description": "[ 1703 , 16 мая] - Основание Санкт-Петербурга - устье реки Нева",
    "location": {
      "name": "Устье реки Нева",
      "lat": 57.89013467978759,
      "lng": 30.868906603993793
    },
    "category": "Экономические события"
  },
  {
    "title": "Октября] - пётр i принял титул императора",
    "date": "1721",
    "description": "[ 1721 , 22 октября] - Пётр I принял титул Императора Всероссийского - Москва",
    "location": {
      "name": "Москва",
      "lat": 55.75,
      "lng": 37.62
    },
    "category": "Изменения границ"
  },
  {
    "title": "Января] - вступление на престол екатерины ii",
    "date": "1762",
    "description": "[ 1762 , 5 января] - Вступление на престол Екатерины II - Санкт-Петербург",
    "location": {
      "name": "Санкт-Петербург",
      "lat": 59.94,
      "lng": 30.31
    },
    "category": "Основание городов"
  },
  {
    "title": "Февраля] - присоединение крыма к российской империи",
    "date": "1783",
    "description": "[ 1783 , 2 февраля] - Присоединение Крыма к Российской империи - Крым",
    "location": {
      "name": "Крым (или Крымский полуостров)",
      "lat": 45.3,
      "lng": 34.2
    },
    "category": "Изменения границ"
  },
  {
    "title": "Декабря] - учреждение ордена святого георгия -",
    "date": "1801",
    "description": "[ 1801 , 12 декабря] - Учреждение ордена Святого Георгия - Санкт-Петербург",
    "location": {
      "name": "Санкт-Петербург",
      "lat": 59.94,
      "lng": 30.31
    },
    "category": "Восстания и бунты"
  },
  {
    "title": "- бородинское сражение - село бородино",
    "date": "1812",
    "description": "[ 1812 , 7 сентября] - Бородинское сражение - село Бородино, Можайский уезд",
    "location": {
      "name": "Бородино, Можайский уезд (ныне Можайский район, Московская область)",
      "lat": 55.52,
      "lng": 35.83
    },
    "category": "Войны и сражения"
  },
  {
    "title": "Одной из ключевых битв отечественной войны 1812 года стала битва при бородино между русской армией под командованием кутузова и наполеоновскими войсками",
    "date": "1812",
    "description": "[Одной из ключевых битв Отечественной войны 1812 года стала битва при Бородино между русской армией под командованием Кутузова и наполеоновскими войсками",
    "location": {
      "name": "Бородино, Можайский район, Московская область",
      "lat": 55.52,
      "lng": 35.83
    },
    "category": "Войны и сражения"
  },
  {
    "title": "- отмена крепостного права - москва",
    "date": "1861",
    "description": "[ 1861 , 19 февраля] - Отмена крепостного права - Москва",
    "location": {
      "name": "Москва (или Санкт-Петербург, так как указ был подписан императором Александром II в Зимнем дворце)",
      "lat": 55.75,
      "lng": 37.62
    },
    "category": "Войны и сражения"
  },
  {
    "title": "- открытие кругобайкальской железной дороги - байкал",
    "date": "1894",
    "description": "[ 1894 , 15 мая] - Открытие Кругобайкальской железной дороги - Байкал",
    "location": {
      "name": "Кругобайкальская железная дорога, озеро Байкал",
      "lat": 50.72927531612642,
      "lng": 32.25227791438886
    },
    "category": "Научные достижения"
  },
  {
    "title": "Марта] - абдикация николая ii - царское",
    "date": "1917",
    "description": "[ 1917 , 2 марта] - Абдикация Николая II - Царское Село, Санкт-Петербург",
    "location": {
      "name": "Царское Село, Санкт-Петербург",
      "lat": 59.94,
      "lng": 30.31
    },
    "category": "Становление государства"
  }
]